     2.11           OBSERVATION DATA    Mixed(MIXED)        RINEX VERSION / TYPE
cnvtToRINEX 3.09.11 convertToRINEX OPR  29-May-19 08:34 UTC PGM / RUN BY / DATE 
----------------------------------------------------------- COMMENT             
3                                                           MARKER NAME         
3                                                           MARKER NUMBER       
GNSS Observer       Trimble                                 OBSERVER / AGENCY   
5216486001          TRIMBLE R8 GNSS3    4.44                REC # / TYPE / VERS 
                    TRM60158.00                             ANT # / TYPE        
  4146333.9152   611809.6441  4791825.5441                  APPROX POSITION XYZ 
        0.0000        0.0000        0.0000                  ANTENNA: DELTA H/E/N
     1     1     0                                          WAVELENGTH FACT L1/2
     7    C1    C2    C5    L1    L2    L5    P2            # / TYPES OF OBSERV 
  2019     5    27     9    51   40.0000000     GPS         TIME OF FIRST OBS   
  2019     5    27    10    41   55.0000000     GPS         TIME OF LAST OBS    
     0                                                      RCV CLOCK OFFS APPL 
    18                                                      LEAP SECONDS        
    16                                                      # OF SATELLITES     
   G02   520     0     0   512   467     0   467            PRN / # OF OBS      
   G06   283   232   263   251   377   263   158            PRN / # OF OBS      
   G12   604   604     0   604  1208     0   604            PRN / # OF OBS      
   G14   535     0     0   498   223     0   224            PRN / # OF OBS      
   G24   381   379   380   366   739   380   374            PRN / # OF OBS      
   G25   604   604   604   604  1208   604   604            PRN / # OF OBS      
   G29   604   604     0   604  1208     0   604            PRN / # OF OBS      
   G31   550   544     0   539  1010     0   472            PRN / # OF OBS      
   G32   601   601   601   599  1198   601   599            PRN / # OF OBS      
   R02   135     0     0   122    47     0    58            PRN / # OF OBS      
   R09   202     0     0   202   202     0   202            PRN / # OF OBS      
   R10   600     0     0   599   600     0   600            PRN / # OF OBS      
   R11   604     0     0   604   604     0   604            PRN / # OF OBS      
   R12   191     0     0   184     0     0     0            PRN / # OF OBS      
   R20   604     0     0   604   604     0   604            PRN / # OF OBS      
   R21   604     0     0   604   604     0   604            PRN / # OF OBS      
CARRIER PHASE MEASUREMENTS: PHASE SHIFTS REMOVED            COMMENT             
                                                            END OF HEADER       
                            2  1
              *** Start of Kinematic Data ***               COMMENT             
 19  5 27  9 51 40.0000000  0 13G02G06G12G24G25G29G32R02R09R10R11R20
                                R21
  22935564.852 1                                 120527156.04011
                
  23540840.672 3  23540850.309 7  23540849.871 8 123708107.91413  96395834.35417
  92379351.54818  23540848.85945
  20720300.695 7  20720303.473 9                 108885918.16817  84846172.59619
                  20720303.37548
  23201893.406 6  23201900.504 9  23201901.625 9 121926772.53816  95007865.67019
  91049226.30719  23201900.02747
  20581673.180 7  20581677.582 9  20581679.281 9 108157419.16517  84278528.56319
  80766929.66619  20581677.21548
  21861363.813 7  21861368.258 9                 114882242.83817  89518646.91319
                  21861368.58248
  22553439.789 6  22553443.168 8  22553443.547 9 118519119.25716  92352589.44718
  88504557.19319  22553442.00447
  22917085.617 1                                 122289846.97411  95114447.62117
                  22917092.492 7
  22507293.516 5                                 120187788.11715  93479310.91618
                  22507297.500 8
  19664711.477 7                                 104823981.18317  81529759.00018
                  19664719.672 8
  20662710.227 7                                 110415237.72517  85878540.02919
                  20662716.309 9
  19852815.125 5                                 106162114.86915  82570385.91619
                  19852820.195 9
  21508154.563 7                                 115094468.49417  89517921.98019
                  21508158.836 9
 19  5 27  9 51 45.0000000  0 14G02G06G12G14G24G25G29G32R02R09R10R11
                                R20R21
  22933448.461 1                                 120516057.75711
                
  23540558.766 4  23540566.039 8  23540566.988 7 123706617.140 4  96394672.642 8
  92378238.310 7  23540564.74245
  20720470.242 7  20720473.012 9                 108886811.416 7  84846868.629 9
                  20720473.45748
  22806286.531 1                                 119847927.86011
                
  23203735.203 5  23203741.984 9  23203743.281 9 121936452.841 5  95015408.704 9
  91056455.046 9  23203741.56347
  20579500.766 7  20579505.082 9  20579506.820 9 108146001.746 7  84269631.862 9
  80758403.654 9  20579505.10548
  21857198.977 7  21857203.137 9                 114860353.636 7  89501590.379 9
                  21857203.48848
  22553107.742 6  22553110.867 8  22553113.234 9 118517376.157 6  92351231.101 8
  88503255.496 9  22553109.52346
  22915579.281 2                                 122281812.160 2  95108198.276 7
                  22915586.844 7
  22509027.258 5                                 120197045.786 5  93486511.305 8
                  22509034.434 8
  19664308.891 8                                 104821834.476 8  81528089.352 8
                  19664316.605 8
  20658861.563 7                                 110394664.087 7  85862538.343 9
                  20658867.348 9
  19851465.773 5                                 106154900.653 5  82564774.876 9
                  19851471.258 9
  21503056.750 7                                 115067185.076 7  89496701.557 9
                  21503060.230 9
                            3  5
              *** Start of Occupation ***                   COMMENT             
3                                                           MARKER NAME         
3                                                           MARKER NUMBER       
  4146333.9152   611809.6441  4791825.5441                  APPROX POSITION XYZ 
        0.0000        0.0000        0.0000                  ANTENNA: DELTA H/E/N
 19  5 27  9 51 50.0000000  0 14G02G06G12G14G24G25G29G32R02R09R10R11
                                R20R21
  22931340.594 1                                 120504980.782 1
                
  23540278.953 2  23540286.938 7  23540285.715 7 123705149.846 2  96393529.341 7
  92377142.532 7  23540285.69945
  20720643.805 7  20720646.305 9                 108887721.257 7  84847577.604 9
                  20720646.45748
  22804484.617 1                                                
                
  23205581.281 6  23205586.938 9  23205587.891 9 121946146.515 6  95022962.169 9
  91063693.828 9  23205586.64147
  20577331.727 7  20577336.070 9  20577337.617 9 108134602.559 7  84260749.378 9
  80749891.264 9  20577335.66848
  21853036.648 7  21853039.762 9                 114838482.306 7  89484547.826 9
                  21853040.22748
  22552780.516 6  22552784.004 8  22552786.582 9 118515656.116 6  92349890.892 8
  88501971.048 9  22552782.05547
  22914078.344 3                                 122273806.741 3  95101971.933 7
                  22914087.461 7
  22510764.813 5                                 120206317.900 5  93493722.966 8
                  22510771.109 8
  19663909.977 7                                 104819709.132 7  81526436.304 8
                  19663918.137 8
  20655013.148 7                                 110374106.109 7  85846548.794 9
                  20655019.492 9
  19850122.188 5                                 106147717.885 5  82559188.249 9
                  19850128.004 9
  21497961.727 8                                 115039920.897 8  89475496.087 9
                  21497964.414 9
 19  5 27  9 51 55.0000000  0 13G06G12G14G24G25G29G32R02R09R10R11R20
                                R21
  23540002.836 2  23540012.734 7  23540012.180 7 123703705.045 2  96392403.553 7
  92376063.679 7  23540010.46545
  20720820.063 7  20720822.613 9                 108888646.632 7  84848298.678 9
                  20720822.86348
  22802687.914 1                                 119828997.28311
                
  23207427.180 5  23207434.000 9  23207434.656 9 121955852.535 5  95030525.262 9
  91070941.790 9  23207433.52347
  20575166.070 7  20575170.223 9  20575171.434 9 108123220.582 7  84251880.275 9
  80741391.724 9  20575170.12948
  21848878.016 7  21848881.012 9                 114816627.898 7  89467518.396 9
                  21848880.79748
  22552458.461 6  22552460.750 8  22552463.039 9 118513958.124 6  92348567.829 8
  88500703.060 9  22552459.44947
  22912585.914 2                                 122265829.313 2  95095767.332 7
                  22912593.754 7
  22512501.953 5                                 120215603.392 5  93500944.954 8
                  22512508.387 8
  19663515.070 7                                 104817604.244 7  81524799.175 8
                  19663522.508 8
  20651169.242 7                                 110353562.817 7  85830570.651 9
                  20651175.637 9
  19848783.313 5                                 106140565.347 5  82553625.176 9
                  19848790.688 9
  21492869.109 8                                 115012674.896 8  89454304.751 9
                  21492872.594 9
 19  5 27  9 52  0.0000000  0 13G06G12G14G24G25G29G32R02R09R10R11R20
                                R21
  23539731.484 1  23539741.367 7                 123702281.869 1  96391294.517 7
                  23539739.95745
  20720999.047 7  20721001.809 9                 108889586.931 7  84849031.375 9
                  20721001.96948
  22800894.875 1                                 119819564.992 1
                
  23209275.266 4  23209283.871 9  23209284.723 9 121965570.236 4  95038097.468 9
  91078198.468 9  23209283.12147
  20573002.422 7  20573007.398 9  20573008.469 9 108111855.160 7  84243024.113 9
  80732904.567 9  20573007.57048
  21844722.367 7  21844725.656 9                 114794789.576 7  89450501.530 9
                  21844725.33248
  22552138.922 6  22552142.734 8  22552143.813 9 118512281.541 6  92347261.354 8
  88499451.070 9  22552140.57047
  22911093.492 1                                 122257879.610 1  95089584.210 7
                  22911104.457 7
  22514243.875 5                                 120224901.688 5  93508176.896 7
                  22514247.020 7
  19663124.172 8                                 104815519.130 8  81523177.408 8
                  19663131.188 8
  20647327.938 7                                 110333033.540 7  85814603.477 9
                  20647333.648 9
  19847453.227 5                                 106133442.459 5  82548085.153 9
                  19847458.805 9
  21487781.156 7                                 114985446.479 7  89433127.123 9
                  21487783.980 9
 19  5 27  9 52  5.0000000  0 12G06G12G14G24G25G29G32R09R10R11R20R21
  23539465.469 2  23539473.531 8  23539467.551 7 123700879.853 2  96390201.995 8
  92373926.79317  23539473.04745
  20721181.203 8  20721182.992 9                 108890541.467 8  84849775.151 9
                  20721183.18448
  22799104.398 1                                 119810153.983 1
                
  23211127.836 5  23211134.996 9  23211135.641 9 121975299.146 5  95045678.396 9
  91085463.528 9  23211134.39547
  20570843.188 7  20570847.191 9  20570848.551 9 108100505.624 7  84234180.313 9
  80724429.249 9  20570847.36348
  21840570.297 7  21840572.668 9                 114772966.872 7  89433496.807 9
                  21840572.41048
  22551822.828 6  22551827.176 8  22551828.855 9 118510625.662 6  92345971.044 8
  88498214.526 9  22551824.38746
  22515988.008 5                                 120234212.057 5  93515418.290 7
                  22515990.551 7
  19662736.547 7                                 104813453.044 7  81521570.434 8
                  19662743.824 8
  20643487.688 7                                 110312517.607 7  85798646.605 9
                  20643494.371 9
  19846126.641 5                                 106126348.396 5  82542567.548 9
                  19846131.309 9
  21482696.172 7                                 114958234.990 7  89411962.633 9
                  21482699.438 9
 19  5 27  9 52 10.0000000  0 14G02G06G12G14G24G25G29G32R02R09R10R11
                                R20R21
  22922971.008 1                                                
                
  23539204.719 4  23539211.824 8                 123699497.781 4  96389125.090 8
                  23539210.14545
  20721365.266 7  20721366.883 9                 108891509.095 7  84850529.157 9
                  20721367.06648
  22797316.391 1                                 119800762.896 1
                
  23212980.773 5  23212988.211 9  23212988.539 9 121985037.913 5  95053267.063 9
  91092736.008 9  23212987.87547
  20568686.461 7  20568690.633 9  20568691.754 9 108089170.847 7  84225348.030 9
  80715964.988 9  20568690.62548
  21836419.953 7  21836422.473 9                 114751158.563 7  89416503.320 9
                  21836422.54348
  22551511.359 6  22551516.582 8  22551516.762 9 118508989.381 6  92344696.027 8
  88496992.610 9  22551513.11346
  22908130.617 1                                 122242059.74011  95077279.95017
                  22908144.227 7
  22517733.906 4                                 120243533.271 4  93522668.083 7
                  22517733.875 7
  19662352.102 7                                 104811404.788 7  81519977.352 8
                  19662359.254 8
  20639650.391 7                                 110292013.818 7  85782699.271 9
                  20639656.254 9
  19844805.164 5                                 106119282.064 5  82537071.512 9
                  19844810.480 9
  21477614.750 7                                 114931039.303 7  89390810.441 9
                  21477617.473 9
 19  5 27  9 52 15.0000000  0 13G06G12G14G24G25G29G32R02R09R10R11R20
                                R21
  23538943.258 2  23538953.328 8  23538947.043 7 123698137.392 2  96388065.067 8
  92371876.69417  23538951.53945
  20721553.055 8  20721554.387 9                 108892491.533 8  84851294.689 9
                  20721554.41848
  22795530.852 1                                 119791393.69911
                
  23214836.867 5  23214843.047 9  23214843.598 9 121994788.310 5  95060864.769 9
  91100017.138 9  23214842.99647
  20566532.094 7  20566536.543 9  20566538.703 9 108077852.527 7  84216528.585 9
  80707512.998 9  20566536.75448
  21832272.953 7  21832275.926 9                 114729366.369 7  89399522.402 9
                  21832276.16048
  22551204.859 6  22551208.211 8  22551208.465 9 118507374.368 6  92343437.517 8
  88495786.596 9  22551204.93447
  22906657.039 1                                                  95071159.15416
                  22906671.391 6
  22519481.664 5                                 120252867.287 5  93529927.767 7
                  22519481.234 7
  19661970.727 7                                 104809375.963 7  81518399.367 8
                  19661978.156 8
  20635816.211 7                                 110271524.089 7  85766762.785 9
                  20635821.215 9
  19843488.039 6                                 106112245.290 6  82531598.478 9
                  19843493.992 9
  21472535.102 7                                 114903861.210 7  89369671.954 9
                  21472538.414 9
 19  5 27  9 52 20.0000000  0 12G06G12G14G24G25G29G32R09R10R11R20R21
  23538690.430 3  23538697.969 8  23538698.277 8 123696796.969 3  96387020.493 8
  92370875.677 8  23538697.02745
  20721741.766 7  20721743.500 9                 108893486.996 7  84852070.384 9
                  20721743.59848
  22793752.414 1                                                
                
  23216695.078 5  23216701.242 9  23216701.148 9 122004548.644 5  95068470.168 9
  91107305.660 9  23216701.07047
  20564381.281 7  20564385.938 9  20564386.727 9 108066548.946 7  84207720.569 9
  80699072.028 9  20564386.53548
  21828129.070 7  21828130.707 9                 114707588.570 7  89382552.714 9
                  21828131.02348
  22550900.336 6  22550904.512 8  22550904.926 9 118505778.891 6  92342194.271 8
  88494595.143 9  22550901.56647
  22521231.906 5                                 120262212.132 5  93537196.102 7
                  22521231.734 7
  19661593.930 7                                 104807364.937 7  81516835.230 8
                  19661600.887 8
  20631983.945 7                                 110251046.519 7  85750835.776 9
                  20631988.535 9
  19842178.281 6                                 106105236.345 6  82526147.071 9
                  19842183.211 9
  21467457.523 7                                 114876698.856 7  89348545.654 9
                  21467462.594 9
 19  5 27  9 52 25.0000000  0 12G06G12G14G24G25G29G32R09R10R11R20R21
  23538438.141 3  23538446.320 8  23538448.945 8 123695478.236 3  96385992.863 8
  92369890.887 8  23538445.94145
  20721933.898 8  20721935.680 9                 108894497.271 8  84852857.597 9
                  20721935.89148
  22791979.813 1                                 119772716.97611
                
  23218553.992 5  23218560.668 9  23218561.121 9 122014320.467 5  95076084.571 9
  91114602.792 9  23218560.28547
  20562234.164 7  20562237.527 9  20562238.867 9 108055261.875 7  84198925.443 9
  80690643.336 9  20562238.02748
  21823987.305 7  21823990.379 9                 114685826.961 7  89365595.622 9
                  21823989.88348
  22550601.938 6  22550605.180 8  22550606.449 9 118504204.648 6  92340967.635 8
  88493419.571 9  22550603.26647
  22522983.578 3                                 120271569.439 3  93544473.989 7
                  22522986.570 7
  19661219.922 7                                 104805373.529 7  81515286.348 8
                  19661227.953 8
  20628153.781 7                                 110230582.911 7  85734919.615 9
                  20628160.070 9
  19840871.742 6                                 106098256.803 6  82520718.552 9
                  19840878.047 9
  21462384.891 7                                 114849553.999 7  89327433.005 9
                  21462389.813 9
 19  5 27  9 52 30.0000000  0 12G06G12G14G24G25G29G32R09R10R11R20R21
  23538189.828 3  23538197.645 7  23538200.273 8 123694180.267 3  96384981.425 7
  92368921.623 8  23538198.79345
  20722128.711 8  20722130.648 9                 108895521.538 8  84853655.726 9
                  20722130.77048
  22790208.969 2                                 119763410.419 2
                
  23220414.508 5  23220421.949 9  23220422.473 9 122024103.130 5  95083707.397 9
  91121908.011 9  23220421.87146
  20560088.969 7  20560092.801 9  20560094.266 9 108043990.450 7  84190142.521 9
  80682226.356 9  20560093.07448
  21819849.086 7  21819852.203 9                 114664080.759 7  89348650.503 9
                  21819851.66448
  22550306.422 6  22550309.082 8  22550310.938 9 118502650.848 6  92339756.885 8
  88492259.269 9  22550307.34847
  22524737.875 3                                 120280938.646 3  93551761.112 8
                  22524742.059 8
  19660850.391 7                                 104803400.838 7  81513752.037 8
                  19660857.543 8
  20624326.648 6                                 110210132.409 6  85719013.669 9
                  20624333.012 9
  19839571.953 5                                 106091306.005 5  82515312.366 9
                  19839578.703 9
  21457316.516 7                                 114822425.890 7  89306333.377 9
                  21457320.086 9
 19  5 27  9 52 35.0000000  0 12G06G12G14G24G25G29G32R09R10R11R20R21
  23537947.094 3  23537954.160 7  23537957.371 8 123692902.955 3  96383986.066 7
  92367967.790 8  23537956.06645
  20722326.547 8  20722327.777 9                 108896559.603 8  84854464.612 9
                  20722327.73048
  22788442.742 1                                 119754124.613 1
                
  23222277.484 4  23222285.285 9  23222286.184 9 122033896.329 4  95091338.488 9
  91129221.147 9  23222285.46546
  20557946.938 7  20557951.426 9  20557952.844 9 108032734.508 7  84181371.646 9
  80673820.940 9  20557951.53948
  21815713.141 6  21815716.938 9                 114642349.720 6  89331717.210 9
                  21815716.56348
  22550014.281 6  22550017.922 8  22550019.031 9 118501117.314 6  92338561.909 8
  88491114.089 9  22550016.14547
  22526493.008 1                                 120290319.446 1  93559057.288 7
                  22526497.449 7
  19660483.531 7                                 104801446.892 7  81512232.301 8
                  19660491.047 8
  20620502.523 7                                 110189694.931 7  85703117.863 9
                  20620509.059 9
  19838277.320 5                                 106084383.582 5  82509928.269 9
                  19838283.430 9
  21452250.211 7                                 114795314.418 7  89285246.693 9
                  21452253.707 9
 19  5 27  9 52 40.0000000  0 12G06G12G14G24G25G29G32R09R10R11R20R21
  23537708.469 3  23537714.297 8  23537719.016 8 123691646.222 3  96383006.810 8
  92367029.336 8  23537716.89145
  20722527.016 8  20722528.160 9                 108897611.407 8  84855284.206 9
                  20722528.15648
  22786678.836 2                                 119744859.601 2
                
  23224142.180 4  23224150.820 9  23224152.000 9 122043700.012 4  95098977.702 9
  91136542.069 9  23224150.75446
  20555808.297 7  20555811.961 9  20555813.555 9 108021494.018 7  84172612.834 9
  80665427.072 9  20555812.30948
  21811580.664 6  21811584.176 9                 114620633.790 6  89314795.719 9
                  21811584.31348
  22549725.945 6  22549730.344 8  22549731.113 9 118499603.982 6  92337382.683 8
  88489984.008 9  22549728.86747
  22528249.656 1                                 120299711.918 1  93566362.551 7
                  22528255.441 7
  19660121.320 7                                 104799511.518 7  81510727.017 8
                  19660127.992 8
  20616680.648 7                                 110169270.394 7  85687232.102 9
                  20616685.883 9
  19836989.063 6                                 106077489.640 6  82504566.319 9
                  19836994.297 9
  21447186.617 7                                 114768219.562 7  89264172.929 9
                  21447189.820 9
 19  5 27  9 52 45.0000000  0 12G06G12G14G24G25G29G32R09R10R11R20R21
  23537474.750 4  23537480.117 8  23537483.840 8 123690409.749 4  96382043.360 8
  92366105.968 8  23537482.12545
  20722729.430 8  20722730.945 9                 108898676.607 8  84856114.229 9
                  20722730.94148
  22784920.516 1                                 119735614.939 1
                
  23226009.164 3  23226017.648 9  23226019.809 9 122053513.954 3  95106624.932 9
  91143870.634 9  23226018.03146
  20553672.297 7  20553675.680 9  20553677.184 9 108010268.578 7  84163865.734 9
  80657044.433 9  20553676.11348
  21807452.703 6  21807454.453 9                 114598932.598 6  89297885.746 9
                  21807454.52048
  22549441.648 6  22549445.859 8  22549447.219 9 118498110.512 6  92336218.916 8
  88488868.752 9  22549444.85947
  22530011.563 2                                 120309115.371 2  93573676.414 7
                  22530016.395 7
  19659761.172 7                                 104797594.212 7  81509235.770 8
                  19659769.184 8
  20612859.586 7                                 110148858.485 7  85671356.166 9
                  20612865.715 9
  19835703.836 6                                 106070623.851 6  82499226.271 9
                  19835710.770 9
  21442125.734 7                                 114741140.843 7  89243111.725 9
                  21442130.113 9
 19  5 27  9 52 50.0000000  0 13G06G12G14G24G25G29G32R02R09R10R11R20
                                R21
  23537244.328 4  23537248.848 8  23537252.930 8 123689193.051 4  96381095.275 8
  92365197.423 8  23537250.68845
  20722934.508 8  20722936.055 9                 108899754.727 8  84856954.335 9
                  20722935.79748
  22783165.906 3                                 119726390.224 3
                
  23227880.258 5  23227886.965 9  23227889.398 9 122063337.584 5  95114279.713 9
  91151206.463 9  23227887.56646
  20551539.000 7  20551542.121 9  20551543.867 9 107999057.771 7  84155130.056 9
  80648672.738 9  20551542.62148
  21803325.805 7  21803327.191 9                 114577245.845 7  89280986.978 9
                  21803326.95348
  22549160.836 6  22549164.648 8  22549166.355 9 118496636.396 6  92335070.219 8
  88487767.926 9  22549163.40647
  22896470.938 1                                 122179876.32811
                
  22531775.500 1                                 120318529.572 1  93580998.579 7
                  22531779.926 7
  19659405.023 7                                 104795694.670 7  81507758.346 8
                  19659412.395 8
  20609044.016 7                                 110128458.737 7  85655489.693 9
                  20609048.320 9
  19834426.773 6                                 106063785.535 6  82493907.566 9
                  19834432.320 9
  21437068.023 6                                 114714077.928 6  89222062.757 9
                  21437072.582 9
 19  5 27  9 52 55.0000000  0 13G06G12G14G24G25G29G32R02R09R10R11R20
                                R21
  23537015.781 2  23537022.465 8  23537025.352 8 123687997.420 2  96380163.623 8
  92364304.558 8  23537022.98845
  20723142.547 8  20723144.355 9                 108900847.018 8  84857805.467 9
                  20723143.91848
  22781419.258 3                                 119717186.607 3
                
  23229751.492 4  23229758.531 9  23229761.172 9 122073172.207 4  95121943.049 9
  91158550.462 9  23229758.69546
  20549408.250 7  20549411.723 9  20549413.930 9 107987862.864 7  84146406.761 9
  80640312.912 9  20549412.09448
  21799200.594 6  21799203.063 9                 114555574.684 6  89264100.337 9
                  21799202.48448
  22548885.172 6  22548888.715 8  22548890.090 9 118495182.926 6  92333937.646 8
  88486682.528 9  22548887.37947
  22895033.406 1                                 122172218.238 1
                
  22533540.188 2                                 120327955.886 2  93588330.084 8
                  22533545.285 8
  19659052.531 7                                 104793814.052 7  81506295.634 8
                  19659059.996 8
  20605228.156 7                                 110108072.354 7  85639633.606 9
                  20605233.355 9
  19833152.086 6                                 106056976.103 6  82488611.350 9
                  19833158.508 9
  21432013.813 7                                 114687032.087 7  89201027.137 9
                  21432018.035 9
 19  5 27  9 53  0.0000000  0 13G06G12G14G24G25G29G32R02R09R10R11R20
                                R21
  23536791.352 2  23536797.535 8  23536800.305 8 123686821.692 2  96379247.445 8
  92363426.538 8  23536798.70745
  20723352.641 8  20723354.992 9                 108901952.474 8  84858666.865 9
                  20723354.58648
  22779672.773 2                                 119708003.188 2
                
  23231625.148 5  23231631.727 9  23231634.914 9 122083016.657 5  95129614.034 9
  91165901.811 9  23231632.20346
  20547280.703 7  20547283.816 9  20547286.344 9 107976682.821 7  84137695.044 9
  80631964.180 9  20547284.56648
  21795078.922 6  21795082.000 9                 114533918.162 6  89247225.110 9
                  21795080.94147
  22548611.594 6  22548615.961 8  22548617.730 9 118493749.008 6  92332820.322 8
  88485611.742 9  22548614.55147
  22893603.563 1                                 122164585.833 1  95016965.05216
                  22893607.137 6
  22535309.594 4                                 120337393.134 4  93595670.158 8
                  22535313.656 8
  19658702.922 7                                 104791951.420 7  81504846.924 8
                  19658710.707 8
  20601416.078 7                                 110087698.407 7  85623787.213 9
                  20601420.324 9
  19831884.445 6                                 106050194.562 6  82483336.819 9
                  19831890.836 9
  21426963.273 7                                 114660002.327 7  89180003.984 9
                  21426965.934 9
 19  5 27  9 53  5.0000000  0 13G06G12G14G24G25G29G32R02R09R10R11R20
                                R21
  23536571.508 1  23536577.254 8  23536579.461 8                  96378346.15818
  92362562.86118  23536578.50845
  20723565.500 8  20723567.594 9                 108903070.229 8  84859537.838 9
                  20723567.13348
  22777930.320 2                                 119698838.962 2
                
  23233499.711 4  23233506.434 9  23233509.066 9 122092870.129 4  95137292.101 9
  91173259.938 9  23233506.29746
  20545155.242 7  20545158.930 9  20545161.570 9 107965516.718 7  84128994.175 9
  80623625.849 9  20545159.44148
  21790960.758 6  21790963.809 9                 114512275.347 6  89230360.602 9
                  21790963.30948
  22548342.195 6  22548345.965 8  22548348.090 9 118492333.784 6  92331717.539 8
  88484554.908 9  22548345.25847
  22892177.906 1                                 122156978.356 1
                
  22537077.867 4                                 120346840.392 4  93603018.041 8
                  22537081.926 8
  19658356.758 7                                 104790105.787 7  81503411.421 8
                  19658364.207 8
  20597606.195 7                                 110067335.919 7  85607949.723 9
                  20597609.422 9
  19830621.336 6                                 106043439.935 6  82478083.220 9
                  19830627.770 9
  21421914.164 7                                 114632987.668 7  89158992.580 9
                  21421917.797 9
 19  5 27  9 53 10.0000000  0 13G06G12G14G24G25G29G32R02R09R10R11R20
                                R21
  23536355.703 2  23536361.219 8  23536363.383 8 123684526.85512  96377459.261 8
  92361712.923 8  23536362.02045
  20723779.938 8  20723781.840 9                 108904199.535 8  84860417.811 9
                  20723781.85549
  22776193.172 1                                 119689693.32211
                
  23235375.836 4  23235383.266 9  23235385.535 9 122102731.858 4  95144976.563 9
  91180624.212 9  23235382.64846
  20543032.914 7  20543036.805 9  20543039.328 9 107954363.936 7  84120303.699 9
  80615297.471 9  20543036.73048
  21786845.266 6  21786848.191 9                 114490645.600 6  89213506.211 9
                  21786848.07048
  22548076.500 6  22548080.645 8  22548082.582 9 118490936.577 6  92330628.784 8
  88483511.527 9  22548080.51647
  22890756.273 1                                 122149394.940 1
                
  22538851.742 4                                 120356297.042 4  93610373.220 8
                  22538852.676 8
  19658013.266 7                                 104788276.651 7  81501988.764 8
                  19658021.422 8
  20593795.852 7                                 110046984.339 7  85592120.704 9
                  20593801.508 9
  19829363.289 6                                 106036711.448 6  82472849.942 9
                  19829369.234 9
  21416868.672 6                                 114605987.526 6  89137992.481 9
                  21416871.973 9
 19  5 27  9 53 15.0000000  0 13G06G12G14G24G25G29G32R02R09R10R11R20
                                R21
  23536144.742 3  23536148.418 8  23536150.105 8 123683408.590 3  96376587.912 8
  92360877.889 8  23536148.85945
  20723997.523 8  20723999.719 9                 108905341.886 8  84861307.953 9
                  20723999.68848
  22774458.984 1                                                
                
  23237254.672 4  23237261.934 9  23237264.223 9 122112603.511 4  95152668.747 9
  91187995.887 9  23237261.56646
  20540913.383 7  20540917.109 9  20540920.227 9 107943225.937 7  84111624.735 9
  80606980.136 9  20540917.27748
  21782731.945 6  21782735.051 9                 114469030.342 6  89196663.158 9
                  21782735.43048
  22547814.609 6  22547818.813 8  22547819.938 9 118489558.854 6  92329555.239 8
  88482482.708 9  22547818.57047
  22889342.000 1                                 122141837.407 1
                
  22540624.359 4                                 120365764.478 4  93617736.766 8
                  22540625.883 8
  19657674.563 7                                 104786465.465 7  81500580.063 8
                  19657680.652 8
  20589991.359 7                                 110026645.059 7  85576301.260 9
                  20589994.270 9
  19828110.703 6                                 106030010.682 6  82467638.230 9
                  19828116.336 9
  21411826.008 7                                 114579003.340 7  89117004.800 9
                  21411829.738 9
 19  5 27  9 53 20.0000000  0 12G06G12G14G24G25G29G32R09R10R11R20R21
  23535934.000 2  23535938.738 8  23535940.418 8 123682309.220 2  96375731.269 8
  92360056.937 8  23535939.87545
  20724216.555 7  20724219.047 9                 108906496.202 7  84862207.410 9
                  20724219.40248
  22772720.703 1                                 119671461.16511
                
  23239135.742 4  23239142.016 9  23239144.234 9 122122483.862 4  95160367.726 9
  91195374.058 9  23239141.64146
  20538796.922 7  20538799.871 9  20538802.645 9 107932101.683 7  84102956.492 9
  80598673.067 9  20538799.69548
  21778620.359 6  21778623.980 9                 114447428.571 6  89179830.636 9
                  21778624.41848
  22547555.664 6  22547560.434 9  22547561.016 9 118488199.563 6  92328496.025 9
  88481467.643 9  22547560.41047
  22542398.164 5                                 120375241.787 5  93625107.939 8
                  22542400.133 8
  19657337.320 7                                 104784671.116 7  81499184.443 8
                  19657343.891 8
  20586187.156 7                                 110006317.067 7  85560490.606 9
                  20586190.633 9
  19826861.398 6                                 106023336.628 6  82462447.286 9
                  19826868.371 9
  21406786.266 6                                 114552034.093 6  89096028.714 9
                  21406789.820 9
 19  5 27  9 53 25.0000000  0 12G06G12G14G24G25G29G32R09R10R11R20R21
  23535730.227 2  23535732.637 8  23535734.832 8 123681228.56512  96374889.21718
  92359249.99218  23535733.87945
  20724438.594 7  20724440.934 9                 108907662.544 7  84863116.239 9
                  20724441.27748
  22770987.086 1                                 119662373.681 1
                
  23241016.453 4  23241024.176 9  23241025.984 9 122132372.892 4  95168073.438 9
  91202758.714 9  23241023.68446
  20536682.656 7  20536685.953 9  20536689.254 9 107920991.183 7  84094298.964 9
  80590376.272 9  20536685.72348
  21774513.117 6  21774516.070 9                 114425840.378 6  89163008.685 9
                  21774516.07848
  22547300.789 6  22547304.922 8  22547305.203 9 118486858.759 6  92327451.240 8
  88480466.368 9  22547305.47747
  22544175.688 5                                 120384728.791 5  93632486.699 8
                  22544177.004 8
  19657004.492 7                                 104782893.566 7  81497801.914 8
                  19657010.840 8
  20582385.477 7                                 109986000.348 7  85544688.716 9
                  20582388.633 9
  19825619.297 6                                 106016689.363 6  82457277.200 9
                  19825625.219 9
  21401748.438 7                                 114525079.928 7  89075064.398 9
                  21401752.410 9
 19  5 27  9 53 30.0000000  0 13G06G12G14G24G25G29G32R02R09R10R11R20
                                R21
  23535527.930 1  23535531.207 8  23535532.637 8 123680166.959 1  96374061.984 8
  92358457.226 8  23535531.39145
  20724663.000 7  20724665.066 9                 108908840.986 7  84864034.508 9
                  20724665.12948
  22769262.672 1                                                
                
  23242900.664 4  23242907.625 9  23242909.301 9 122142270.781 4  95175786.054 9
  91210149.982 9  23242906.99646
  20534571.352 7  20534574.621 9  20534576.738 9 107909894.549 7  84085652.224 9
  80582089.820 9  20534573.79348
  21770408.289 7  21770411.043 9                 114404265.785 7  89146197.328 9
                  21770411.20748
  22547048.766 6  22547053.051 8  22547053.930 9 118485536.452 6  92326420.833 8
  88479478.913 9  22547053.96947
  22885118.445 1                                 122119313.12611  94981758.13016
                  22885123.777 6
  22545953.578 6                                 120394225.702 6  93639873.206 8
                  22545955.586 8
  19656674.758 8                                 104781132.956 8  81496432.530 8
                  19656680.512 8
  20578585.539 7                                 109965695.065 7  85528895.743 9
                  20578589.129 9
  19824381.836 6                                 106010068.675 6  82452127.773 9
                  19824386.934 9
  21396713.391 6                                 114498140.900 6  89054111.825 9
                  21396718.449 9
 19  5 27  9 53 35.0000000  0 12G06G12G14G24G25G29G32R09R10R11R20R21
  23535332.047 2  23535333.246 8  23535335.043 8 123679125.543 2  96373250.502 8
  92357679.554 8  23535332.97745
  20724890.383 8  20724892.430 9                 108910032.757 8  84864963.163 9
                  20724892.44548
  22767538.180 1                                                
                
  23244786.117 3  23244793.867 8  23244795.363 9 122152178.874 3  95183506.653 8
  91217548.902 9  23244792.88746
  20532462.617 7  20532465.996 9  20532468.184 9 107898813.077 7  84077017.314 9
  80573814.692 9  20532465.18048
  21766306.523 7  21766308.754 9                 114382706.148 7  89129397.617 9
                  21766309.13348
  22546801.219 6  22546805.332 8  22546805.762 9 118484233.932 6  92325405.887 8
  88478506.236 9  22546805.74647
  22547735.352 6                                 120403733.813 6  93647268.425 8
                  22547736.688 8
  19656346.953 7                                 104779390.521 7  81495077.315 8
                  19656353.832 8
  20574788.000 7                                 109945402.568 7  85513112.709 9
                  20574791.816 9
  19823149.469 6                                 106003476.222 6  82447000.311 9
                  19823154.406 9
  21391683.508 6                                 114471218.279 6  89033172.007 9
                  21391686.578 9
 19  5 27  9 53 40.0000000  0 13G06G12G14G24G25G29G31G32R09R10R11R20
                                R21
  23535135.828 2  23535137.953 8  23535140.254 8 123678102.944 2  96372453.660 8
  92356915.900 8  23535137.83645
  20725118.914 8  20725121.125 9                 108911236.434 8  84865901.086 9
                  20725120.83248
  22765820.828 1                                 119635228.47211
                
  23246674.055 4  23246679.852 8  23246681.711 9 122162095.538 4  95191233.856 8
  91224954.174 9  23246679.05546
  20530356.422 7  20530360.188 9  20530362.125 9 107887745.217 7  84068393.015 9
  80565549.734 9  20530359.47348
  21762205.656 7  21762208.316 9                 114361159.946 7  89112608.369 9
                  21762208.70348
  23420651.430 3  23420649.840 6                 123076307.87313  95903651.79016
                
  22546556.961 6  22546560.434 8  22546561.441 9 118482949.730 6  92324405.210 8
  88477547.276 9  22546561.30947
  22549517.758 5                                 120413251.646 5  93654671.173 8
                  22549519.383 8
  19656022.820 7                                 104777664.867 7  81493735.133 8
                  19656029.910 8
  20570992.680 7                                 109925121.254 7  85497338.355 9
                  20570996.492 9
  19821920.742 6                                 105996910.243 6  82441893.428 9
                  19821926.559 9
  21386654.906 6                                 114444310.574 6  89012243.805 9
                  21386659.121 9
 19  5 27  9 53 45.0000000  0 13G06G12G14G24G25G29G31G32R09R10R11R20
                                R21
  23534944.945 1  23534946.957 8  23534949.223 8 123677098.740 1  96371671.139 8
  92356165.993 8  23534946.57045
  20725350.492 8  20725351.684 9                 108912451.651 8  84866848.010 9
                  20725351.92648
  22764103.148 1                                                
                
  23248561.977 5  23248569.051 8  23248571.215 9 122172020.628 5  95198967.722 8
  91232365.764 9  23248567.56646
  20528252.586 7  20528256.551 9  20528257.863 9 107876690.745 7  84059779.146 9
  80557294.783 9  20528255.91048
  21758108.125 7  21758110.543 9                 114339626.907 7  89095829.376 9
                  21758110.52748
  23416305.258 3  23416301.641 6                 123053465.854 3  95885852.877 6
                
  22546315.305 6  22546320.039 8  22546319.957 9 118481683.504 6  92323418.551 8
  88476601.707 9  22546320.29347
  22551302.969 6                                 120422778.820 6  93662081.195 8
                  22551304.699 8
  19655702.469 7                                 104775955.617 7  81492405.711 8
                  19655709.738 8
  20567199.078 7                                 109904850.907 7  85481572.548 9
                  20567203.641 9
  19820697.344 6                                 105990370.563 6  82436807.009 9
                  19820702.898 9
  21381629.766 6                                 114417417.534 6  88991326.980 9
                  21381633.316 9
 19  5 27  9 53 50.0000000  0 13G06G12G14G24G25G29G31G32R09R10R11R20
                                R21
  23534755.625 1  23534760.375 8  23534763.133 8                  96370903.05718
  92355429.89718  23534759.30545
  20725584.125 8  20725585.645 9                 108913678.604 8  84867804.083 9
                  20725585.75848
  22762389.766 1                                 119617226.50411
                
  23250452.461 5  23250459.816 8  23250460.781 9 122181954.052 5  95206708.078 8
  91239783.597 9  23250457.77746
  20526151.703 7  20526155.332 9  20526156.910 9 107865649.790 7  84051175.813 9
  80549049.904 9  20526154.60948
  21754013.844 7  21754015.875 9                 114318107.235 7  89079060.787 9
                  21754015.44548
  23411959.625 4  23411956.797 6                 123030632.320 4  95868060.582 6
                
  22546077.867 6  22546082.523 8  22546081.965 9 118480435.492 6  92322446.053 8
  88475669.750 9  22546082.59447
  22553087.039 5                                 120432315.547 5  93669498.619 8
                  22553090.941 8
  19655384.594 7                                 104774262.955 7  81491089.183 8
                  19655392.039 8
  20563408.055 7                                 109884591.706 7  85465815.427 9
                  20563411.734 9
  19819480.516 6                                 105983857.332 6  82431741.155 9
                  19819484.961 9
  21376607.461 7                                 114390539.311 7  88970421.719 9
                  21376611.531 9
 19  5 27  9 53 55.0000000  0 14G06G12G14G24G25G29G31G32R02R09R10R11
                                R20R21
  23534574.398 1  23534575.734 8  23534579.090 8                  96370149.70718
  92354707.90718  23534574.38345
  20725820.180 8  20725822.063 9                 108914917.552 8  84868769.492 9
                  20725821.56348
  22760679.133 1                                 119608253.81811
                
  23252344.063 5  23252350.859 8  23252352.824 9 122191896.108 5  95214455.102 8
  91247207.835 9  23252349.52746
  20524053.711 7  20524057.020 9  20524058.086 9 107854622.535 7  84042583.142 9
  80540815.263 9  20524056.25048
  21749920.773 7  21749923.246 9                 114296601.009 7  89062302.679 9
                  21749923.06348
  23407617.555 4  23407614.824 7                 123007807.489 4  95850275.176 7
                
  22545843.859 6  22545848.645 8  22545848.145 9 118479205.765 6  92321487.823 8
  88474751.417 9  22545848.77047
  22878182.195 1                                 122082271.49811  94952947.94417
                  22878183.156 7
  22554875.711 5                                 120441861.910 5  93676923.531 8
                  22554879.473 8
  19655070.953 7                                 104772587.122 7  81489785.763 8
                  19655077.516 8
  20559618.188 7                                 109864343.793 7  85450067.047 9
                  20559622.660 9
  19818266.414 6                                 105977370.626 6  82426695.954 9
                  19818271.699 9
  21371587.773 7                                 114363676.116 7  88949528.140 9
                  21371591.715 9
 19  5 27  9 54  0.0000000  0 13G12G14G24G25G29G31G32R02R09R10R11R20
                                R21
  20726058.445 8  20726059.578 9                 108916169.270 8  84869744.862 9
                  20726059.88348
  22758974.758 1                                 119599300.989 1
                
  23254238.883 5  23254244.965 8  23254246.770 9 122201847.723 5  95222209.602 8
  91254639.246 9  23254243.23846
  20521958.008 7  20521961.988 9  20521962.711 9 107843609.833 7  84034001.817 9
  80532591.492 9  20521961.69548
  21745830.594 7  21745833.895 9                 114275109.188 7  89045555.814 9
                  21745834.10548
  23403275.250 4  23403275.801 7                 122984992.396 4  95832497.061 7
                
  22545614.039 6  22545618.297 8  22545617.215 9 118477995.249 6  92320544.573 8
  88473847.457 9  22545618.72347
  22876807.227 2                                 122074937.718 2  94947243.917 7
                  22876808.516 7
  22556665.039 5                                 120451418.830 5  93684356.695 8
                  22556668.680 8
  19654759.984 7                                 104770928.813 7  81488495.965 8
                  19654766.855 8
  20555831.539 7                                 109844108.048 7  85434328.143 9
                  20555835.977 9
  19817058.883 6                                 105970911.360 6  82421672.084 9
                  19817063.938 9
  21366569.898 7                                 114336828.836 7  88928646.942 9
                  21366574.387 9
 19  5 27  9 54  5.0000000  0 14G06G12G14G24G25G29G31G32R02R09R10R11
                                R20R21
  23534217.758 1  23534219.516 8                                  96368694.14618
                  23534219.09845
  20726298.617 8  20726299.730 9                 108917432.894 8  84870729.501 9
                  20726300.04348
  22757276.047 1                                 119590367.145 1
                
  23256135.078 5  23256139.488 8  23256141.988 9 122211807.921 5  95229970.769 8
  91262077.055 9  23256138.04746
  20519863.945 7  20519868.457 9  20519869.625 9 107832610.839 7  84025431.178 9
  80524377.958 9  20519868.43448
  21741743.625 6  21741746.570 9                 114253630.854 6  89028819.465 9
                  21741746.94948
  23398935.141 3  23398937.785 7                 122962186.017 3  95814725.839 7
                
  22545386.523 6  22545391.273 8  22545390.383 9 118476803.015 6  92319615.589 8
  88472957.144 9  22545392.65247
  22875437.867 3                                 122067628.457 3  94941558.942 7
                  22875438.855 7
  22558454.797 5                                 120460985.392 5  93691797.340 8
                  22558460.121 8
  19654451.469 7                                 104769287.313 7  81487219.243 8
                  19654458.543 8
  20552046.953 7                                 109823883.730 7  85418598.120 9
                  20552051.688 9
  19815855.211 6                                 105964478.643 6  82416668.860 9
                  19815860.895 9
  21361557.539 7                                 114309996.689 7  88907777.505 9
                  21361560.375 9
 19  5 27  9 54 10.0000000  0 13G12G14G24G25G29G31G32R02R09R10R11R20
                                R21
  20726541.117 8  20726542.848 9                 108918707.291 8  84871722.544 9
                  20726542.87948
  22755579.625 3                                 119581451.27913
                
  23258031.781 5  23258035.113 8  23258038.617 9 122221775.569 5  95237737.781 8
  91269520.422 9  23258034.09046
  20517773.672 7  20517778.457 9  20517779.125 9 107821624.458 7  84016870.357 9
  80516173.842 9  20517777.52748
  21737659.438 7  21737662.109 9                 114232165.011 7  89012092.844 9
                  21737662.11348
  23394597.930 4  23394601.574 7                 122939387.371 4  95796960.699 7
                
  22545163.141 6  22545168.410 9  22545167.230 9 118475628.041 6  92318700.016 9
  88472079.708 9  22545169.55947
  22874073.063 2                                 122060342.744 2  94935892.212 7
                  22874073.637 7
  22560247.992 5                                 120470560.627 5  93699244.685 8
                  22560252.613 8
  19654147.156 8                                 104767661.630 8  81485954.820 8
                  19654154.309 8
  20548263.656 7                                 109803669.621 7  85402876.040 9
                  20548269.457 9
  19814657.398 6                                 105958071.544 6  82411685.558 9
                  19814663.098 9
  21356545.117 7                                 114283178.549 7  88886918.959 9
                  21356549.016 9
 19  5 27  9 54 15.0000000  0 13G12G14G24G25G29G31G32R02R09R10R11R20
                                R21
  20726785.805 8  20726787.750 9                 108919994.131 8  84872725.272 9
                  20726787.71948
  22753886.438 3                                 119572554.870 3
                
  23259930.758 5  23259933.141 8  23259937.156 9 122231752.416 5  95245511.912 8
  91276970.661 9  23259931.86746
  20515685.758 7  20515690.297 9  20515691.418 9 107810652.353 7  84008320.660 9
  80507980.380 9  20515689.87548
  21733577.406 7  21733579.137 9                 114210713.208 7  88995377.141 9
                  21733579.18448
  23390260.516 4  23390262.887 7                 122916598.108 4  95779202.751 7
                
  22544942.602 6  22544948.656 9  22544946.988 9 118474471.910 6  92317799.096 9
  88471216.360 9  22544950.31347
  22872713.938 2                                 122053082.414 2  94930245.261 7
                  22872712.414 7
  22562042.742 4                                 120480146.046 4  93706699.947 8
                  22562046.555 8
  19653844.703 8                                 104766053.321 8  81484703.913 8
                  19653852.535 8
  20544483.789 7                                 109783467.484 7  85387163.272 9
                  20544489.059 9
  19813463.750 6                                 105951691.516 6  82406723.319 9
                  19813470.117 9
  21351537.328 7                                 114256376.121 7  88866072.622 9
                  21351540.328 9
 19  5 27  9 54 20.0000000  0 13G12G14G24G25G29G31G32R02R09R10R11R20
                                R21
  20727032.711 7  20727034.414 9                 108921291.037 7  84873735.839 9
                  20727034.24248
  22752198.602 3                                 119563675.635 3
                
  23261831.000 6  23261833.344 8  23261837.957 9 122241736.152 6  95253291.438 8
  91284426.034 9  23261831.43446
  20513600.195 7  20513604.559 9  20513606.164 9 107799692.132 7  83999780.232 9
  80499795.807 9  20513603.80148
  21729498.031 7  21729499.664 9                 114189273.190 7  88978670.623 9
                  21729499.32048
  23385925.391 3  23385927.965 7                 122893815.815 3  95761450.332 7
                
  22544725.898 6  22544732.238 9  22544729.621 9 118473332.264 6  92316911.055 9
  88470365.321 9  22544733.76647
  22871354.766 2                                 122045844.605 2  94924615.848 7
                  22871356.781 7
  22563838.102 4                                 120489739.300 4  93714161.347 8
                  22563842.262 8
  19653545.805 8                                 104764459.823 8  81483464.531 8
                  19653553.605 8
  20540704.742 7                                 109763274.803 7  85371457.853 9
                  20540710.629 9
  19812275.563 6                                 105945336.178 6  82401780.288 9
                  19812280.613 9
  21346530.430 7                                 114229586.903 7  88845236.584 9
                  21346533.949 9
 19  5 27  9 54 25.0000000  0 13G12G14G24G25G29G31G32R02R09R10R11R20
                                R21
  20727281.500 7  20727283.801 9                 108922599.573 7  84874755.466 9
                  20727283.39148
  22750510.828 2                                 119554815.104 2
                
  23263731.555 6  23263735.242 7  23263739.781 9 122251728.153 6  95261077.370 7
  91291887.547 9  23263732.84846
  20511516.438 7  20511521.652 9  20511523.566 9 107788745.344 7  83991250.258 9
  80491621.255 9  20511520.96948
  21725419.953 7  21725422.332 9                 114167846.448 7  88961974.466 9
                  21725422.04348
  23381591.633 3  23381594.707 7                 122871041.996 3  95743704.504 7
                
  22544512.914 6  22544518.914 9  22544516.176 9 118472210.597 6  92316037.014 9
  88469527.706 9  22544520.84847
  22870001.938 1                                 122038631.189 1  94919005.432 7
                  22870004.539 7
  22565635.781 4                                 120499341.925 4  93721630.026 8
                  22565640.535 8
  19653250.734 8                                 104762882.907 8  81482238.036 8
                  19653258.016 8
  20536928.641 7                                 109743093.207 7  85355761.044 9
                  20536933.980 9
  19811093.289 6                                 105939007.255 6  82396857.785 9
                  19811097.543 9
  21341527.516 7                                 114202812.484 7  88824412.058 9
                  21341530.328 9
 19  5 27  9 54 30.0000000  0 13G12G14G24G25G29G31G32R02R09R10R11R20
                                R21
  20727532.602 7  20727534.563 9                 108923919.322 7  84875783.840 9
                  20727534.62548
  22748829.055 3                                 119545972.983 3
                
  23265634.797 6  23265637.805 7  23265642.676 9 122261728.097 6  95268869.540 7
  91299355.030 9  23265635.33246
  20509435.531 6  20509440.988 9  20509442.465 9 107777811.640 6  83982730.498 9
  80483456.484 9  20509440.16448
  21721344.508 7  21721346.813 9                 114146432.635 7  88945288.407 9
                  21721346.99648
  23377260.000 4  23377263.535 7                 122848276.403 4  95725965.074 7
                
  22544302.867 6  22544309.133 9  22544306.113 9 118471106.592 6  92315176.753 9
  88468703.285 9  22544310.14147
  22868656.305 1                                 122031441.746 1  94913413.640 7
                  22868657.676 7
  22567438.305 5                                 120508953.524 5  93729105.726 8
                  22567439.984 8
  19652957.242 8                                 104761322.119 8  81481024.077 8
                  19652965.145 8
  20533152.875 7                                 109722922.431 7  85340072.655 9
                  20533159.195 9
  19809913.414 6                                 105932704.256 6  82391955.447 9
                  19809917.898 9
  21336527.500 7                                 114176052.585 7  88803598.813 9
                  21336530.043 9
 19  5 27  9 54 35.0000000  0 13G12G14G24G25G29G31G32R02R09R10R11R20
                                R21
  20727786.211 8  20727787.996 9                 108925250.300 8  84876820.952 9
                  20727787.91848
  22747150.727 3                                 119537149.171 3
                
  23267539.383 6  23267542.527 8  23267547.336 9 122271736.015 6  95276667.896 8
  91306828.460 9  23267540.22746
  20507357.555 7  20507363.242 9  20507364.859 9 107766890.988 7  83974220.886 9
  80475301.452 9  20507362.14548
  21717272.164 6  21717274.387 9                 114125031.712 6  88928612.378 9
                  21717273.93048
  23372928.773 4  23372931.496 7                 122825518.982 4  95708232.017 7
                
  22544096.094 6  22544103.176 9  22544099.250 9 118470020.208 6  92314330.217 9
  88467892.011 9  22544104.09847
  22867311.211 1                                                  94907840.54517
                  22867315.723 7
  22569239.211 5                                 120518574.134 5  93736588.438 8
                  22569241.379 8
  19652667.297 7                                 104759777.480 7  81479822.693 8
                  19652675.090 8
  20529380.320 7                                 109702762.390 7  85324392.604 9
                  20529386.352 9
  19808739.813 6                                 105926427.149 6  82387073.257 9
                  19808744.707 9
  21331529.352 7                                 114149307.215 7  88782796.854 9
                  21331531.383 9
 19  5 27  9 54 40.0000000  0 12G12G14G24G25G29G31G32R09R10R11R20R21
  20728041.320 8  20728043.293 9                 108926592.223 8  84877866.611 9
                  20728043.28548
  22745474.164 3                                 119528343.375 3
                
  23269445.328 5  23269447.910 7  23269452.762 9 122281751.533 5  95284472.236 7
  91314307.570 9  23269446.00446
  20505281.852 7  20505287.027 9  20505288.813 9 107755983.122 7  83965721.234 9
  80467155.965 9  20505286.27748
  21713201.813 6  21713204.848 9                 114103643.454 6  88911946.203 9
                  21713204.21948
  23368600.672 4  23368602.746 7                 122802769.465 4  95690505.142 7
                
  22543892.828 6  22543898.879 9  22543895.516 8 118468951.130 6  92313497.174 9
  88467093.665 8  22543900.65647
  22571041.727 4                                 120528203.399 4  93744077.840 8
                  22571044.945 8
  19652380.797 7                                 104758248.604 7  81478633.581 8
                  19652388.875 8
  20525608.992 7                                 109682612.735 7  85308720.651 9
                  20525615.602 9
  19807571.484 6                                 105920175.591 6  82382210.938 9
                  19807575.516 9
  21326532.984 7                                 114122576.067 7  88762005.951 9
                  21326535.770 9
 19  5 27  9 54 45.0000000  0 12G12G14G24G25G29G31G32R09R10R11R20R21
  20728299.156 8  20728300.406 9                 108927944.493 8  84878920.317 9
                  20728300.15648
  22743801.883 4                                 119519555.098 4
                
  23271353.477 6  23271355.078 8  23271359.527 9 122291774.170 6  95292282.007 8
  91321791.993 9  23271353.53146
  20503209.328 7  20503213.793 9  20503215.488 9 107745087.438 7  83957231.091 9
  80459019.582 9  20503213.00848
  21709133.359 6  21709136.813 9                 114082267.273 6  88895289.426 9
                  21709136.04348
  23364271.305 4  23364274.469 7                 122780027.253 4  95672783.948 7
                
  22543691.781 6  22543699.195 9  22543695.324 8 118467898.797 6  92312677.184 9
  88466307.831 8  22543700.64147
  22572846.852 4                                 120537840.803 4  93751573.583 8
                  22572850.066 8
  19652096.367 7                                 104756734.968 7  81477456.308 8
                  19652105.461 8
  20521841.344 7                                 109662473.042 7  85293056.425 9
                  20521846.414 9
  19806407.211 6                                 105913949.000 6  82377368.043 9
                  19806411.797 9
  21321540.055 7                                 114095858.586 7  88741225.696 9
                  21321542.887 9
 19  5 27  9 54 50.0000000  0 13G06G12G14G24G25G29G31G32R09R10R11R20
                                R21
  23532777.891 1  23532783.395 8  23532785.113 8 123665730.47011  96362808.70218
  92347700.76518
  20728558.172 7  20728559.965 9                 108929308.946 7  84879983.529 9
                  20728559.73048
  22742134.695 5                                 119510786.137 5
                
  23273261.875 6  23273265.016 8  23273268.227 9 122301805.539 6  95300098.654 8
  91329282.916 9  23273263.52046
  20501137.672 7  20501142.992 9  20501144.328 9 107734205.775 7  83948751.861 9
  80450893.659 9  20501142.14548
  21705068.789 6  21705071.859 9                 114060904.988 6  88878643.481 9
                  21705071.53548
  23359945.195 4  23359948.508 7                 122757294.255 4  95655069.919 7
                
  22543494.820 6  22543502.137 9  22543498.914 8 118466865.015 6  92311871.626 9
  88465535.838 8  22543503.46947
  22574653.719 4                                 120547488.160 4  93759077.096 8
                  22574656.949 8
  19651815.789 7                                 104755238.433 7  81476292.327 9
                  19651824.207 9
  20518074.172 7                                 109642345.031 7  85277401.296 9
                  20518079.570 9
  19805246.945 6                                 105907749.459 6  82372546.180 9
                  19805251.660 9
  21316550.180 7                                 114069156.630 7  88720457.511 9
                  21316553.664 9
 19  5 27  9 54 55.0000000  0 13G06G12G14G24G25G29G31G32R09R10R11R20
                                R21
  23532633.320 1  23532641.191 8  23532641.789 8 123664981.821 1  96362225.313 8
  92347141.656 8  23532640.36345
  20728819.945 7  20728821.395 9                 108930683.912 7  84881054.923 9
                  20728821.38348
  22740468.664 5                                 119502034.832 5
                
  23275172.000 6  23275175.035 8  23275178.500 9 122311844.154 6  95307920.902 8
  91336779.275 9  23275173.55946
  20499069.688 7  20499074.793 9  20499076.105 9 107723336.548 7  83940282.318 9
  80442777.021 9  20499074.33248
  21701006.742 6  21701009.199 9                 114039554.980 6  88862007.138 9
                  21701008.89548
  23355620.227 3  23355623.891 7                 122734568.825 3  95637361.775 7
                
  22543301.992 5  22543309.203 9  22543305.836 9 118465848.157 5  92311079.263 9
  88464776.488 9  22543310.33247
  22576461.867 5                                 120557143.825 5  93766587.014 8
                  22576464.766 8
  19651537.711 7                                 104753757.321 7  81475140.350 8
                  19651545.566 8
  20514309.414 7                                 109622227.176 7  85261754.086 9
                  20514314.098 9
  19804092.305 6                                 105901574.896 6  82367743.733 9
                  19804097.340 9
  21311564.078 7                                 114042468.605 7  88699700.181 9
                  21311566.508 9
 19  5 27  9 55  0.0000000  0 13G06G12G14G24G25G29G31G32R09R10R11R20
                                R21
  23532494.102 1  23532502.438 8  23532503.629 8                  96361656.26118
  92346596.30518  23532502.14845
  20729084.031 7  20729085.434 9                 108932070.642 7  84882135.495 9
                  20729085.25848
  22738806.484 4                                 119493302.335 4
                
  23277083.367 5  23277086.906 8  23277090.082 9 122321891.088 5  95315749.680 8
  91344281.836 9  23277085.90646
  20497004.070 7  20497008.676 9  20497009.844 9 107712480.799 7  83931823.281 9
  80434670.447 9  20497008.41848
  21696945.813 6  21696948.688 9                 114018218.356 6  88845381.198 9
                  21696948.56348
  23351298.422 3  23351301.109 7                 122711852.039 3  95619660.403 7
                
  22543112.891 6  22543119.270 9  22543115.785 8 118464849.330 6  92310300.941 9
  88464030.587 8  22543119.98847
  22578272.586 6                                 120566808.923 6  93774104.327 8
                  22578275.359 8
  19651262.430 7                                 104752292.793 7  81474001.275 8
                  19651270.555 8
  20510546.156 7                                 109602120.475 7  85246115.542 9
                  20510550.816 9
  19802941.570 6                                 105895426.769 6  82362961.882 9
                  19802946.852 9
  21306578.281 7                                 114015795.633 7  88678954.519 9
                  21306581.355 9
 19  5 27  9 55  5.0000000  0 12G12G14G24G25G29G31G32R09R10R11R20R21
  20729349.930 7  20729351.469 9                 108933468.839 7  84883225.008 9
                  20729351.40248
  22737148.859 4                                 119484588.498 4
                
  23278997.492 6  23279000.645 8  23279003.141 9 122331946.183 6  95323584.808 8
  91351790.510 9  23279000.07446
  20494940.898 7  20494945.969 9  20494946.816 9 107701638.409 7  83923374.659 9
  80426573.858 9  20494945.50848
  21692887.500 6  21692890.945 9                 113996895.030 6  88828765.593 9
                  21692890.93448
  23346974.680 2  23346980.039 7                 122689143.784 2  95601965.575 7
                
  22542926.414 6  22542932.129 9  22542929.719 9 118463868.356 6  92309536.538 9
  88463298.029 9  22542932.22347
  22580084.523 5                                 120576483.244 5  93781628.801 8
                  22580087.563 8
  19650990.469 7                                 104750844.771 7  81472875.034 8
                  19650999.227 8
  20506785.367 7                                 109582024.926 7  85230485.647 9
                  20506790.609 9
  19801797.742 6                                 105889304.789 6  82358200.324 9
                  19801802.074 9
  21301595.773 7                                 113989137.562 7  88658220.472 9
                  21301600.215 9
 19  5 27  9 55 10.0000000  0 13G12G14G24G25G29G31G32R02R09R10R11R20
                                R21
  20729618.180 8  20729619.328 9                 108934877.279 8  84884322.493 9
                  20729619.09448
  22735494.258 5                                 119475892.047 5
                
  23280912.594 6  23280915.961 8  23280917.672 9 122342008.122 6  95331425.250 8
  91359304.270 9  23280915.89846
  20492879.711 7  20492885.273 9  20492886.320 9 107690808.178 7  83914935.507 9
  80418486.336 9  20492884.95348
  21688832.188 6  21688835.457 9                 113975583.747 6  88812159.429 9
                  21688835.26648
  23342655.148 2  23342659.980 7                 122666442.792 2  95584276.511 7
                
  22542742.797 6  22542747.781 8  22542746.887 9 118462904.038 6  92308785.089 8
  88462577.917 9  22542748.45347
  22858046.328 1                                 121974764.44611
                
  22581896.625 5                                 120586165.597 5  93789159.537 8
                  22581900.852 8
  19650722.789 7                                 104749411.979 7  81471760.649 8
                  19650730.590 8
  20503027.500 7                                 109561939.146 7  85214863.383 9
                  20503032.023 9
  19800657.617 6                                 105883207.695 6  82353458.145 9
                  19800662.195 9
  21296616.234 7                                 113962493.193 7  88637497.104 9
                  21296621.551 9
 19  5 27  9 55 15.0000000  0 13G12G14G24G25G29G31G32R02R09R10R11R20
                                R21
  20729887.344 7  20729889.238 9                 108936294.751 7  84885427.012 9
                  20729888.78548
  22733842.313 4                                 119467211.780 4
                
  23282827.484 6  23282831.434 8  23282832.988 9 122352075.895 6  95339270.243 8
  91366822.384 9  23282831.85946
  20490820.953 7  20490826.426 9  20490827.434 9 107679988.854 7  83906504.855 9
  80410406.965 9  20490826.30548
  21684778.078 6  21684781.598 9                 113954283.292 6  88795561.680 9
                  21684781.50048
  23338335.516 1  23338341.738 7                 122643747.970 1  95566592.221 7
                
  22542561.820 6  22542566.621 8  22542566.684 9 118461955.093 6  92308045.607 8
  88461869.284 9  22542567.07847
  22856734.961 1                                                
                
  22583710.906 5                                 120595854.695 5  93796695.475 8
                  22583715.078 8
  19650457.320 7                                 104747992.985 7  81470656.983 8
                  19650463.961 8
  20499270.297 7                                 109541862.149 7  85199247.921 9
                  20499275.066 9
  19799521.227 6                                 105877134.379 6  82348734.460 9
                  19799526.441 9
  21291639.742 6                                 113935861.257 6  88616783.381 9
                  21291644.418 9
 19  5 27  9 55 20.0000000  0 13G12G14G24G25G29G31G32R02R09R10R11R20
                                R21
  20730159.625 7  20730160.922 9                 108937723.964 7  84886540.665 9
                  20730161.21548
  22732193.945 4                                 119458550.419 4
                
  23284744.320 6  23284748.895 8  23284750.938 9 122362152.161 6  95347121.875 8
  91374346.872 9  23284749.51646
  20488764.734 7  20488770.148 9  20488771.230 9 107669183.211 7  83898084.859 9
  80402337.809 9  20488769.80948
  21680727.977 6  21680730.781 9                 113932996.401 6  88778974.478 9
                  21680731.06347
  23334016.828 1  23334023.441 7                 122621062.125 1  95548914.885 7
                
  22542384.734 6  22542388.957 8  22542390.379 9 118461024.299 6  92307320.302 8
  88461174.203 9  22542389.59846
  22855426.539 1                                 121960834.23511
                
  22585527.711 5                                 120605553.318 5  93804238.820 9
                  22585532.191 9
  19650194.250 7                                 104746590.626 7  81469566.257 8
                  19650200.508 8
  20495515.539 7                                 109521796.485 7  85183641.317 9
                  20495519.781 9
  19798390.242 6                                 105871087.435 6  82344031.284 9
                  19798395.070 9
  21286666.313 6                                 113909244.634 6  88596081.551 9
                  21286669.809 9
 19  5 27  9 55 25.0000000  0 13G06G12G14G24G25G29G32R02R09R10R11R20
                                R21
  23531849.391 1  23531855.488 8  23531857.410 8 123660854.40211  96359011.28118
  92344061.31718
  20730433.453 7  20730435.375 9                 108939163.757 7  84887662.588 9
                  20730435.18848
  22730548.141 4                                 119449906.895 4
                
  23286662.984 5  23286668.254 8  23286670.078 9 122372235.747 5  95354979.144 8
  91381876.799 9  23286668.01246
  20486710.813 7  20486716.055 9  20486717.457 9 107658390.017 7  83889674.585 9
  80394277.958 9  20486716.09448
  21676679.445 6  21676682.289 9                 113911721.981 6  88762396.988 9
                  21676682.20748
  22542210.750 6  22542214.820 8  22542216.219 9 118460110.411 6  92306608.182 8
  88460491.766 9  22542214.79747
  22854129.477 3                                 121953904.686 3
                
  22587344.313 5                                 120615260.334 5  93811788.720 9
                  22587350.461 9
  19649933.727 7                                 104745203.822 7  81468487.650 8
                  19649940.273 8
  20491762.234 7                                 109501741.028 7  85168042.604 9
                  20491766.215 9
  19797263.477 6                                 105865065.741 6  82339347.756 9
                  19797268.887 9
  21281696.734 7                                 113882642.076 7  88575390.644 9
                  21281698.367 9
 19  5 27  9 55 30.0000000  0 14G06G12G14G24G25G29G31G32R02R09R10R11
                                R20R21
  23531730.734 1  23531737.477 8  23531738.930 8                  96358523.03918
  92343593.37418  23531736.09846
  20730709.227 7  20730711.234 9                 108940613.139 7  84888791.977 9
                  20730710.98048
  22728906.758 4                                 119441280.131 4
                
  23288584.438 6  23288588.027 8  23288590.250 9 122382325.548 6  95362841.352 8
  91389411.386 9  23288588.41846
  20484658.688 6  20484664.418 9  20484665.855 9 107647608.378 6  83881273.282 9
  80386226.720 9  20484664.43448
  21672633.125 6  21672636.676 9                 113890459.019 6  88745828.446 9
                  21672636.38748
  23325386.570 1  23325394.988 7                                  95513578.55217
                
  22542040.078 6  22542044.016 8  22542045.742 9 118459212.547 6  92305908.554 8
  88459821.279 9  22542043.73447
  22852833.344 2                                 121946997.798 2
                
  22589165.617 6                                 120624974.676 6  93819344.290 9
                  22589170.234 9
  19649676.180 7                                 104743831.594 7  81467420.343 8
                  19649682.719 8
  20488011.750 7                                 109481694.915 7  85152451.207 9
                  20488015.223 9
  19796142.289 5                                 105859068.396 5  82334683.130 9
                  19796147.340 9
  21276727.227 6                                 113856052.641 6  88554709.967 9
                  21276729.793 9
 19  5 27  9 55 35.0000000  0 14G06G12G14G24G25G29G31G32R02R09R10R11
                                R20R21
  23531615.156 3  23531622.082 8  23531623.492 8 123659619.42113  96358048.945 8
  92343139.013 8  23531620.36746
  20730987.375 8  20730988.676 9                 108942073.891 8  84889930.224 9
                  20730989.19948
  22727269.555 4                                 119432671.785 4
                
  23290506.641 6  23290508.496 8  23290511.707 9 122392423.268 6  95370709.743 8
  91396951.893 9  23290509.57846
  20482608.672 6  20482615.500 9  20482616.797 9 107636839.942 6  83872882.335 9
  80378185.377 9  20482615.49248
  21668590.180 6  21668593.078 9                 113869209.202 6  88729270.152 9
                  21668592.87948
  23321077.055 1  23321081.863 7                 122553049.04811  95495918.82417
                
  22541872.867 6  22541877.063 8  22541879.773 9 118458332.375 6  92305222.669 8
  88459163.990 9  22541876.82847
  22851542.336 1                                 121940114.885 1
                
  22590984.688 6                                 120634698.066 6  93826906.933 9
                  22590990.520 9
  19649421.648 7                                 104742475.828 7  81466365.868 8
                  19649428.781 8
  20484261.633 7                                 109461659.806 7  85136868.342 9
                  20484265.691 9
  19795025.008 5                                 105853097.017 5  82330038.711 9
                  19795030.547 9
  21271760.391 7                                 113829477.986 7  88534040.808 9
                  21271762.969 9
 19  5 27  9 55 40.0000000  0 14G06G12G14G24G25G29G31G32R02R09R10R11
                                R20R21
  23531502.797 3  23531509.941 8  23531511.188 8 123659027.271 3  96357587.547 8
  92342696.807 8  23531508.53146
  20731267.313 8  20731268.891 9                 108943544.104 8  84891075.848 9
                  20731268.87548
  22725633.516 3                                 119424080.178 3
                
  23292429.914 5  23292431.098 8  23292434.520 9 122402527.116 5  95378582.875 8
  91404496.971 9  23292432.03946
  20480562.406 6  20480568.691 9  20480570.008 9 107626082.899 6  83864500.210 9
  80370152.513 9  20480568.76248
  21664549.102 7  21664551.820 9                 113847970.746 7  88712720.662 9
                  21664551.80148
  23316767.625 4  23316768.926 7                 122530392.624 4  95478264.510 7
                
  22541707.266 6  22541712.629 8  22541714.863 9 118457467.958 6  92304549.126 8
  88458518.485 9  22541712.85546
  22850255.992 1                                 121933254.142 1
                  22850263.758 6
  22592806.094 5                                 120644428.687 5  93834475.121 9
                  22592812.555 9
  19649170.586 7                                 104741134.437 7  81465322.564 8
                  19649177.246 8
  20480513.664 7                                 109441633.809 7  85121292.554 9
                  20480517.789 9
  19793914.406 5                                 105847149.835 5  82325413.111 9
                  19793919.207 9
  21266796.875 7                                 113802916.445 7  88513381.834 9
                  21266800.316 9
 19  5 27  9 55 45.0000000  0 14G02G06G12G14G24G25G29G31G32R09R10R11
                                R20R21
  22836114.453 1                                 120004348.52911
                
  23531392.547 2  23531399.906 8  23531400.828 8 123658452.099 2  96357139.366 8
  92342267.343 8  23531399.17246
  20731548.945 8  20731550.551 9                 108945024.540 8  84892229.413 9
                  20731550.50848
  22724003.188 5                                 119415505.837 5
                
  23294352.969 5  23294355.063 8  23294360.016 9 122412637.856 5  95386461.299 8
  91412047.126 9  23294356.18846
  20478518.500 6  20478523.836 9  20478525.145 9 107615337.955 6  83856127.517 9
  80362128.686 9  20478523.66448
  21660509.320 6  21660512.730 9                 113826744.353 6  88696180.613 9
                  21660512.93048
  23312456.117 3  23312459.984 7                 122507743.583 3  95460615.834 7
                
  22541547.117 6  22541550.301 8  22541552.816 9 118456620.137 6  92303888.454 8
  88457885.352 9  22541551.10247
  22594631.078 5                                 120654167.206 5  93842049.518 9
                  22594635.914 9
  19648922.086 8                                 104739808.214 8  81464291.063 8
                  19648927.211 8
  20476767.883 7                                 109421617.759 7  85105724.484 9
                  20476772.723 9
  19792806.547 5                                 105841227.452 5  82320806.854 9
                  19792811.484 9
  21261834.781 6                                 113776368.628 6  88492733.529 9
                  21261838.527 9
 19  5 27  9 55 50.0000000  0 14G02G06G12G14G24G25G29G31G32R09R10R11
                                R20R21
  22834166.680 1                                 119994095.931 1
                
  23531286.336 2  23531293.574 8  23531293.992 8 123657893.412 2  96356704.022 8
  92341850.133 8  23531292.97746
  20731832.133 7  20731833.754 9                 108946514.610 7  84893390.511 9
                  20731833.91048
  22722374.383 5                                 119406948.374 5
                
  23296277.617 4  23296281.809 8  23296285.168 9 122422754.943 4  95394344.696 8
  91419602.102 9  23296281.80946
  20476475.914 7  20476481.512 9  20476482.723 9 107604604.574 7  83847763.831 9
  80354113.500 9  20476481.12148
  21656472.102 7  21656475.348 9                 113805529.428 7  88679649.521 9
                  21656475.62148
  23308144.609 1  23308152.383 7                 122485101.291 1  95442972.495 7
                
  22541388.406 6  22541391.980 8  22541394.227 9 118455788.228 6  92303240.171 8
  88457264.098 9  22541393.03547
  22596458.805 6                                 120663913.088 6  93849629.675 9
                  22596461.137 9
  19648675.484 7                                 104738496.519 7  81463270.846 8
                  19648681.023 8
  20473024.031 7                                 109401611.073 7  85090163.754 9
                  20473028.953 9
  19791703.859 5                                 105835329.244 5  82316219.356 8
                  19791707.574 8
  21256876.461 7                                 113749833.924 7  88472095.462 9
                  21256879.820 9
 19  5 27  9 55 55.0000000  0 14G02G06G12G14G24G25G29G31G32R09R10R11
                                R20R21
  22832216.156 1                                 119983858.361 1
                
  23531184.211 3  23531190.727 9  23531189.844 8 123657351.331 3  96356281.595 9
  92341445.289 8  23531189.94146
  20732118.258 7  20732119.598 9                 108948014.447 7  84894559.217 9
                  20732119.39848
  22720750.547 5                                 119398407.894 5
                
  23298203.414 5  23298207.789 8  23298211.887 9 122432878.400 5  95402233.058 8
  91427161.770 9  23298208.29346
  20474436.234 7  20474441.117 9  20474442.555 9 107593882.861 7  83839409.258 9
  80346107.033 9  20474440.60548
  21652436.852 6  21652440.375 9                 113784326.191 6  88663127.540 9
                  21652440.67248
  23303838.086 1  23303844.871 7                 122462465.892 1  95425334.596 7
                
  22541232.359 6  22541236.797 8  22541239.000 9 118454972.464 6  92302604.525 8
  88456654.923 9  22541237.98847
  22598284.133 5                                 120673666.460 5  93857215.615 9
                  22598288.398 9
  19648432.141 7                                 104737199.448 7  81462262.015 8
                  19648438.059 8
  20469282.156 7                                 109381613.836 7  85074610.355 9
                  20469286.680 9
  19790605.883 6                                 105829455.503 6  82311650.880 8
                  19790609.258 8
  21251921.234 7                                 113723312.699 7  88451467.833 9
                  21251924.148 9
 19  5 27  9 56  0.0000000  0 15G02G06G12G14G24G25G29G31G32R02R09R10
                                R11R20R21
  22830273.492 1                                 119973637.204 1
                
  23531082.852 2  23531090.844 9  23531090.332 8 123656827.044 2  96355873.043 9
  92341053.765 8  23531090.55146
  20732405.281 7  20732406.727 9                 108949525.289 7  84895736.497 9
                  20732406.54348
  22719128.758 5                                 119389885.577 5
                
  23300131.406 4  23300135.660 8  23300139.504 9 122443009.373 4  95410127.371 8
  91434727.104 9  23300136.03146
  20472398.570 7  20472402.914 9  20472404.828 9 107583174.097 7  83831064.766 9
  80338110.229 9  20472402.81648
  21648405.055 7  21648407.805 9                 113763135.866 7  88646615.631 9
                  21648408.01648
  23299531.711 1  23299537.148 7                 122439838.728 1  95407702.995 7
                
  22541081.008 6  22541085.000 8  22541087.234 9 118454173.992 6  92301982.354 8
  88456058.669 9  22541085.98447
  22845155.820 1                                 121906038.86511
                
  22600111.617 5                                 120683428.603 5  93864808.365 9
                  22600117.105 9
  19648192.305 7                                 104735918.364 7  81461265.606 8
                  19648198.430 8
  20465542.578 7                                 109361627.416 7  85059065.361 9
                  20465546.063 9
  19789512.359 6                                 105823607.482 6  82307102.407 8
                  19789516.430 8
  21246968.656 7                                 113696806.164 7  88430851.639 9
                  21246970.504 9
 19  5 27  9 56  5.0000000  0 15G02G06G12G14G24G25G29G31G32R02R09R10
                                R11R20R21
  22828332.414 1                                 119963431.289 1
                
  23530985.852 2  23530994.941 9  23530994.230 8 123656319.533 2  96355477.578 9
  92340674.789 8  23530993.98046
  20732694.609 7  20732696.445 9                 108951046.189 7  84896921.602 9
                  20732696.37548
  22717510.313 5                                 119381380.526 5
                
  23302060.422 5  23302065.473 8  23302068.449 9 122453146.994 5  95418026.738 8
  91442297.349 9  23302065.38746
  20470362.813 7  20470367.902 9  20470369.246 9 107572477.291 7  83822729.594 9
  80330122.345 9  20470367.52748
  21644375.602 7  21644377.758 9                 113741957.477 7  88630112.991 9
                  21644377.80948
  23295230.297 4  23295230.547 7                 122417218.848 4  95390077.125 7
                
  22540932.453 6  22540936.387 8  22540938.637 9 118453391.925 6  92301372.885 8
  88455474.621 9  22540936.92247
  22843891.875 1                                 121899292.434 1
                
  22601940.430 5                                 120693198.518 5  93872407.148 9
                  22601946.457 9
  19647954.242 7                                 104734652.401 7  81460280.969 8
                  19647960.484 8
  20461803.172 7                                 109341650.728 7  85043527.951 9
                  20461807.711 9
  19788422.734 5                                 105817784.186 5  82302573.177 8
                  19788427.578 8
  21242017.594 7                                 113670313.242 7  88410246.055 9
                  21242018.934 9
 19  5 27  9 56 10.0000000  0 15G02G06G12G14G24G25G29G31G32R02R09R10
                                R11R20R21
  22826391.641 1                                 119953239.712 1
                
  23530891.336 1  23530900.703 8  23530901.824 8 123655827.83711  96355094.49718
  92340307.63018  23530900.04746
  20732986.344 7  20732987.715 9                 108952576.060 7  84898113.717 9
                  20732987.29348
  22715894.648 5                                 119372891.705 5
                
  23303990.195 5  23303995.375 8  23303998.863 9 122463290.286 5  95425930.613 8
  91449871.870 9  23303995.33246
  20468328.922 7  20468333.973 9  20468335.262 9 107561791.408 7  83814402.945 9
  80322142.625 9  20468333.54748
  21640347.383 7  21640349.602 9                 113720790.034 7  88613618.906 9
                  21640349.52048
  23290928.352 4  23290928.074 7                 122394605.147 4  95372456.033 7
                
  22540786.141 6  22540790.289 8  22540793.086 9 118452625.123 6  92300775.396 8
  88454902.011 9  22540791.54747
  22842631.484 2                                 121892567.773 2
                
  22603769.367 4                                 120702975.149 4  93880011.139 9
                  22603777.609 9
  19647719.422 7                                 104733400.407 7  81459307.192 8
                  19647725.703 8
  20458066.469 7                                 109321682.859 7  85027997.381 9
                  20458071.352 9
  19787336.625 5                                 105811984.396 5  82298062.225 9
                  19787343.055 9
  21237068.813 7                                 113643832.951 7  88389650.278 9
                  21237070.086 9
 19  5 27  9 56 15.0000000  0 15G02G06G12G14G24G25G29G31G32R02R09R10
                                R11R20R21
  22824453.000 1                                 119943062.852 1
                
  23530802.086 1  23530810.164 8  23530811.402 8 123655352.281 1  96354723.877 8
  92339952.469 8  23530809.45346
  20733278.617 7  20733279.926 9                 108954115.214 7  84899313.066 9
                  20733279.52748
  22714282.727 4                                 119364419.343 4
                
  23305921.977 5  23305926.891 8  23305930.551 9 122473439.459 5  95433839.063 8
  91457450.780 9  23305926.48846
  20466297.836 7  20466302.531 9  20466304.129 9 107551116.827 7  83806085.089 9
  80314171.347 9  20466302.06348
  21636322.094 7  21636323.512 9                 113699633.969 7  88597133.656 9
                  21636323.55148
  23286626.922 3  23286624.145 6                 122371997.978 3  95354840.132 6
                
  22540643.469 6  22540647.777 8  22540649.980 9 118451873.986 6  92300190.107 8
  88454341.092 9  22540649.14547
  22841376.266 3                                 121885865.138 3
                  22841385.129 6
  22605601.859 5                                 120712758.744 5  93887620.604 9
                  22605609.309 9
  19647487.352 7                                 104732162.771 7  81458344.584 8
                  19647493.141 8
  20454331.305 7                                 109301724.021 7  85012473.852 8
                  20454335.301 8
  19786256.828 6                                 105806208.632 6  82293569.975 8
                  19786261.887 8
  21232120.234 6                                 113617365.712 6  88369064.648 9
                  21232124.461 9
 19  5 27  9 56 20.0000000  0 15G02G06G12G14G24G25G29G31G32R02R09R10
                                R11R20R21
  22822517.469 1                                 119932901.198 1
                
  23530713.773 1  23530723.406 9  23530724.727 8                  96354366.29919
  92339609.77018  23530722.30945
  20733573.359 7  20733575.141 9                 108955664.263 7  84900520.111 9
                  20733574.53548
  22712671.781 5                                 119355964.100 5
                
  23307854.055 5  23307859.129 8  23307862.723 9 122483595.019 5  95441752.494 8
  91465034.490 9  23307858.77746
  20464268.852 7  20464273.309 9  20464275.145 9 107540454.019 7  83797776.412 9
  80306208.860 9  20464272.72348
  21632298.555 7  21632300.309 9                 113678489.695 7  88580657.606 9
                  21632300.30948
  23282326.586 4  23282322.934 6                 122349397.909 4  95337229.729 6
                
  22540503.953 6  22540508.590 9  22540510.922 9 118451139.048 6  92299617.417 9
  88453792.254 9  22540509.49647
  22840124.398 1                                 121879185.141 1
                
  22607436.617 6                                 120722550.068 6  93895236.034 9
                  22607442.645 9
  19647257.391 7                                 104730940.031 7  81457393.550 8
                  19647264.148 8
  20450597.828 7                                 109281774.871 7  84996957.854 8
                  20450601.625 8
  19785181.898 6                                 105800457.358 6  82289096.770 9
                  19785186.633 9
  21227176.375 6                                 113590912.071 6  88348489.583 9
                  21227181.156 9
 19  5 27  9 56 25.0000000  0 15G02G06G12G14G24G25G29G31G32R02R09R10
                                R11R20R21
  22820588.789 1                                 119922755.305 1
                
  23530630.773 1  23530639.113 9  23530641.121 8 123654451.74111  96354022.128 9
  92339279.945 8  23530638.64546
  20733869.914 7  20733871.965 9                 108957223.689 7  84901735.249 9
                  20733871.17248
  22711067.563 4                                 119347526.464 4
                
  23309789.195 5  23309793.730 8  23309795.996 9 122493757.685 5  95449671.460 8
  91472623.466 9  23309792.69946
  20462242.531 7  20462246.785 9  20462248.141 9 107529803.601 7  83789477.383 9
  80298255.628 9  20462246.13348
  21628277.539 7  21628278.844 9                 113657357.762 7  88564191.148 9
                  21628278.93848
  23278027.469 3  23278026.156 7                 122326805.539 3  95319625.487 7
                
  22540366.516 6  22540372.203 9  22540374.441 9 118450420.788 6  92299057.751 9
  88453255.905 9  22540372.84447
  22838878.320 1                                 121872528.369 1
                
  22609272.281 5                                 120732349.378 5  93902857.734 9
                  22609277.949 9
  19647031.531 7                                 104729732.741 7  81456454.567 8
                  19647037.559 8
  20446867.516 7                                 109261835.890 7  84981449.763 8
                  20446870.652 8
  19784111.305 6                                 105794731.141 6  82284643.048 9
                  19784116.004 9
  21222237.398 7                                 113564472.525 7  88327925.492 9
                  21222240.160 9
 19  5 27  9 56 30.0000000  0 15G02G06G12G14G24G25G29G31G32R02R09R10
                                R11R20R21
  22818659.828 1                                 119912624.950 1
                
  23530550.398 2  23530558.172 8  23530558.477 8 123654027.092 2  96353691.200 8
  92338962.839 8  23530557.87546
  20734168.859 7  20734170.531 9                 108958793.339 7  84902958.351 9
                  20734170.14548
  22709464.172 3                                 119339106.343 3
                
  23311726.289 5  23311729.078 8  23311731.227 9 122503927.310 5  95457595.848 8
  91480217.603 9  23311727.63746
  20460217.586 7  20460222.047 9  20460223.730 9 107519165.386 7  83781187.891 9
  80290311.507 9  20460221.66048
  21624257.141 7  21624259.668 9                 113636238.008 7  88547734.194 9
                  21624259.48048
  23273730.133 4  23273730.078 7                 122304220.606 4  95302026.841 7
                
  22540233.930 6  22540238.125 9  22540240.828 9 118449719.064 6  92298510.946 9
  88452731.880 9  22540238.93847
  22837631.461 1                                 121865894.639 1
                
  22611108.031 5                                 120742156.670 5  93910485.622 9
                  22611114.367 9
  19646806.578 7                                 104728540.712 7  81455527.411 8
                  19646814.344 8
  20443137.422 7                                 109241907.004 7  84965949.562 9
                  20443140.891 9
  19783046.156 6                                 105789029.885 6  82280208.738 9
                  19783050.371 9
  21217298.555 7                                 113538046.942 7  88307372.278 9
                  21217302.504 9
 19  5 27  9 56 35.0000000  0 15G02G06G12G14G24G25G29G31G32R02R09R10
                                R11R20R21
  22816729.234 3                                 119902510.127 3
                
  23530473.891 1  23530480.270 8  23530476.027 7 123653619.403 1  96353373.520 8
  92338658.532 7  23530479.82045
  20734469.547 8  20734471.316 9                 108960373.263 8  84904189.440 9
                  20734471.28548
  22707863.773 2                                                
                
  23313668.078 3  23313666.000 8  23313667.582 9 122514103.693 3  95465525.546 8
  91487816.864 9  23313664.51645
  20458195.352 6  20458199.773 9  20458201.316 9 107508539.368 6  83772907.846 9
  80282376.491 9  20458199.12948
  21620241.531 7  21620243.488 9                 113615130.429 7  88531286.727 9
                  21620242.94148
  23269432.766 4  23269434.973 7                 122281643.269 4  95284434.107 7
                
  22540102.508 6  22540108.121 9  22540108.723 9 118449033.901 6  92297977.059 9
  88452220.210 9  22540108.29347
  22836394.219 2                                 121859283.693 2
                
  22612946.266 6                                 120751971.906 6  93918119.674 8
                  22612953.164 8
  19646587.195 7                                 104727363.723 7  81454612.002 8
                  19646592.289 8
  20439411.164 7                                 109221988.184 7  84950457.228 9
                  20439414.598 9
  19781984.203 6                                 105783353.464 6  82275793.727 9
                  19781989.449 9
  21212364.117 7                                 113511635.404 7  88286829.944 9
                  21212366.633 9
 19  5 27  9 56 40.0000000  0 15G02G06G12G14G24G25G29G31G32R02R09R10
                                R11R20R21
  22814809.680 1                                 119892409.110 1
                
  23530396.992 1  23530406.746 8  23530400.773 7                  96353067.71618
  92338365.42417  23530405.44545
  20734772.086 8  20734773.738 9                 108961961.628 8  84905427.108 9
                  20734773.83648
  22706266.977 1                                 119322316.70611
                
  23315598.469 5  23315604.164 8  23315604.230 9 122524285.153 5  95473459.078 8
  91495419.858 9  23315602.22346
  20456176.219 7  20456180.059 9  20456181.480 9 107497923.751 7  83764635.959 9
  80274449.246 9  20456179.53148
  21616225.672 7  21616228.309 9                 113594033.342 7  88514847.432 9
                  21616227.67648
  23265137.164 4  23265139.168 7                 122259071.669 4  95266845.840 7
                
  22539975.141 6  22539980.355 9  22539982.098 9 118448363.479 6  92297454.631 9
  88451719.576 9  22539980.32447
  22835160.328 2                                 121852694.063 2
                
  22614787.000 6                                 120761793.316 6  93925758.476 9
                  22614791.738 9
  19646368.977 7                                 104726200.032 7  81453706.882 8
                  19646374.000 8
  20435684.578 7                                 109202077.671 7  84934971.212 8
                  20435687.781 8
  19780927.984 6                                 105777700.111 6  82271396.704 9
                  19780932.305 9
  21207430.008 7                                 113485236.087 7  88266297.215 9
                  21207433.750 9
 19  5 27  9 56 45.0000000  0 14G06G12G14G24G25G29G31G32R02R09R10R11
                                R20R21
  23530326.594 2  23530334.496 8  23530330.492 7 123652851.32012  96352775.018 8
  92338084.807 7  23530332.99646
  20735076.867 7  20735077.273 9                 108963559.962 7  84906672.599 9
                  20735077.59448
  22704673.773 1                                 119313946.964 1
                
  23317539.094 5  23317542.008 8  23317543.637 8 122534473.182 5  95481397.653 8
  91503027.759 8  23317540.80546
  20454158.445 7  20454162.277 9  20454163.578 9 107487320.078 7  83756373.355 9
  80266530.912 9  20454162.39148
  21612214.000 7  21612216.688 9                 113572948.235 7  88498417.503 9
                  21612216.56348
  23260842.344 2  23260846.371 7                 122236507.457 2  95249263.326 7
                
  22539850.617 6  22539856.328 9  22539858.609 9 118447709.311 6  92296944.875 9
  88451231.041 9  22539856.01247
  22833927.023 1                                 121846127.249 1
                
  22616627.977 5                                 120771622.397 5  93933403.318 9
                  22616632.551 9
  19646153.094 7                                 104725051.353 7  81452813.479 8
                  19646158.930 8
  20431961.117 7                                 109182177.097 7  84919492.944 9
                  20431964.625 9
  19779874.406 6                                 105772071.397 6  82267018.806 9
                  19779879.543 9
  21202499.133 6                                 113458850.609 6  88245775.151 9
                  21202502.539 9
 19  5 27  9 56 50.0000000  0 15G02G06G12G14G24G25G29G31G32R02R09R10
                                R11R20R21
  22810975.305 1                                                
                
  23530257.938 1  23530266.219 8  23530264.027 8 123652492.135 1  96352495.146 8
  92337816.604 8  23530265.18446
  20735382.773 7  20735383.887 9                 108965167.929 7  84907925.548 9
                  20735383.85248
  22703085.258 2                                 119305594.051 2
                
  23319477.758 5  23319482.082 8  23319482.410 8 122544667.442 5  95489341.353 8
  91510640.384 8  23319480.92646
  20452142.172 7  20452146.258 9  20452148.105 9 107476728.102 7  83748119.857 9
  80258621.324 9  20452146.39148
  21608202.445 6  21608206.461 9                 113551874.823 6  88481996.669 9
                  21608206.73848
  23256550.977 3  23256554.047 7                 122213950.254 3  95231686.304 7
                
  22539729.273 6  22539734.363 9  22539736.535 9 118447071.124 6  92296447.595 9
  88450754.458 9  22539734.82047
  22832701.789 1                                 121839582.665 1
                  22832712.152 6
  22618469.359 6                                 120781458.936 6  93941053.925 9
                  22618474.598 9
  19645940.477 7                                 104723917.496 7  81451931.578 8
                  19645947.184 8
  20428237.891 7                                 109162285.948 7  84904022.062 9
                  20428241.652 9
  19778826.320 6                                 105766466.976 6  82262659.796 9
                  19778831.992 9
  21197571.422 7                                 113432478.574 7  88225263.565 9
                  21197573.066 9
 19  5 27  9 56 55.0000000  0 15G02G06G12G14G24G25G29G31G32R02R09R10
                                R11R20R21
  22809060.430 2                                 119862196.33112
                
  23530195.703 2  23530201.176 8  23530196.156 8 123652150.300 2  96352228.733 8
  92337561.413 8  23530200.47746
  20735690.133 8  20735691.844 9                 108966786.380 8  84909186.655 9
                  20735691.88348
  22701498.438 1                                 119297258.98311
                
  23321419.750 3  23321423.398 8  23321425.289 9 122554868.666 3  95497290.278 8
  91518258.160 9  23321422.34046
  20450129.664 7  20450133.563 9  20450134.574 9 107466148.598 7  83739876.082 9
  80250721.043 9  20450133.56348
  21604195.578 6  21604198.484 9                 113530813.879 6  88465585.562 9
                  21604198.41448
  23252258.695 3  23252262.488 7                 122191400.841 3  95214115.258 7
                
  22539610.984 7  22539616.637 9  22539618.219 9 118446449.703 7  92295963.336 9
  88450290.404 9  22539617.14848
  22831478.930 1                                 121833061.242 1
                
  22620313.727 6                                 120791303.609 6  93948710.892 9
                  22620317.883 9
  19645730.195 7                                 104722799.203 7  81451061.782 8
                  19645736.156 8
  20424517.438 6                                 109142405.230 6  84888559.351 9
                  20424522.023 9
  19777782.242 6                                 105760887.748 6  82258320.424 9
                  19777788.188 9
  21192645.648 7                                 113406120.986 7  88204763.230 9
                  21192647.828 9
 19  5 27  9 57  0.0000000  0 15G02G06G12G14G24G25G29G31G32R02R09R10
                                R11R20R21
  22807149.656 1                                 119852157.922 1
                
  23530133.039 1  23530139.805 8  23530137.910 8 123651825.990 1  96351976.044 8
  92337319.192 8  23530139.00846
  20736000.656 8  20736001.543 9                 108968415.663 8  84910456.227 9
                  20736001.46148
  22699917.273 2                                 119288941.971 2
                
  23323360.484 5  23323366.410 8  23323366.840 9 122565077.377 5  95505245.175 8
  91525881.536 9  23323365.30146
  20448119.000 7  20448122.922 9  20448124.344 9 107455581.954 7  83731642.350 9
  80242830.381 9  20448122.98048
  21600189.742 6  21600192.469 9                 113509765.944 6  88449184.579 9
                  21600192.19948
  23247970.258 3  23247972.723 7                 122168859.693 3  95196550.824 7
                
  22539496.406 7  22539501.402 9  22539502.684 9 118445845.448 7  92295492.490 9
  88449839.169 9  22539501.84847
  22830262.508 1                                 121826563.692 1
                
  22622157.961 5                                 120801156.905 5  93956374.563 8
                  22622162.523 8
  19645523.945 7                                 104721696.759 7  81450204.317 8
                  19645529.820 8
  20420799.445 7                                 109122535.397 7  84873104.985 9
                  20420803.539 9
  19776744.844 6                                 105755334.057 6  82254000.859 9
                  19776749.477 9
  21187721.594 6                                 113379778.083 6  88184274.323 9
                  21187724.922 9
 19  5 27  9 57  5.0000000  0 15G02G06G12G14G24G25G29G31G32R02R09R10
                                R11R20R21
  22805240.531 1                                 119842131.196 1
                
  23530074.766 3  23530080.680 8  23530080.320 8 123651514.749 3  96351733.521 8
  92337086.742 8  23530079.42246
  20736311.688 7  20736312.754 9                 108970051.153 7  84911730.641 9
                  20736312.70748
  22698338.344 2                                                
                
  23325304.914 5  23325309.859 8  23325310.016 8 122575289.049 5  95513202.283 8
  91533507.083 8  23325308.70746
  20446109.469 7  20446113.578 9  20446114.676 9 107445023.558 7  83723415.010 9
  80234945.842 9  20446113.54748
  21596186.422 6  21596189.082 9                 113488726.266 6  88432790.004 9
                  21596189.10948
  23243682.336 4  23243685.125 7                 122146322.130 4  95178989.077 7
                
  22539384.391 7  22539388.703 9  22539389.512 9 118445253.666 7  92295031.345 9
  88449397.256 9  22539389.02747
  22829046.813 1                                 121820084.951 1
                
  22624002.922 5                                 120811014.133 5  93964041.311 9
                  22624008.832 9
  19645319.352 7                                 104720605.532 7  81449355.576 8
                  19645325.668 8
  20417081.898 7                                 109102671.659 7  84857655.403 9
                  20417087.262 9
  19775709.094 6                                 105749801.043 6  82249697.419 9
                  19775714.398 9
  21182799.992 7                                 113353445.247 7  88163793.204 9
                  21182804.113 9
 19  5 27  9 57 10.0000000  0 15G02G06G12G14G24G25G29G31G32R02R09R10
                                R11R20R21
  22803332.250 1                                 119832120.089 1
                
  23530019.141 3  23530024.551 8  23530025.086 8 123651220.464 3  96351504.213 8
  92336866.952 8  23530023.19146
  20736624.445 7  20736625.930 9                 108971696.851 7  84913013.012 9
                  20736625.91448
  22696760.328 2                                 119272352.44412
                
  23327248.813 5  23327254.637 8  23327254.520 8 122585507.389 5  95521164.604 8
  91541137.625 8  23327253.03946
  20444103.156 7  20444107.172 9  20444107.758 9 107434477.320 7  83715197.163 9
  80227070.408 9  20444107.09848
  21592185.250 6  21592187.754 9                 113467698.854 6  88416404.993 9
                  21592187.93848
  23239393.891 2  23239396.590 7                 122123792.228 2  95161433.291 7
                
  22539274.094 6  22539278.855 9  22539279.566 9 118444678.399 6  92294583.079 9
  88448967.661 9  22539279.07847
  22827837.031 1                                 121813629.321 1
                
  22625852.500 6                                 120820879.248 6  93971714.180 9
                  22625856.402 9
  19645116.742 7                                 104719529.635 7  81448518.757 8
                  19645124.262 8
  20413365.969 6                                 109082817.966 6  84842213.630 9
                  20413372.320 9
  19774679.672 6                                 105744292.937 6  82245413.326 9
                  19774684.660 9
  21177883.039 7                                 113327126.588 7  88143323.126 9
                  21177886.340 9
 19  5 27  9 57 15.0000000  0 15G02G06G12G14G24G25G29G31G32R02R09R10
                                R11R20R21
  22801433.641 1                                                
                
  23529965.148 3  23529971.715 8  23529972.434 8 123650943.406 3  96351288.317 8
  92336660.058 8  23529970.30546
  20736939.906 7  20736941.516 9                 108973353.054 7  84914303.557 9
                  20736941.31348
  22695184.555 1                                 119264084.05211
                
  23329197.117 4  23329200.617 8  23329199.238 8 122595732.780 4  95529132.439 8
  91548773.426 8  23329198.57846
  20442098.055 7  20442102.184 9  20442102.973 9 107423943.578 7  83706989.068 9
  80219204.317 9  20442102.43048
  21588186.102 7  21588188.906 9                 113446683.976 7  88400029.767 9
                  21588189.22348
  23235107.297 3  23235109.953 7                 122101270.117 3  95143883.640 7
                
  22539167.734 7  22539172.398 9  22539173.152 9 118444119.847 7  92294147.838 9
  88448550.550 9  22539172.07847
  22826630.727 1                                 121807196.881 1
                
  22627700.898 6                                 120830752.497 6  93979393.377 9
                  22627706.180 9
  19644919.086 7                                 104718469.249 7  81447694.015 8
                  19644926.164 8
  20409653.719 6                                 109062974.806 6  84826780.073 9
                  20409658.492 9
  19773654.555 6                                 105738810.016 6  82241148.825 9
                  19773660.145 9
  21172968.898 7                                 113300822.398 7  88122864.312 9
                  21172971.000 9
 19  5 27  9 57 20.0000000  0 14G06G12G14G24G25G29G31G32R02R09R10R11
                                R20R21
  23529915.570 3  23529921.836 8  23529922.977 8 123650680.948 3  96351083.830 8
  92336464.078 8  23529920.85246
  20737255.930 7  20737258.063 9                 108975017.071 7  84915600.195 9
                  20737257.89848
  22693615.570 1                                 119255830.79711
                
  23331143.875 5  23331147.469 9  23331146.465 8 122605962.419 5  95537103.541 9
  91556412.433 8  23331146.33246
  20440095.461 7  20440099.820 9  20440100.168 9 107413419.656 7  83698788.610 9
  80211345.552 9  20440100.03548
  21584188.930 6  21584192.070 9                 113425679.018 6  88383662.275 9
                  21584192.41048
  23230822.266 3  23230824.938 8                 122078753.307 3  95126337.976 8
                
  22539063.922 7  22539068.664 9  22539069.551 9 118443575.389 7  92293723.588 9
  88448143.957 9  22539068.71147
  22825432.445 1                                 121800785.219 1
                  22825442.734 6
  22629550.852 6                                 120840631.257 6  93987076.848 9
                  22629555.781 9
  19644722.938 7                                 104717421.564 7  81446879.146 8
                  19644729.398 8
  20405940.984 6                                 109043139.306 6  84811352.463 9
                  20405947.137 9
  19772634.094 6                                 105733349.478 6  82236901.737 9
                  19772638.617 9
  21168055.375 7                                 113274529.921 7  88102414.603 9
                  21168057.320 9
 19  5 27  9 57 25.0000000  0 14G06G12G14G24G25G29G31G32R02R09R10R11
                                R20R21
  23529869.641 4  23529874.789 8  23529876.230 8 123650435.500 4  96350892.602 8
  92336280.788 8  23529874.22346
  20737574.859 7  20737576.797 9                 108976691.372 7  84916904.829 9
                  20737576.69148
  22692046.000 1                                 119247595.142 1
                
  23333093.375 4  23333096.074 9  23333094.367 8 122616198.916 4  95545080.032 9
  91564056.534 8  23333094.52346
  20438095.078 7  20438099.305 9  20438099.844 9 107402908.034 7  83690597.749 9
  80203495.971 9  20438099.24248
  21580194.070 7  21580197.516 9                 113404686.468 7  88367304.430 9
                  21580197.59448
  23226538.398 2  23226542.125 8                 122056244.262 2  95108798.443 8
                
  22538963.891 6  22538968.520 9  22538969.094 9 118443047.413 6  92293312.181 9
  88447749.681 9  22538968.49247
  22824232.867 1                                 121794396.260 1  94729091.17516
                  22824244.922 6
  22631402.313 6                                 120850517.979 6  93994766.490 9
                  22631407.254 9
  19644528.578 7                                 104716389.154 7  81446076.173 8
                  19644536.297 8
  20402230.867 6                                 109023314.146 6  84795932.892 9
                  20402237.137 9
  19771616.844 6                                 105727913.860 6  82232674.036 9
                  19771622.359 9
  21163144.844 7                                 113248251.688 7  88081975.980 9
                  21163146.086 9
 19  5 27  9 57 30.0000000  0 14G06G12G14G24G25G29G31G32R02R09R10R11
                                R20R21
  23529825.094 3  23529830.805 8  23529832.230 8 123650205.222 3  96350713.107 8
  92336108.808 8  23529830.51246
  20737895.180 7  20737897.199 9                 108978374.031 7  84918215.997 9
                  20737896.50448
  22690485.688 1                                 119239375.115 1
                
  23335043.445 4  23335044.410 9  23335042.215 8 122626440.306 4  95553060.295 9
  91571704.308 8  23335043.95746
  20436096.719 7  20436101.227 9  20436101.613 9 107392406.784 7  83682414.972 9
  80195654.132 9  20436101.12548
  21576201.984 7  21576204.871 9                 113383704.380 7  88350954.758 9
                  21576205.47748
  23222257.617 4  23222259.848 8                 122033740.930 4  95091263.368 8
                
  22538865.961 6  22538871.047 9  22538871.027 9 118442534.093 6  92292912.182 9
  88447366.355 9  22538870.95348
  22823041.234 1                                 121788028.736 1
                
  22633255.086 6                                 120860410.709 6  94002460.824 9
                  22633260.301 9
  19644337.188 6                                 104715370.270 6  81445283.710 8
                  19644345.504 8
  20398523.008 7                                 109003497.333 7  84780519.825 9
                  20398528.746 9
  19770603.773 6                                 105722501.183 6  82228464.169 9
                  19770610.406 9
  21158235.305 7                                 113221985.810 7  88061546.969 9
                  21158237.953 9
 19  5 27  9 57 35.0000000  0 14G06G12G14G24G25G29G31G32R02R09R10R11
                                R20R21
  23529783.023 1  23529790.461 8  23529790.539 8 123649991.461 1  96350546.510 8
  92335949.154 8  23529789.99645
  20738217.430 7  20738218.941 9                 108980066.451 7  84919534.757 9
                  20738218.60548
  22688924.906 1                                 119231172.149 1
                
  23336991.734 5  23336993.496 8  23336992.844 8 122636688.099 5  95561045.582 8
  91579356.900 8  23336993.64846
  20434101.063 7  20434105.426 9  20434105.848 9 107381917.351 7  83674241.373 9
  80187821.114 9  20434105.53948
  21572211.117 7  21572214.789 9                 113362734.207 7  88334614.349 9
                  21572215.16448
  23217975.109 4  23217979.266 8                 122011244.847 4  95073733.927 8
                
  22538772.000 7  22538776.512 9  22538776.676 9 118442036.744 7  92292524.616 9
  88446994.938 9  22538776.89548
  22821852.477 1                                 121781683.475 1
                
  22635108.195 5                                 120870310.953 5  94010160.975 9
                  22635113.453 9
  19644149.055 6                                 104714366.267 6  81444502.813 8
                  19644156.965 8
  20394816.258 7                                 108983690.294 7  84765114.351 9
                  20394821.809 9
  19769597.023 6                                 105717112.880 6  82224273.277 9
                  19769602.305 9
  21153329.453 7                                 113195733.723 7  88041128.665 9
                  21153331.086 9
 19  5 27  9 57 40.0000000  0 14G06G12G14G24G25G29G31G32R02R09R10R11
                                R20R21
  23529744.844 1  23529752.836 8  23529752.672 8 123649793.977 1  96350392.646 8
  92335801.701 8  23529752.59445
  20738541.492 7  20738543.254 9                 108981768.438 7  84920860.997 9
                  20738542.90248
  22687372.391 2                                 119222986.038 2
                
  23338944.563 3  23338944.508 8  23338944.512 8 122646942.012 3  95569035.570 8
  91587013.956 8  23338945.14146
  20432107.273 7  20432111.293 9  20432111.563 9 107371439.503 7  83666076.820 9
  80179996.755 9  20432111.37148
  21568222.586 7  21568225.727 9                 113341775.789 7  88318283.109 9
                  21568225.73448
  23213696.898 4  23213701.168 7                 121988755.798 4  95056209.975 7
                  23213702.69945
  22538680.156 7  22538684.344 9  22538682.969 9 118441555.253 7  92292149.419 9
  88446635.378 9  22538685.06348
  22820668.445 1                                 121775360.639 1
                
  22636963.484 5                                 120880218.495 5  94017866.827 9
                  22636968.895 9
  19643964.102 7                                 104713376.834 7  81443733.258 8
                  19643971.703 8
  20391112.742 7                                 108963892.873 7  84749716.348 9
                  20391117.328 9
  19768593.633 6                                 105711748.856 6  82220101.262 9
                  19768599.273 9
  21148426.234 7                                 113169495.291 7  88020720.992 8
                  21148428.109 8
 19  5 27  9 57 45.0000000  0 14G06G12G14G24G25G29G31G32R02R09R10R11
                                R20R21
  23529710.281 2  23529717.801 8  23529719.629 8 123649611.132 2  96350250.181 8
  92335665.171 8  23529718.20745
  20738867.195 7  20738868.641 9                 108983478.277 7  84922193.340 9
                  20738868.33648
  22685820.156 1                                 119214815.007 1
                
  23340898.773 4  23340896.480 8  23340896.645 8 122657200.191 4  95577028.891 8
  91594674.230 8  23340897.09446
  20430114.805 7  20430119.133 9  20430119.672 9 107360971.579 7  83657920.000 9
  80172179.800 9  20430119.24648
  21564235.828 7  21564239.938 9                 113320827.491 7  88301959.771 9
                  21564240.17648
  23209416.648 2  23209421.633 7                 121966272.106 2  95038690.286 7
                  23209423.57445
  22538591.172 7  22538595.691 9  22538594.844 9 118441087.843 7  92291785.193 9
  88446286.319 9  22538595.88348
  22819484.969 1                                 121769058.475 1
                
  22638818.898 5                                 120890131.525 5  94025576.930 9
                  22638824.992 9
  19643779.672 6                                 104712400.288 6  81442973.701 8
                  19643787.637 8
  20387407.547 7                                 108944103.313 7  84734324.485 9
                  20387413.750 9
  19767593.578 6                                 105706407.341 6  82215946.738 9
                  19767600.793 9
  21143525.383 7                                 113143268.670 7  88000322.529 9
                  21143527.031 9
 19  5 27  9 57 50.0000000  0 14G06G12G14G24G25G29G31G32R02R09R10R11
                                R20R21
  23529679.930 2  23529685.383 8  23529688.344 8 123649444.078 2  96350120.031 8
  92335540.419 8  23529686.16045
  20739193.625 7  20739195.395 9                 108985197.169 7  84923532.738 9
                  20739194.85248
  22684257.844 1                                                
                
  23342853.461 2  23342850.242 8  23342847.980 8 122667463.969 2  95585026.616 8
  91602338.691 8  23342850.01646
  20428125.039 7  20428129.371 9  20428130.027 9 107350514.734 7  83649771.801 9
  80164371.117 9  20428129.48448
  21560251.383 7  21560255.246 9                 113299890.361 7  88285645.124 9
                  21560255.46148
  23205140.797 4  23205144.371 8                 121943795.005 4  95021175.647 8
                  23205146.41845
  22538505.109 7  22538510.340 9  22538509.656 9 118440635.729 7  92291432.879 9
  88445948.686 9  22538510.16848
  22818311.375 2                                 121762778.037 2
                
  22640676.789 6                                 120900051.392 6  94033292.346 9
                  22640682.668 9
  19643600.625 6                                 104711437.727 6  81442225.052 8
                  19643607.270 8
  20383706.703 7                                 108924322.852 7  84718939.664 9
                  20383712.035 9
  19766598.875 6                                 105701089.363 6  82211810.524 9
                  19766606.469 9
  21138627.422 6                                 113117055.199 6  87979934.258 9
                  21138628.801 9
 19  5 27  9 57 55.0000000  0 14G06G12G14G24G25G29G31G32R02R09R10R11
                                R20R21
  23529650.656 2  23529656.574 8  23529660.426 8 123649293.487 2  96350002.659 8
  92335427.912 8  23529657.47745
  20739523.461 7  20739524.688 9                 108986925.739 7  84924879.646 9
                  20739524.21948
  22682710.844 2                                 119198522.72612
                
  23344806.352 4  23344804.020 8  23344805.988 9 122677733.854 4  95593029.085 8
  91610007.707 9  23344805.03145
  20426137.414 7  20426141.484 9  20426142.492 9 107340069.617 7  83641632.758 9
  80156571.188 9  20426141.88748
  21556269.359 6  21556272.711 9                 113278965.083 6  88269339.746 9
                  21556272.77348
  23200866.258 4  23200867.949 7                 121921325.150 4  95003666.715 7
                  23200870.02345
  22538422.547 7  22538427.098 9  22538427.164 9 118440199.490 7  92291092.973 9
  88445622.922 9  22538427.38347
  22817137.477 2                                 121756520.106 2
                
  22642536.680 6                                 120909978.563 6  94041013.444 9
                  22642541.500 9
  19643422.594 6                                 104710489.786 6  81441487.766 8
                  19643428.344 8
  20380006.734 6                                 108904552.171 6  84703562.465 9
                  20380011.594 9
  19765609.766 6                                 105695795.807 6  82207693.291 9
                  19765616.508 9
  21133730.977 7                                 113090855.474 7  87959556.701 8
                  21133732.855 8
 19  5 27  9 58  0.0000000  0 14G06G12G14G24G25G29G31G32R02R09R10R11
                                R20R21
  23529625.602 3  23529631.457 8  23529635.043 8 123649159.448 3  96349898.227 8
  92335327.819 8  23529631.86345
  20739853.789 7  20739855.172 9                 108988664.084 7  84926234.184 9
                  20739854.97348
  22681168.063 1                                 119190402.262 1
                
  23346759.258 1  23346759.746 8  23346762.008 9 122688010.257 1  95601036.721 8
  91617681.693 9  23346759.70345
  20424152.398 7  20424156.613 9  20424157.117 9 107329636.323 7  83633502.933 9
  80148780.095 9  20424156.69148
  21552289.781 6  21552293.652 9                 113258051.721 6  88253043.646 9
                  21552293.44548
  23196590.578 3  23196593.484 7                 121898862.531 3  94986163.442 7
                  23196595.59845
  22538341.969 7  22538346.734 9  22538347.648 9 118439779.290 7  92290765.530 9
  88445309.107 9  22538346.57848
  22815969.063 3                                 121750284.629 3
                
  22644396.563 6                                 120919913.165 6  94048740.345 9
                  22644403.047 9
  19643246.539 7                                 104709556.728 7  81440762.026 8
                  19643253.148 8
  20376307.883 6                                 108884791.318 6  84688192.954 9
                  20376314.125 9
  19764624.617 6                                 105690526.526 6  82203594.993 9
                  19764631.027 9
  21128836.820 7                                 113064669.697 7  87939190.060 9
                  21128838.848 9
 19  5 27  9 58  5.0000000  0 14G06G12G14G24G25G29G31G32R02R09R10R11
                                R20R21
  23529602.891 2  23529608.680 8  23529611.453 8 123649039.385 2  96349804.707 8
  92335238.197 8  23529608.91845
  20740186.180 7  20740187.641 9                 108990409.731 7  84927594.443 9
                  20740187.23448
  22679626.219 1                                 119182296.237 1
                
  23348713.969 1  23348716.035 8  23348717.938 9                  95609047.24618
  91625358.42519  23348715.69545
  20422168.953 7  20422173.160 9  20422173.832 9 107319212.477 7  83625380.430 9
  80140996.042 9  20422173.46548
  21548312.078 6  21548315.766 9                 113237147.903 6  88236754.959 9
                  21548315.64548
  23192315.531 2  23192320.859 7                 121876404.849 2  94968663.973 7
                  23192321.84845
  22538264.109 7  22538268.715 9  22538270.727 9 118439372.649 7  92290448.673 9
  88445005.462 9  22538268.48048
  22814805.883 4                                 121744069.196 4
                
  22646256.156 5                                 120929852.696 5  94056471.114 9
                  22646264.102 9
  19643075.367 7                                 104708636.145 7  81440046.011 8
                  19643080.543 8
  20372611.883 6                                 108865037.931 6  84672829.202 9
                  20372617.383 9
  19763643.250 6                                 105685279.220 6  82199513.744 9
                  19763649.664 9
  21123945.281 7                                 113038495.351 7  87918832.255 9
                  21123947.793 9
 19  5 27  9 58 10.0000000  0 14G06G12G14G24G25G29G31G32R02R09R10R11
                                R20R21
  23529582.367 2  23529587.594 8  23529589.879 8 123648934.164 2  96349722.696 8
  92335159.636 8  23529588.22345
  20740519.664 7  20740521.008 9                 108992163.357 7  84928960.888 9
                  20740520.95348
  22678086.578 1                                 119174205.62311
                
  23350670.070 1  23350673.047 8  23350674.227 9                  95617061.48618
  91633038.73419  23350671.98445
  20420187.578 7  20420191.586 9  20420191.637 9 107308798.711 7  83617265.810 9
  80133219.529 9  20420191.97348
  21544336.484 7  21544339.996 9                 113216254.328 7  88220474.220 9
                  21544339.70348
  23188041.000 1  23188048.215 7                 121853952.673 1  94951168.792 7
                  23188049.22345
  22538189.695 7  22538194.922 9  22538196.563 9 118438980.287 7  92290142.930 9
  88444712.422 9  22538194.20347
  22813645.445 3                                 121737874.732 3  94685138.59917
                  22813655.574 7
  22648120.430 5                                 120939798.015 5  94064206.327 9
                  22648126.852 9
  19642904.367 7                                 104707728.800 7  81439340.292 8
                  19642910.102 8
  20368917.859 6                                 108845292.613 6  84657471.739 9
                  20368922.219 9
  19762666.180 6                                 105680054.648 6  82195450.172 9
                  19762672.453 9
  21119055.977 7                                 113012333.168 7  87898483.910 9
                  21119059.316 9
 19  5 27  9 58 15.0000000  0 14G06G12G14G24G25G29G31G32R02R09R10R11
                                R20R21
  23529567.375 2  23529570.551 8  23529572.867 8 123648845.401 2  96349653.534 8
  92335093.341 8  23529571.32845
  20740855.313 7  20740856.422 9                 108993926.588 7  84930334.834 9
                  20740856.63348
  22676550.781 2                                 119166131.937 2
                
  23352627.227 1  23352631.305 8  23352633.883 9 122718866.04611  95625080.153 8
  91640723.329 9  23352631.16845
  20418206.828 7  20418211.711 9  20418212.105 9 107298396.644 7  83609160.280 9
  80125451.734 9  20418212.14848
  21540362.156 7  21540366.621 9                 113195372.667 7  88204202.765 9
                  21540366.55548
  23183770.516 1  23183775.629 7                 121831507.913 1  94933679.266 7
                  23183777.69545
  22538118.258 7  22538122.879 9  22538125.164 9 118438603.742 7  92289849.532 9
  88444431.238 9  22538122.74248
  22812486.531 3                                 121731702.614 3  94680338.080 7
                  22812498.582 7
  22649984.211 6                                 120949750.699 6  94071947.263 9
                  22649990.898 9
  19642735.594 6                                 104706836.157 6  81438645.966 8
                  19642742.344 8
  20365225.391 7                                 108825557.077 7  84642121.845 9
                  20365229.340 9
  19761693.641 6                                 105674854.348 6  82191405.490 9
                  19761700.086 9
  21114170.656 7                                 112986184.867 7  87878146.355 9
                  21114172.969 9
 19  5 27  9 58 20.0000000  0 14G06G12G14G24G25G29G31G32R02R09R10R11
                                R20R21
  23529555.867 4  23529557.070 8  23529558.227 8 123648771.962 4  96349596.274 8
  92335038.462 8  23529557.27345
  20741192.563 7  20741194.141 9                 108995698.453 7  84931715.516 9
                  20741193.92248
  22675016.211 1                                 119158074.206 1
                
  23354590.883 1  23354590.168 8  23354593.008 9 122729161.99411  95633103.02818
  91648411.87019  23354590.11745
  20416229.195 7  20416234.676 9  20416234.813 9 107288005.297 7  83601063.140 9
  80117691.971 9  20416235.02748
  21536391.258 6  21536395.246 9                 113174501.825 6  88187939.790 9
                  21536395.49248
  23179502.367 2  23179506.316 7                 121809069.024 2  94916194.354 7
                  23179508.54345
  22538049.234 7  22538054.398 9  22538056.152 9 118438242.031 7  92289567.646 9
  88444161.106 9  22538053.96548
  22811333.797 2                                 121725551.689 2  94675554.116 7
                  22811345.637 7
  22651848.414 5                                 120959709.615 5  94079693.093 9
                  22651855.750 9
  19642571.266 6                                 104705957.170 6  81437962.287 8
                  19642577.738 8
  20361533.063 7                                 108805830.363 7  84626778.852 9
                  20361537.625 9
  19760726.289 6                                 105669677.154 6  82187378.782 9
                  19760732.297 9
  21109287.727 7                                 112960049.359 7  87857818.755 9
                  21109289.504 9
 19  5 27  9 58 25.0000000  0 13G06G12G14G25G29G31G32R02R09R10R11R20
                                R21
  23529543.172 3  23529547.086 8  23529547.125 8 123648714.704 3  96349551.669 8
  92334995.708 8  23529546.58245
  20741530.992 7  20741533.023 9                 108997479.707 7  84933103.506 9
                  20741532.55148
  22673483.211 1                                                
                
  20414254.172 7  20414259.395 9  20414259.586 9 107277625.432 7  83592974.933 9
  80109940.783 9  20414259.68848
  21532421.641 7  21532425.316 9                 113153642.727 7  88171685.957 9
                  21532426.05148
  23175235.148 3  23175237.633 7                 121786637.293 3  94898715.107 7
                  23175239.29345
  22537983.047 7  22537988.281 9  22537989.148 9 118437895.967 7  92289297.985 9
  88443902.688 9  22537988.48848
  22810183.828 2                                 121719423.148 2  94670787.433 7
                  22810196.449 7
  22653714.156 5                                 120969675.663 5  94087444.471 9
                  22653721.762 9
  19642407.813 6                                 104705092.745 6  81437289.937 8
                  19642415.102 8
  20357843.461 7                                 108786113.179 7  84611443.271 9
                  20357848.066 9
  19759762.875 6                                 105664524.225 6  82183370.938 9
                  19759768.410 9
  21104406.039 7                                 112933927.561 7  87837501.809 9
                  21104408.270 9
 19  5 27  9 58 30.0000000  0 13G06G12G14G25G29G31G32R02R09R10R11R20
                                R21
  23529533.258 2  23529538.766 8  23529539.609 8 123648672.140 2  96349518.485 8
  92334963.939 8  23529538.24645
  20741871.273 7  20741873.395 9                 108999268.925 7  84934497.696 9
                  20741872.94948
  22671958.023 1                                                
                
  20412281.016 7  20412286.203 9  20412286.488 9 107267255.661 7  83584894.601 9
  80102197.120 9  20412286.41448
  21528454.625 7  21528457.980 9                 113132793.826 7  88155440.104 9
                  21528458.44948
  23170967.109 2  23170970.379 7                 121764211.104 2  94881240.208 7
                  23170971.75845
  22537919.266 7  22537925.418 9  22537926.809 9 118437564.091 7  92289039.398 9
  88443654.839 9  22537925.03548
  22809041.953 2                                 121713315.374 2  94666036.958 6
                  22809052.645 6
  22655582.000 5                                 120979647.347 5  94095200.209 9
                  22655589.230 9
  19642248.758 6                                 104704241.332 6  81436627.735 8
                  19642255.316 8
  20354154.133 6                                 108766404.175 6  84596114.038 9
                  20354159.270 9
  19758803.180 6                                 105659393.651 6  82179380.484 9
                  19758809.199 9
  21099527.289 7                                 112907817.974 7  87817194.340 9
                  21099529.258 9
 19  5 27  9 58 35.0000000  0 15G02G06G12G14G24G25G29G31G32R02R09R10
                                R11R20R21
  22771398.141 2                                                
                
  23529527.258 2  23529533.777 8  23529534.672 8 123648645.475 2  96349497.773 8
  92334944.123 8  23529532.84045
  20742214.297 7  20742215.211 9                 109001067.471 7  84935899.143 9
                  20742214.91048
  22670435.219 1                                 119133998.90011
                
  23360507.969 2                  23360477.016 9                
  91671504.86519
  20410309.828 7  20410314.535 9  20410314.531 9 107256897.299 7  83576823.150 9
  80094461.975 9  20410314.39848
  21524489.563 7  21524492.441 9                 113111956.487 7  88139203.240 9
                  21524492.85248
  23166699.688 2  23166702.691 7                 121741791.884 2  94863770.691 7
                  23166704.82045
  22537859.078 6  22537864.777 9  22537866.949 9 118437247.741 6  92288792.851 9
  88443418.597 9  22537864.29348
  22807901.766 2                                 121707229.842 2
                
  22657451.617 5                                 120989625.999 5  94102961.348 9
                  22657458.344 9
  19642091.398 6                                 104703404.316 6  81435976.692 8
                  19642098.230 8
  20350467.391 6                                 108746704.699 6  84580792.233 9
                  20350472.367 9
  19757847.297 6                                 105654287.008 6  82175408.682 9
                  19757853.605 9
  21094650.563 7                                 112881721.954 7  87796897.421 9
                  21094652.984 9
 19  5 27  9 58 40.0000000  0 15G02G06G12G14G24G25G29G31G32R02R09R10
                                R11R20R21
  22769542.289 1                                 119654916.10511
                
  23529526.305 3  23529531.965 8  23529533.281 8 123648634.745 3  96349489.415 8
  92334936.100 8  23529530.85945
  20742558.117 7  20742559.273 9                 109002874.972 7  84937307.563 9
                  20742558.75848
  22668914.742 2                                 119126006.209 2
                
  23362450.531 1  23362435.715 7  23362440.586 9 122770403.37411  95665259.83217
  91679209.854 9
  20408340.398 6  20408345.574 9  20408345.770 9 107246550.074 6  83568760.379 9
  80086735.157 9  20408345.28548
  21520526.430 7  21520529.594 9                 113091130.460 7  88122975.148 9
                  21520529.19548
  23162433.867 1  23162438.098 7                                  94846306.44917
                  23162439.55544
  22537802.328 6  22537806.824 9  22537808.297 9 118436946.562 6  92288558.144 9
  88443193.710 9  22537806.46148
  22806764.305 3                                 121701165.728 3  94656565.10117
                  22806771.086 7
  22659320.930 6                                 120999611.309 6  94110727.682 9
                  22659327.406 9
  19641937.914 6                                 104702581.386 6  81435336.648 8
                  19641943.746 8
  20346782.867 6                                 108727014.353 6  84565477.553 9
                  20346788.109 9
  19756897.414 6                                 105649204.109 6  82171455.317 9
                  19756903.121 9
  21089776.055 7                                 112855639.219 7  87776610.857 9
                  21089778.156 9
 19  5 27  9 58 45.0000000  0 15G02G06G12G14G24G25G29G31G32R02R09R10
                                R11R20R21
  22767677.656 1                                 119645179.27711
                
  23529529.000 3  23529533.117 8  23529534.719 8 123648638.803 3  96349492.564 8
  92334939.130 8  23529532.18446
  20742903.008 7  20742904.813 9                 109004690.699 7  84938722.420 9
                  20742904.55548
  22667393.156 1                                 119118029.095 1
                
  23364412.758 1  23364400.820 7  23364403.898 9 122780725.694 1  95673303.218 7
  91686918.214 9
  20406373.086 7  20406378.594 9  20406379.113 9 107236213.125 7  83560705.603 9
  80079015.985 9  20406378.39148
  21516565.773 7  21516568.691 9                 113070314.911 7  88106755.238 9
                  21516567.87548
  23158169.148 1  23158174.438 8                 121696972.69211  94828846.64118
                  23158175.34045
  22537747.578 6  22537753.516 9  22537752.840 9 118436659.776 6  92288334.687 9
  88442979.552 9  22537753.11348
  22805633.266 3                                 121695122.873 3  94651865.029 7
                  22805640.660 7
  22661194.281 6                                 121009602.604 6  94118498.680 9
                  22661199.188 9
  19641786.281 6                                 104701771.695 6  81434706.910 8
                  19641791.730 8
  20343099.313 6                                 108707332.363 6  84550169.345 9
                  20343104.906 9
  19755950.617 6                                 105644143.884 6  82167519.582 9
                  19755957.016 9
  21084904.188 7                                 112829568.956 7  87756333.980 9
                  21084907.266 9
 19  5 27  9 58 50.0000000  0 15G02G06G12G14G24G25G29G31G32R02R09R10
                                R11R20R21
  22765816.617 1                                 119635457.222 1
                
  23529529.953 2  23529536.855 8  23529538.828 8 123648658.938 2  96349508.216 8
  92334954.154 8  23529536.17646
  20743250.281 7  20743251.918 9                 109006515.657 7  84940144.460 9
                  20743251.99248
  22665879.234 1                                                
                
  23366364.633 1  23366365.402 8  23366370.180 9 122791053.861 1  95681351.103 8
  91694630.781 9
  20404408.969 7  20404413.359 9  20404414.164 9 107225887.521 7  83552659.685 9
  80071305.313 9  20404412.85948
  21512606.914 7  21512609.949 9                 113049510.908 7  88090544.334 9
                  21512609.19148
  23153909.875 2  23153912.500 8                 121674573.041 2  94811392.347 8
                  23153913.10245
  22537695.938 7  22537702.125 9  22537701.383 9 118436388.438 7  92288123.240 9
  88442776.914 9  22537702.07048
  22804505.523 4                                 121689101.792 4  94647181.974 7
                  22804513.207 7
  22663064.227 6                                 121019600.663 6  94126274.922 9
                  22663071.309 9
  19641636.484 6                                 104700976.348 6  81434088.340 8
                  19641643.094 8
  20339418.727 6                                 108687659.935 6  84534868.581 9
                  20339423.262 9
  19755008.859 7                                 105639107.581 7  82163602.450 9
                  19755014.457 9
  21080034.047 7                                 112803512.290 7  87736067.706 9
                  21080037.516 9
 19  5 27  9 58 55.0000000  0 14G06G12G14G24G25G29G31G32R02R09R10R11
                                R20R21
  23529535.016 1  23529543.699 8  23529545.949 8 123648694.805 1  96349536.205 8
  92334980.960 8  23529543.06346
  20743599.164 7  20743601.148 9                 109008349.646 7  84941573.570 9
                  20743600.59448
  22664368.828 1                                 119102124.43311
                
  23368332.813 1  23368333.074 8  23368335.039 9 122801387.495 1  95689403.370 8
  91702347.482 9
  20402445.844 7  20402450.848 9  20402451.461 9 107215573.141 7  83544622.462 9
  80063602.979 9  20402450.21548
  21508650.586 7  21508653.137 9                 113028718.324 7  88074342.297 9
                  21508652.75048
  23149651.633 2  23149651.273 8                 121652180.080 2  94793943.349 8
                  23149652.19545
  22537647.531 6  22537652.547 9  22537653.051 9 118436132.337 6  92287923.653 9
  88442585.639 9  22537652.97747
  22803380.039 2                                 121683102.781 2  94642516.044 7
                  22803389.398 7
  22664938.992 6                                 121029605.568 6  94134056.480 9
                  22664944.543 9
  19641490.641 6                                 104700195.412 6  81433480.911 8
                  19641497.254 8
  20335738.453 6                                 108667996.871 6  84519575.059 9
                  20335742.848 9
  19754071.047 6                                 105634094.869 6  82159703.649 9
                  19754077.633 9
  21075167.094 7                                 112777469.043 7  87715811.869 9
                  21075172.203 9
 19  5 27  9 59  0.0000000  0 12G06G12G25G29G31G32R02R09R10R11R20R21
  23529545.719 1  23529552.992 8  23529555.285 8 123648746.516 1  96349576.484 8
  92335019.544 8  23529552.86345
  20743950.945 7  20743952.215 9                 109010192.799 7  84943009.789 9
                  20743951.65648
  20400485.047 7  20400490.137 9  20400490.984 9 107205270.023 7  83536594.046 9
  80055909.087 9  20400489.68048
  21504694.641 6  21504698.434 9                 113007937.217 6  88058149.222 9
                  21504698.34048
  23145389.344 2  23145391.641 8                 121629794.143 2  94776499.680 8
                  23145392.60245
  22537602.086 7  22537606.656 9  22537606.250 9 118435891.566 7  92287736.054 9
  88442405.845 9  22537606.11748
  22802258.672 1                                 121677125.579 1  94637867.181 6
                  22802268.965 6
  22666813.570 6                                 121039617.254 6  94141843.343 9
                  22666819.594 9
  19641345.328 6                                 104699428.636 6  81432884.513 8
                  19641353.168 8
  20332060.992 7                                 108648343.181 7  84504288.846 9
                  20332065.461 9
  19753139.453 6                                 105629105.914 6  82155823.359 9
                  19753144.195 9
  21070302.766 7                                 112751439.370 7  87695566.582 9
                  21070307.691 9
 19  5 27  9 59  5.0000000  0 12G06G12G25G29G31G32R02R09R10R11R20R21
  23529561.258 2  23529566.500 8  23529569.102 8 123648812.882 2  96349628.199 8
  92335069.091 8  23529566.50845
  20744302.648 7  20744303.980 9                 109012043.722 7  84944452.072 9
                  20744303.77348
  20398526.445 7  20398531.336 9  20398532.375 9 107194976.823 7  83528573.371 9
  80048222.593 9  20398531.18448
  21500742.148 6  21500745.102 9                 112987166.258 6  88041964.091 9
                  21500744.88748
  23141129.727 3  23141133.285 8                 121607413.640 3  94759060.341 8
                  23141133.34445
  22537558.586 6  22537564.074 9  22537563.684 9 118435664.808 6  92287559.347 9
  88442236.504 9  22537563.54748
  22801140.891 1                                 121671169.123 1  94633234.515 6
                  22801151.617 6
  22668690.250 6                                 121049634.398 6  94149634.457 9
                  22668695.570 9
  19641202.594 6                                 104698674.680 6  81432298.080 8
                  19641212.047 8
  20328384.914 7                                 108628697.611 7  84489008.966 9
                  20328388.199 9
  19752210.750 6                                 105624139.482 6  82151960.558 9
                  19752215.387 9
  21065440.578 7                                 112725421.939 7  87675330.773 9
                  21065445.520 9
 19  5 27  9 59 10.0000000  0 11G06G12G25G29G31G32R09R10R11R20R21   
  23529579.156 1  23529582.004 8  23529582.387 8 123648893.534 1  96349690.987 8
  92335129.281 8  23529581.78145
  20744656.930 7  20744657.508 9                 109013902.186 7  84945900.219 9
                  20744657.43048
  20396569.039 7  20396574.547 9  20396575.793 9 107184693.310 7  83520560.251 9
  80040543.363 9  20396574.07448
  21496792.133 6  21496794.531 9                 112966405.236 6  88025786.669 9
                  21496793.77748
  23136872.578 3  23136875.629 8                 121585038.486 3  94741625.116 8
                  23136875.46145
  22537517.477 6  22537522.887 9  22537523.406 9 118435451.731 6  92287393.319 9
  88442077.379 9  22537522.27347
  22670567.078 6                                 121059656.703 6  94157429.563 9
                  22670571.809 9
  19641065.625 6                                 104697933.399 6  81431721.529 8
                  19641073.254 8
  20324709.180 6                                 108609059.746 6  84473735.092 8
                  20324713.516 8
  19751285.680 6                                 105619194.980 6  82148114.855 9
                  19751290.586 9
  21060581.133 7                                 112699416.318 7  87655104.195 9
                  21060585.941 9
 19  5 27  9 59 15.0000000  0 12G06G12G25G29G31G32R02R09R10R11R20R21
  23529594.953 1  23529599.992 8  23529600.559 8 123648991.441 1  96349767.196 8
  92335202.279 8  23529600.13345
  20745012.711 7  20745013.277 9                 109015771.147 7  84947356.539 9
                  20745013.48848
  20394614.984 7  20394620.273 9  20394621.180 9 107174422.424 7  83512556.973 9
  80032873.558 9  20394619.81648
  21492843.625 7  21492846.750 9                 112945657.047 7  88009619.247 9
                  21492845.55948
  23132619.297 5  23132619.734 8                 121562671.433 5  94724196.293 8
                  23132619.46545
  22537480.250 6  22537486.293 9  22537486.180 9 118435255.324 6  92287240.278 9
  88441930.710 9  22537485.81348
  22798922.219 2                                 121659320.01012
                
  22672445.164 6                                 121069687.217 6  94165231.063 9
                  22672449.949 9
  19640929.531 5                                 104697207.996 5  81431157.341 8
                  19640937.516 8
  20321038.063 7                                 108589432.840 7  84458469.695 8
                  20321040.109 8
  19750366.063 6                                 105614275.778 6  82144288.793 9
                  19750370.711 9
  21055723.383 7                                 112673425.770 7  87634889.314 9
                  21055729.246 9
 19  5 27  9 59 20.0000000  0 11G12G25G29G31G32R02R09R10R11R20R21   
  20745369.438 7  20745370.637 9                 109017648.677 7  84948819.564 9
                  20745370.73448
  20392662.781 7  20392667.184 9  20392668.926 9 107164162.274 7  83504562.047 9
  80025211.732 9  20392667.15248
  21488897.406 7  21488900.141 9                 112924919.823 7  87993460.387 9
                  21488899.81348
  23128361.625 3  23128363.410 8                 121540310.811 3  94706772.469 8
                  23128363.63745
  22537445.375 6  22537451.602 9  22537452.012 9 118435073.630 6  92287098.688 9
  88441795.033 9  22537451.64548
  22797822.063 1                                 121653428.352 1  94619452.15716
                  22797829.484 6
  22674324.570 6                                 121079723.936 6  94173037.372 8
                  22674329.395 8
  19640795.750 6                                 104696496.259 6  81430603.763 8
                  19640803.516 8
  20317366.273 7                                 108569814.703 7  84443211.161 9
                  20317369.293 9
  19749449.430 6                                 105609379.631 6  82140480.672 9
                  19749455.195 9
  21050869.023 7                                 112647448.162 7  87614684.515 9
                  21050874.059 9
 19  5 27  9 59 25.0000000  0 12G12G24G25G29G31G32R02R09R10R11R20R21
  20745727.688 7  20745729.023 9                 109019533.925 7  84950288.573 9
                  20745728.85248
  23380148.586 2                                 122863493.85312
                
  20390712.313 7  20390716.738 9  20390718.160 9 107153912.012 7  83496574.848 9
  80017557.335 9  20390716.44148
  21484953.336 7  21484955.520 9                 112904192.756 7  87977309.431 9
                  21484955.03548
  23124109.469 4  23124109.035 8                 121517955.605 4  94689352.860 8
                  23124109.32045
  22537414.469 6  22537419.395 9  22537419.684 9 118434905.862 6  92286967.932 9
  88441669.733 9  22537419.49248
  22796721.367 1                                 121647557.278 1
                
  22676204.078 6                                 121089766.032 6  94180847.865 9
                  22676209.617 9
  19640663.656 5                                 104695797.369 5  81430060.199 8
                  19640672.578 8
  20313696.102 7                                 108550204.673 7  84427958.930 8
                  20313698.773 8
  19748538.852 6                                 105604505.926 6  82136690.033 9
                  19748542.648 9
  21046017.789 7                                 112621482.804 7  87594489.215 9
                  21046022.367 9
 19  5 27  9 59 30.0000000  0 12G12G24G25G29G31G32R02R09R10R11R20R21
  20746088.422 7  20746089.113 9                 109021427.696 7  84951764.242 9
                  20746088.40248
  23382122.086 5  23382125.316 8  23382128.926 9 122873862.617 5  95745882.96918
  91756492.90119  23382124.51246
  20388764.086 7  20388767.688 9  20388769.461 9 107143672.434 7  83488595.970 9
  80009910.896 9  20388767.44948
  21481011.898 7  21481013.844 9                 112883476.602 7  87961166.989 9
                  21481013.58248
  23119852.313 1  23119855.633 8                 121495606.799 1  94671938.258 8
                  23119856.26645
  22537385.234 7  22537390.754 9  22537391.211 9 118434752.770 7  92286848.629 9
  88441555.412 9  22537390.72748
  22795626.883 1                                 121641707.525 1
                
  22678086.727 6                                 121099814.335 6  94188663.172 8
                  22678091.348 8
  19640535.594 5                                 104695112.021 5  81429527.147 8
                  19640544.758 8
  20310028.320 7                                 108530603.479 7  84412713.531 8
                  20310030.480 8
  19747632.469 6                                 105599655.242 6  82132917.288 9
                  19747636.672 9
  21041168.328 7                                 112595530.446 7  87574304.076 9
                  21041171.984 9
 19  5 27  9 59 35.0000000  0 13G06G12G24G25G29G31G32R02R09R10R11R20
                                R21
  23529697.039 1  23529704.832 8  23529703.355 8                  96350190.31318
  92335607.87218
  20746450.375 7  20746450.809 9                 109023330.148 7  84953246.684 9
                  20746450.58648
  23384096.367 5  23384100.465 8  23384102.582 9 122884236.510 5  95753966.495 8
  91764239.662 9  23384097.82046
  20386817.188 7  20386821.582 9  20386823.199 9 107133443.696 7  83480625.527 9
  80002272.555 9  20386821.42648
  21477071.844 7  21477073.520 9                 112862771.574 7  87945033.216 9
                  21477073.62948
  23115603.164 3  23115603.301 8                 121473264.483 3  94654528.660 8
                  23115604.00045
  22537358.680 6  22537364.641 9  22537364.543 9 118434614.512 6  92286740.877 9
  88441452.156 9  22537364.58648
  22794541.156 1                                 121635879.33711
                
  22679967.992 6                                 121109868.947 6  94196483.423 8
                  22679974.035 8
  19640409.930 4                                 104694440.508 4  81429004.891 8
                  19640418.730 8
  20306361.664 7                                 108511011.383 7  84397475.264 8
                  20306363.836 8
  19746728.820 6                                 105594827.913 6  82129162.705 9
                  19746733.961 9
  21036320.031 7                                 112569591.307 7  87554129.199 9
                  21036324.262 9
 19  5 27  9 59 40.0000000  0 12G06G12G24G25G29G31G32R09R10R11R20R21
  23529730.500 1  23529736.547 8  23529737.137 8 123649705.97611  96350325.66818
  92335737.55418
  20746813.906 7  20746815.164 9                 109025241.765 7  84954736.233 9
                  20746814.58248
  23386071.406 5  23386075.555 8  23386078.492 9 122894615.995 5  95762054.410 8
  91771990.551 9  23386072.96946
  20384872.297 7  20384877.246 9  20384878.965 9 107123226.320 7  83472663.920 9
  79994642.685 9  20384877.13348
  21473133.016 7  21473136.375 9                 112842078.167 7  87928908.479 9
                  21473136.40648
  23111351.648 3  23111354.578 8                 121450929.203 3  94637124.488 8
                  23111354.61345
  22537335.414 6  22537340.879 9  22537341.281 9 118434491.553 6  92286645.062 9
  88441360.342 9  22537341.38348
  22681852.727 5                                 121119930.463 5  94204309.006 9
                  22681859.207 9
  19640287.766 4                                 104693783.461 4  81428493.813 8
                  19640294.660 8
  20302696.898 7                                 108491428.859 7  84382244.400 8
                  20302699.117 8
  19745830.484 6                                 105590024.210 6  82125426.488 9
                  19745835.602 9
  21031474.633 6                                 112543665.935 6  87533965.004 9
                  21031479.406 9
 19  5 27  9 59 45.0000000  0 13G06G12G14G24G25G29G31G32R09R10R11R20
                                R21
  23529774.164 1  23529771.781 8  23529772.418 8                  96350474.31318
  92335879.95118
  20747179.586 7  20747181.207 9                 109027163.268 7  84956233.523 9
                  20747180.48448
  22649422.352 1                                                
                
  23388046.828 5  23388051.852 9  23388054.281 9 122905001.878 5  95770147.314 9
  91779746.204 9  23388049.52046
  20382930.750 7  20382935.578 9  20382937.316 9 107113021.038 7  83464711.746 9
  79987021.867 9  20382935.19148
  21469197.563 7  21469200.453 9                 112821397.150 7  87912793.404 9
                  21469200.39848
  23107106.055 4  23107106.398 8                 121428601.651 4  94619726.454 8
                  23107105.89545
  22537314.914 6  22537320.426 9  22537320.746 9 118434384.707 6  92286561.795 9
  88441280.539 9  22537320.55548
  22683738.203 5                                 121129999.558 5  94212140.522 8
                  22683744.801 8
  19640165.359 4                                 104693141.471 4  81427994.476 8
                  19640173.656 8
  20299033.906 7                                 108471856.642 7  84367021.556 8
                  20299036.594 8
  19744937.727 6                                 105585245.089 6  82121709.392 9
                  19744942.176 9
  21026631.977 6                                 112517755.048 6  87513812.075 9
                  21026636.867 9
 19  5 27  9 59 50.0000000  0 13G06G12G14G24G25G29G31G32R09R10R11R20
                                R21
  23529818.859 1  23529810.172 8  23529811.777 8                  96350634.77618
  92336033.73918
  20747546.813 7  20747548.641 9                 109029093.331 7  84957737.476 9
                  20747547.78548
  22647944.484 1                                 119015796.15411
                
  23390024.648 5  23390029.641 8  23390031.539 9 122915392.803 5  95778244.076 8
  91787505.648 9  23390027.18446
  20380990.680 7  20380995.188 9  20380997.031 9 107102826.521 7  83456767.976 9
  79979409.082 9  20380994.90648
  21465265.039 6  21465266.949 9                 112800727.146 6  87896686.920 9
                  21465267.36748
  23102858.289 3  23102857.922 8                 121406280.519 3  94602333.378 8
                  23102857.86345
  22537298.055 7  22537302.465 9  22537302.320 9 118434292.550 7  92286490.002 9
  88441211.717 9  22537302.47748
  22685623.977 6                                 121140074.950 6  94219976.889 9
                  22685631.367 9
  19640048.508 4                                 104692513.299 4  81427505.955 8
                  19640056.215 8
  20295373.000 7                                 108452293.453 7  84351805.735 8
                  20295375.512 8
  19744046.914 6                                 105580489.091 6  82118010.277 9
                  19744052.508 9
  21021792.609 6                                 112491857.296 6  87493669.376 9
                  21021797.387 9
 19  5 27  9 59 55.0000000  0 13G02G12G14G24G25G29G31G32R09R10R11R20
                                R21
  22742042.195 1                                 119510236.56311
                
  20747916.141 7  20747917.094 9                 109031030.823 7  84959247.201 9
                  20747916.59448
  22646472.016 1                                 119008044.388 1
                
  23392001.719 5  23392007.039 9  23392008.973 9 122925787.592 5  95786343.954 9
  91795267.988 9  23392005.50046
  20379053.273 7  20379057.781 9  20379059.070 9 107092641.630 7  83448831.709 9
  79971803.479 9  20379057.00048
  21461333.016 7  21461336.434 9                 112780067.053 7  87880588.142 9
                  21461336.34848
  23098612.742 4  23098611.227 8                 121383964.687 4  94584944.426 8
                  23098611.60245
  22537282.445 6  22537288.660 9  22537287.969 9 118434213.971 6  92286428.752 9
  88441153.042 9  22537288.24648
  22687513.336 5                                 121150155.308 5  94227817.138 9
                  22687519.637 9
  19639934.172 5                                 104691897.711 5  81427027.204 8
                  19639940.527 8
  20291712.617 7                                 108432738.088 7  84336596.003 8
                  20291716.215 8
  19743162.055 6                                 105575755.200 6  82114328.370 9
                  19743167.652 9
  21016956.047 7                                 112465971.593 7  87473536.051 9
                  21016960.039 9
 19  5 27 10  0  0.0000000  0 13G02G12G14G24G25G29G31G32R09R10R11R20
                                R21
  22740227.297 1                                                
                
  20748286.961 7  20748287.359 9                 109032977.531 7  84960764.132 9
                  20748286.94948
  22644996.102 1                                 119000309.304 1
                
  23393980.398 5  23393986.891 8  23393987.977 9 122936187.987 5  95794448.104 8
  91803034.500 9  23393985.90646
  20377116.813 7  20377121.410 9  20377123.008 9 107082468.153 7  83440904.329 9
  79964206.406 9  20377120.94148
  21457403.039 6  21457407.305 9                 112759418.691 6  87864498.511 9
                  21457407.46548
  23094369.344 2  23094365.465 8                 121361655.990 2  94567561.076 8
                  23094365.91845
  22537270.648 6  22537276.227 9  22537275.570 9 118434150.746 6  92286379.473 9
  88441105.826 9  22537275.96148
  22689402.477 6                                 121160242.679 6  94235662.830 9
                  22689408.750 9
  19639822.188 4                                 104691296.546 4  81426559.602 7
                  19639827.281 7
  20288056.266 7                                 108413192.438 7  84321393.840 8
                  20288058.059 8
  19742282.039 6                                 105571044.988 6  82110664.871 9
                  19742287.344 9
  21012121.727 7                                 112440099.708 7  87453413.482 9
                  21012125.574 9
 19  5 27 10  0  5.0000000  0 12G12G14G24G25G29G31G32R09R10R11R20R21
  20748658.977 7  20748659.355 9                 109034933.738 7  84962288.461 9
                  20748658.68048
  22643527.141 1                                 118992590.995 1
                
  23395960.891 5  23395967.047 8  23395967.801 9 122946594.433 5  95802557.020 8
  91810805.554 9  23395966.37946
  20375183.281 7  20375187.816 9  20375189.418 9 107072306.382 7  83432986.078 9
  79956618.074 9  20375187.46548
  21453476.633 6  21453479.820 9                 112738782.318 6  87848418.231 9
                  21453479.89148
  23090130.555 1  23090121.398 8                 121339354.654 1  94550183.481 8
                  23090121.82045
  22537261.531 7  22537267.098 9  22537267.188 9 118434103.159 7  92286342.385 9
  88441070.281 9  22537267.28948
  22691293.563 6                                 121170337.103 6  94243514.080 9
                  22691299.305 9
  19639710.852 5                                 104690709.933 5  81426103.341 8
                  19639716.492 8
  20284400.906 7                                 108393656.759 7  84306199.434 8
                  20284402.668 8
  19741405.469 6                                 105566359.065 6  82107020.259 9
                  19741411.117 9
  21007289.633 7                                 112414242.078 7  87433301.979 9
                  21007293.641 9
 19  5 27 10  0 10.0000000  0 12G12G14G24G25G29G31G32R09R10R11R20R21
  20749032.945 7  20749033.078 9                 109036898.231 7  84963819.227 9
                  20749032.51248
  22642062.172 1                                 118984888.438 1
                
  23397942.344 5  23397948.570 9  23397949.273 9 122957005.567 5  95810669.569 9
  91818580.093 9  23397948.26246
  20373251.281 7  20373256.039 9  20373257.363 9 107062155.138 7  83425076.000 9
  79949037.594 9  20373255.41048
  21449551.922 6  21449554.570 9                 112718156.759 6  87832346.356 9
                  21449555.10248
  23085889.352 3  23085878.875 8                 121317059.504 3  94532810.673 8
                  23085878.90245
  22537255.039 6  22537260.836 9  22537261.371 9 118434069.949 6  92286316.522 9
  88441045.481 9  22537261.11748
  22693186.008 6                                 121180437.512 6  94251369.907 9
                  22693190.164 9
  19639602.203 4                                 104690136.749 4  81425657.518 8
                  19639609.445 8
  20280747.250 7                                 108374129.825 7  84291011.821 9
                  20280749.141 9
  19740533.648 6                                 105561695.962 6  82103393.396 9
                  19740539.160 9
  21002460.258 7                                 112388397.315 7  87413200.526 9
                  21002463.906 9
 19  5 27 10  0 15.0000000  0 12G12G14G24G25G29G31G32R09R10R11R20R21
  20749408.148 7  20749409.094 9                 109038870.897 7  84965356.363 9
                  20749408.55948
  22640603.070 1                                 118977201.553 1
                
  23399924.477 5  23399931.316 9  23399931.047 9 122967421.195 5  95818785.629 9
  91826357.975 9  23399931.09046
  20371321.773 7  20371326.496 9  20371328.266 9 107052014.279 7  83417174.042 9
  79941464.877 9  20371326.07848
  21445628.688 6  21445631.609 9                 112697541.935 6  87816282.834 9
                  21445631.89548
  23081648.336 1  23081637.055 8                 121294770.564 1  94515442.665 8
                  23081637.49645
  22537252.008 7  22537257.098 9  22537257.488 9 118434051.104 7  92286301.834 9
  88441031.410 9  22537257.41448
  22695078.945 6                                 121190543.834 6  94259230.372 8
                  22695082.375 8
  19639498.313 4                                 104689577.032 4  81425222.209 7
                  19639504.105 7
  20277092.617 7                                 108354611.526 7  84275830.938 9
                  20277096.203 9
  19739665.859 6                                 105557055.643 6  82099784.263 9
                  19739671.652 9
  20997631.734 7                                 112362565.486 7  87393109.117 9
                  20997636.219 9
 19  5 27 10  0 20.0000000  0 12G12G14G24G25G29G31G32R09R10R11R20R21
  20749785.078 7  20749786.180 9                 109040852.102 7  84966900.183 9
                  20749785.71148
  22639147.664 1                                 118969530.643 1
                
  23401907.234 5  23401913.426 9  23401914.125 9 122977841.853 5  95826905.619 9
  91834139.615 9  23401914.34447
  20369394.359 7  20369398.902 9  20369400.227 9 107041884.188 7  83409280.481 9
  79933900.208 9  20369398.51248
  21441707.508 6  21441711.512 9                 112676938.181 6  87800227.976 9
                  21441711.84048
  23077411.180 1  23077397.477 8                 121272488.116 1  94498079.765 8
                
  22537250.813 6  22537256.617 9  22537257.363 9 118434046.909 6  92286298.562 9
  88441028.250 9  22537257.05548
  22696972.141 6                                 121200656.284 6  94267095.624 8
                  22696975.840 8
  19639392.852 1                                 104689031.239 1  81424797.656 7
                  19639401.609 7
  20273442.953 7                                 108335102.324 7  84260657.132 9
                  20273445.082 9
  19738802.859 6                                 105552438.378 6  82096193.059 9
                  19738808.184 9
  20992807.055 7                                 112336746.897 7  87373027.982 9
                  20992811.137 9
 19  5 27 10  0 25.0000000  0 10G12G24G25G29G32R09R10R11R20R21      
  20750163.664 7  20750164.770 9                 109042842.023 7  84968450.738 9
                  20750164.43448
  23403890.773 5  23403897.602 9  23403897.824 9 122988267.659 5  95835029.618 9
  91841925.119 9  23403898.57047
  20367468.539 7  20367473.430 9  20367474.008 9 107031765.020 7  83401395.415 9
  79926343.689 9  20367472.81648
  21437789.484 6  21437792.676 9                 112656345.617 6  87784181.833 9
                  21437793.22348
  22537253.211 7  22537258.684 9  22537259.070 9 118434057.514 7  92286306.811 9
  88441036.161 9  22537258.99248
  22698866.938 7                                 121210775.073 7  94274965.787 8
                  22698870.086 8
  19639295.547 2                                 104688499.314 2  81424383.939 7
                  19639301.918 7
  20269794.586 7                                 108315602.311 7  84245490.449 9
                  20269795.922 9
  19737942.859 6                                 105547844.468 6  82092620.002 9
                  19737947.809 9
  20987984.563 7                                 112310941.786 7  87352957.367 9
                  20987988.598 9
 19  5 27 10  0 30.0000000  0 12G02G12G24G25G29G31G32R09R10R11R20R21
  22729392.500 2                                                
                
  20750544.352 7  20750545.703 9                 109044841.876 7  84970009.079 9
                  20750545.72748
  23405875.766 5  23405882.262 9  23405882.867 9 122998699.863 5  95843158.577 9
  91849715.388 9  23405883.20346
  20365545.438 7  20365549.754 9  20365550.688 9 107021658.040 7  83393519.825 9
  79918796.261 9  20365549.61348
  21433873.695 7  21433876.598 9                 112635765.556 7  87768145.429 9
                  21433876.77348
  23068919.359 1  23068920.234 8                                  94463369.27418
                
  22537258.539 6  22537263.266 9  22537262.973 9 118434084.167 6  92286327.599 9
  88441056.065 9  22537263.42648
  22700763.859 6                                 121220901.495 6  94282841.920 8
                  22700766.848 8
  19639199.398 1                                 104687982.499 1  81423981.920 7
                  19639205.617 7
  20266146.414 7                                 108296112.786 7  84230331.917 9
                  20266148.719 9
  19737088.555 5                                 105543275.005 5  82089065.960 9
                  19737093.199 9
  20983165.000 7                                 112285151.360 7  87332898.137 9
                  20983169.289 9
 19  5 27 10  0 35.0000000  0 12G02G12G24G25G29G31G32R09R10R11R20R21
  22727599.570 3                                 119434471.76113
                
  20750926.172 7  20750927.957 9                 109046851.378 7  84971574.907 9
                  20750927.76648
  23407861.875 5  23407868.801 9  23407869.570 9 123009137.926 5  95851292.127 9
  91857510.014 9  23407869.78946
  20363624.148 7  20363628.660 9  20363629.426 9 107011562.906 7  83385653.467 9
  79911257.683 9  20363628.35548
  21429959.523 7  21429962.738 9                 112615197.715 7  87752118.533 9
                  21429962.70348
  23064683.438 1  23064685.070 8                 121205683.39211  94446023.825 8
                
  22537265.945 6  22537271.582 9  22537271.480 9 118434126.571 6  92286360.644 9
  88441087.717 9  22537271.75848
  22702662.328 6                                 121231035.194 6  94290723.673 9
                  22702665.324 9
  19639102.805 1                                 104687480.391 1  81423591.466 7
                  19639112.020 7
  20262500.359 7                                 108276633.521 7  84215181.395 9
                  20262503.559 9
  19736239.344 5                                 105538729.756 5  82085530.783 9
                  19736242.711 9
  20978348.484 7                                 112259375.352 7  87312850.128 9
                  20978352.613 9
 19  5 27 10  0 40.0000000  0 12G02G12G24G25G29G31G32R09R10R11R20R21
  22725809.641 3                                 119425065.070 3
                
  20751309.977 7  20751311.387 9                 109048866.960 7  84973145.497 9
                  20751311.64548
  23409849.336 5  23409855.742 9  23409856.367 9 123019578.518 5  95859427.652 9
  91865306.575 9  23409856.58646
  20361704.703 7  20361709.270 9  20361709.945 9 107001476.132 7  83377793.657 9
  79903725.355 9  20361708.87148
  21426046.977 6  21426050.234 9                 112594638.569 6  87736098.418 9
                  21426050.31348
  23060449.164 1  23060449.461 8                 121183427.140 1  94428681.320 8
                  23060448.71545
  22537276.555 6  22537282.176 9  22537281.750 9 118434181.166 6  92286403.172 9
  88441128.473 9  22537282.67248
  22704560.273 6                                 121241172.570 6  94298608.250 9
                  22704564.270 9
  19639010.695 1                                 104686989.630 1  81423209.807 8
                  19639019.598 8
  20258857.086 7                                 108257160.909 7  84200036.034 8
                  20258859.828 8
  19735391.992 5                                 105534205.159 5  82082011.647 9
                  19735397.082 9
  20973533.945 7                                 112233610.198 7  87292810.583 9
                  20973537.801 9
 19  5 27 10  0 45.0000000  0 10G02G12G24G25G29G32R09R11R20R21      
  22724019.555 1                                 119415673.761 1
                
  20751695.039 7  20751696.930 9                 109050892.175 7  84974723.560 9
                  20751697.41048
  23411837.305 5  23411843.156 9  23411843.770 9 123030025.178 5  95867567.871 9
  91873107.594 9  23411844.22346
  20359787.977 7  20359792.352 9  20359793.539 9 106991401.183 7  83369943.064 9
  79896201.858 9  20359792.05948
  21422137.141 7  21422139.898 9                 112574091.648 7  87720087.815 9
                  21422139.63748
  22537289.992 6  22537295.797 9  22537294.473 9 118434251.462 6  92286457.933 9
  88441180.963 9  22537296.39148
  22706459.531 6                                 121251317.209 6  94306498.523 9
                  22706464.617 9
  20255214.469 7                                 108237698.425 7  84184898.565 9
                  20255217.727 9
  19734550.125 6                                 105529704.739 6  82078511.315 9
                  19734555.938 9
  20968722.516 7                                 112207859.588 7  87272782.310 9
                  20968726.590 9
 19  5 27 10  0 50.0000000  0 11G02G12G24G25G29G32R09R10R11R20R21   
  22722237.281 2                                 119406297.305 2
                
  20752081.781 7  20752083.543 9                 109052926.464 7  84976308.715 9
                  20752083.74248
  23413826.391 5  23413832.668 9  23413832.871 9 123040477.357 5  95875712.447 9
  91880912.808 9  23413834.14547
  20357872.391 7  20357877.582 9  20357877.871 9 106981337.603 7  83362101.315 9
  79888686.854 9  20357877.09448
  21418229.672 7  21418232.523 9                 112553556.390 7  87704086.343 9
                  21418232.60248
  22537306.203 6  22537312.359 9  22537311.832 9 118434336.918 6  92286524.513 9
  88441244.780 9  22537312.63748
  22708360.383 6                                 121261468.692 6  94314394.083 9
                  22708365.648 9
  19638833.766 1                                 104686052.23411  81422480.84517
                  19638843.289 7
  20251574.484 7                                 108218245.721 7  84169768.644 8
                  20251577.855 8
  19733712.938 6                                 105525227.984 6  82075029.388 9
                  19733718.305 9
  20963911.797 7                                 112182122.852 7  87252764.863 9
                  20963916.383 9
 19  5 27 10  0 55.0000000  0 11G02G12G24G25G29G32R09R10R11R20R21   
  22720453.398 1                                 119396934.068 1
                
  20752469.906 7  20752472.145 9                 109054968.167 7  84977899.659 9
                  20752472.19548
  23415816.719 5  23415822.750 9  23415823.070 9 123050933.546 5  95883860.079 9
  91888720.927 9  23415823.99247
  20355958.891 7  20355964.043 9  20355964.973 9 106971283.723 7  83354267.136 9
  79881179.093 9  20355963.95748
  21414323.664 7  21414326.637 9                 112533031.247 7  87688092.706 9
                  21414326.66448
  22537325.352 6  22537330.895 9  22537330.535 9 118434435.938 6  92286601.637 9
  88441318.711 9  22537331.28148
  22710263.078 6                                 121271625.241 6  94322293.608 9
                  22710266.918 9
  19638753.578 1                                 104685603.284 1  81422131.670 7
                  19638760.203 7
  20247934.805 7                                 108198800.997 7  84154644.974 9
                  20247939.258 9
  19732880.633 5                                 105520773.454 5  82071564.744 9
                  19732885.484 9
  20959103.805 7                                 112156398.394 7  87232756.968 9
                  20959108.762 9
 19  5 27 10  1  0.0000000  0 10G12G24G25G29G32R09R10R11R20R21      
  20752860.836 7  20752862.328 9                 109057018.371 7  84979497.234 9
                  20752862.26648
  23417805.906 5  23417813.559 9  23417814.695 9 123061394.458 5  95892011.405 9
  91896532.611 9  23417814.85547
  20354047.648 6  20354052.953 9  20354053.648 9 106961240.631 6  83346441.331 9
  79873679.362 9  20354053.04748
  21410420.406 7  21410423.008 9                 112512517.207 7  87672107.749 9
                  21410422.44148
  22537346.703 6  22537352.156 9  22537353.102 9 118434549.498 6  92286690.123 9
  88441403.510 9  22537352.55948
  22712166.023 6                                 121281787.900 6  94330197.879 9
                  22712170.109 9
  19638670.891 1                                 104685168.136 1  81421793.237 7
                  19638677.766 7
  20244298.156 6                                 108179365.386 6  84139528.389 8
                  20244301.930 8
  19732052.250 5                                 105516341.736 5  82068117.856 9
                  19732057.488 9
  20954299.305 7                                 112130687.324 7  87212759.488 9
                  20954303.891 9
 19  5 27 10  1  5.0000000  0 10G02G12G24G25G29G32R09R11R20R21      
  22716898.953 1                                                
                
  20753253.055 7  20753253.598 9                 109059076.697 7  84981101.136 9
                  20753253.99248
  23419797.242 5  23419805.406 9  23419805.566 9 123071859.935 5  95900166.294 9
  91904347.717 9  23419806.13347
  20352138.563 7  20352143.535 9  20352144.090 9 106951207.948 7  83338623.654 9
  79866187.433 9  20352143.48848
  21406518.453 7  21406521.707 9                 112492013.947 7  87656131.182 9
                  21406520.84048
  22537370.992 6  22537376.391 9  22537377.398 9 118434677.305 6  92286789.689 9
  88441498.923 9  22537377.32048
  22714070.758 6                                 121291956.355 6  94338106.673 9
                  22714074.465 9
  20240663.859 7                                 108159938.632 7  84124418.717 9
                  20240666.723 9
  19731226.438 6                                 105511932.839 6  82064688.731 9
                  19731232.141 9
  20949497.156 7                                 112104989.360 7  87192772.193 9
                  20949502.578 9
 19  5 27 10  1 10.0000000  0 12G02G12G24G25G29G31G32R09R10R11R20R21
  22715123.938 1                                 119368924.71911
                
  20753646.133 7  20753647.094 9                 109061142.994 7  84982711.229 9
                  20753646.59848
  23421788.672 4  23421797.109 9  23421797.578 9 123082329.549 4  95908324.423 9
  91912165.932 9  23421798.03146
  20350231.539 7  20350236.828 9  20350237.625 9 106941185.495 7  83330813.958 9
  79858703.140 9  20350236.73048
  21402619.500 7  21402621.926 9                 112471521.343 7  87640162.937 9
                  21402621.14848
  23035113.148 1                                 121050770.02611
                
  22537397.922 6  22537403.434 9  22537403.996 9 118434819.142 6  92286900.215 9
  88441604.829 9  22537404.03548
  22715975.086 6                                 121302130.409 6  94346019.817 9
                  22715980.242 9
  19638513.219 1                                 104684337.82011  81421147.45318
                  19638523.063 8
  20237028.383 7                                 108140520.401 7  84109315.669 9
                  20237032.281 9
  19730406.938 5                                 105507546.360 5  82061277.001 9
                  19730412.594 9
  20944697.469 7                                 112079304.233 7  87172794.883 9
                  20944702.258 9
 19  5 27 10  1 15.0000000  0 11G12G24G25G29G32R02R09R10R11R20R21   
  20754040.570 7  20754041.867 9                 109063216.578 7  84984326.983 9
                  20754041.44548
  23423781.727 4  23423790.684 9  23423789.668 9 123092802.919 4  95916485.480 9
  91919986.948 9  23423790.93846
  20348326.539 7  20348331.285 9  20348332.227 9 106931172.601 7  83323011.704 9
  79851225.999 9  20348331.15248
  21398721.445 7  21398723.930 9                 112451038.721 7  87624202.456 9
                  21398723.30148
  22537427.242 6  22537433.262 9  22537433.402 9 118434974.332 6  92287021.153 9
  88441720.741 9  22537434.43848
  22773540.984 1                                                
                
  22717880.422 5                                 121312309.278 5  94353936.708 9
                  22717886.523 9
  19638438.648 1                                 104683941.829 1  81420839.340 7
                  19638449.309 7
  20233396.422 7                                 108121110.227 7  84094218.851 9
                  20233400.449 9
  19729591.438 6                                 105503181.854 6  82057882.408 9
                  19729596.742 9
  20939901.086 7                                 112053631.364 7  87152827.050 9
                  20939904.742 9
 19  5 27 10  1 20.0000000  0 11G02G12G24G25G29G31G32R09R11R20R21   
  22711582.313 1                                 119350321.87611
                
  20754436.805 7  20754438.094 9                 109065299.215 7  84985949.831 9
                  20754438.01648
  23425776.023 4  23425784.594 9  23425783.262 8 123103281.698 4  95924650.718 9
  91927811.992 8  23425784.94546
  20346422.641 7  20346427.418 9  20346428.691 9 106921171.084 7  83315218.309 9
  79843757.315 9  20346427.44148
  21394825.914 7  21394828.547 9                 112430567.797 7  87608251.080 9
                  21394827.43448
  23026617.297 4  23026619.641 8                 121005873.82114  94290282.75418
                
  22537459.844 6  22537466.277 9  22537465.496 9 118435144.654 6  92287153.850 9
  88441847.899 9  22537467.06348
  22719788.828 6                                 121322494.895 6  94361858.825 9
                  22719794.168 9
  20229765.617 6                                 108101709.790 6  84079129.587 9
                  20229770.773 9
  19728779.570 5                                 105498840.832 5  82054506.063 9
                  19728784.105 9
  20935105.055 7                                 112027972.471 7  87132870.161 9
                  20935110.504 9
 19  5 27 10  1 25.0000000  0 11G02G12G24G25G29G31G32R09R11R20R21   
  22709818.969 2                                 119341042.224 2
                
  20754834.852 7  20754835.301 9                 109067389.794 7  84987578.855 9
                  20754834.95348
  23427771.328 5  23427777.777 9  23427777.258 9 123113764.851 5  95932819.401 9
  91935640.303 9  23427778.06347
  20344522.141 7  20344525.961 9  20344526.512 9 106911179.760 7  83307432.894 9
  79836296.313 9  20344526.08648
  21390932.406 7  21390934.703 9                 112410107.505 7  87592308.017 9
                  21390933.89548
  23022395.391 1  23022390.703 8                 120983675.420 1  94272985.310 8
                  23022387.14845
  22537494.570 6  22537501.328 9  22537500.832 9 118435328.965 6  92287297.500 9
  88441985.560 9  22537502.22348
  22721697.094 6                                 121332686.124 6  94369785.327 9
                  22721702.707 9
  20226136.813 6                                 108082317.950 6  84064047.109 9
                  20226141.152 9
  19727971.227 5                                 105494522.446 5  82051147.285 9
                  19727976.590 9
  20930312.656 7                                 112002326.520 7  87112923.309 9
                  20930318.027 9
 19  5 27 10  1 30.0000000  0 12G02G12G24G25G29G31G32R09R10R11R20R21
  22708055.000 1                                 119331777.137 1
                
  20755234.320 7  20755235.336 9                 109069489.187 7  84989214.765 9
                  20755234.77348
  23429767.766 5  23429774.418 9  23429774.098 8 123124253.162 5  95940992.104 9
  91943472.477 8  23429774.78547
  20342622.930 7  20342627.648 9  20342628.500 9 106901199.604 7  83299656.129 9
  79828843.574 9  20342627.54748
  21387041.633 7  21387043.738 9                 112389658.754 7  87576373.934 9
                  21387042.73848
  23018175.086 1  23018167.414 8                 120961484.019 1  94255693.337 8
                  23018164.49245
  22537532.734 6  22537539.301 9  22537537.957 9 118435528.163 6  92287452.692 9
  88442134.286 9  22537539.58248
  22723607.703 6                                 121342883.815 6  94377716.872 9
                  22723612.906 9
  19638233.547 2                                 104682885.50612  81420010.31117
                  19638239.879 7
  20222509.906 7                                 108062935.595 7  84048971.920 9
                  20222515.137 9
  19727167.688 5                                 105490227.257 5  82047806.600 9
                  19727174.070 9
  20925522.578 7                                 111976694.420 7  87092987.245 9
                  20925527.898 9
 19  5 27 10  1 35.0000000  0 13G02G12G24G25G29G31G32R02R09R10R11R20
                                R21
  22706295.000 2                                 119322524.854 2
                
  20755634.539 7  20755636.391 9                 109071595.523 7  84990856.067 9
                  20755635.47748
  23431764.844 5  23431770.281 9  23431770.910 9 123134744.864 5  95949167.462 9
  91951307.157 9  23431770.66047
  20340725.016 7  20340729.871 9  20340730.992 9 106891228.693 7  83291886.591 9
  79821397.756 9  20340729.97748
  21383152.461 7  21383154.016 9                 112369219.704 7  87560447.390 9
                  21383153.23848
  23013957.734 1  23013945.035 8                 120939297.754 1  94238405.284 8
                  23013942.75845
  22537573.391 6  22537579.082 9  22537578.563 9 118435740.355 6  92287618.041 9
  88442292.751 9  22537579.71948
  22769530.023 1                                 121502743.94611
                
  22725517.953 5                                 121353085.970 5  94385651.867 9
                  22725523.625 9
  19638171.320 3                                 104682543.224 3  81419744.155 7
                  19638174.684 7
  20218882.992 6                                 108043561.011 6  84033902.803 9
                  20218889.188 9
  19726369.914 5                                 105485953.683 5  82044482.689 9
                  19726375.105 9
  20920734.039 7                                 111951074.218 7  87073060.420 9
                  20920740.059 9
 19  5 27 10  1 40.0000000  0 14G02G12G14G24G25G29G31G32R02R09R10R11
                                R20R21
  22704534.516 1                                 119313286.432 1
                
  20756037.375 7  20756038.746 9                 109073709.825 7  84992503.592 9
                  20756037.57048
  22616203.063 1                                 118848800.71211
                
  23433761.867 5  23433767.863 9  23433769.293 9 123145240.817 5  95957346.159 9
  91959145.061 9  23433768.04347
  20338829.172 7  20338834.461 9  20338835.156 9 106881268.043 7  83284125.040 9
  79813959.604 9  20338834.37948
  21379264.469 7  21379267.027 9                 112348791.301 7  87544529.160 9
                  21379266.45748
  23009732.063 1  23009724.926 8                 120917117.551 1  94221122.020 8
                  23009723.09045
  22537616.297 6  22537622.324 9  22537621.379 9 118435966.567 6  92287794.293 9
  88442461.667 9  22537623.00448
  22768536.281 1                                 121497447.417 1
                
  22727427.945 5                                 121363293.816 5  94393591.305 9
                  22727435.246 9
  19638110.859 4                                 104682214.175 4  81419488.231 7
                  19638112.633 7
  20215259.242 6                                 108024195.122 6  84018840.450 9
                  20215265.336 9
  19725574.570 5                                 105481702.596 5  82041176.274 9
                  19725580.586 9
  20915949.977 7                                 111925467.076 7  87053143.742 9
                  20915954.668 9
 19  5 27 10  1 45.0000000  0 14G02G12G14G24G25G29G31G32R02R09R10R11
                                R20R21
  22702778.961 1                                 119304063.125 1
                
  20756441.609 7  20756442.332 9                 109075833.425 7  84994158.328 9
                  20756441.55948
  22614793.281 1                                 118841399.247 1
                
  23435758.953 4  23435766.492 9  23435767.520 9 123155742.409 4  95965529.166 9
  91966987.125 9  23435766.79746
  20336936.875 7  20336941.531 9  20336942.043 9 106871319.045 7  83276372.578 9
  79806530.155 9  20336941.38348
  21375379.086 7  21375381.660 9                 112328374.937 7  87528620.341 9
                  21375381.09848
  23005511.867 1  23005504.977 8                 120894944.925 1  94203844.744 8
                  23005503.58645
  22537661.563 6  22537668.613 9  22537667.906 9 118436208.107 6  92287982.501 9
  88442642.029 9  22537669.23848
  22767544.836 1                                                
                
  22729339.469 5                                 121373508.645 5  94401536.137 9
                  22729347.551 9
  19638050.016 3                                 104681899.750 3  81419243.690 8
                  19638054.523 8
  20211635.711 6                                 108004839.314 6  84003785.951 9
                  20211642.168 9
  19724782.773 5                                 105477475.278 5  82037888.353 9
                  19724789.496 9
  20911166.859 7                                 111899874.323 7  87033238.277 9
                  20911171.918 9
 19  5 27 10  1 50.0000000  0 12G12G14G24G25G29G31G32R09R10R11R20R21
  20756847.305 7  20756847.961 9                 109077966.182 7  84995820.180 9
                  20756848.05548
  22613385.492 1                                 118834014.530 1
                
  23437758.766 4  23437766.488 9  23437765.590 8 123166249.546 4  95973716.539 9
  91974833.354 8  23437766.57046
  20335045.711 7  20335050.520 9  20335050.711 9 106861381.477 7  83268629.005 9
  79799109.230 9  20335050.69549
  21371496.852 7  21371498.727 9                 112307970.457 7  87512720.716 9
                  21371498.54748
  23001291.586 2  23001287.457 8                 120872779.413 2  94186572.886 8
                  23001286.19945
  22537711.438 7  22537717.578 9  22537715.352 9 118436464.808 7  92288182.522 9
  88442833.711 9  22537718.26648
  22731256.000 6                                 121383730.271 6  94409486.241 9
                  22731260.918 9
  19637992.602 4                                 104681599.753 4  81419010.396 8
                  19637998.543 8
  20208016.094 6                                 107985493.400 6  83988739.179 9
                  20208021.879 9
  19723997.961 6                                 105473271.660 6  82034618.908 9
                  19724002.797 9
  20906386.500 7                                 111874295.837 7  87013343.929 9
                  20906391.801 9
 19  5 27 10  1 55.0000000  0 13G02G12G14G24G25G29G31G32R09R10R11R20
                                R21
  22699279.852 1                                 119285661.71111
                
  20757254.484 7  20757255.660 9                 109080107.015 7  84997488.350 9
                  20757255.27048
  22611980.367 1                                 118826648.34511
                
  23439759.969 5  23439766.535 9  23439765.941 8 123176760.946 5  95981907.242 9
  91982682.729 8  23439766.21947
  20333156.859 7  20333161.473 9  20333162.023 9 106851454.391 7  83260893.591 9
  79791696.143 9  20333161.30549
  21367616.070 7  21367618.086 9                 112287576.901 7  87496829.624 9
                  21367617.41448
  22997067.320 1  22997069.813 8                 120850620.498 1  94169306.262 8
                  22997069.61345
  22537763.328 6  22537769.164 9  22537767.914 9 118436735.703 6  92288393.589 9
  88443035.980 9  22537769.41848
  22733171.273 6                                 121393957.545 6  94417440.814 9
                  22733176.285 9
  19637940.203 5                                 104681313.214 5  81418787.515 8
                  19637945.262 8
  20204396.883 5                                 107966156.449 5  83973699.305 9
                  20204402.734 9
  19723214.047 5                                 105469090.731 5  82031367.062 9
                  19723221.066 9
  20901610.203 7                                 111848730.605 7  86993459.825 9
                  20901614.277 9
 19  5 27 10  2  0.0000000  0 13G02G12G14G24G25G29G31G32R09R10R11R20
                                R21
  22697537.203 1                                 119276480.727 1
                
  20757663.953 7  20757664.492 9                 109082255.380 7  84999162.436 9
                  20757664.45748
  22610580.406 1                                                
                
  23441759.656 3  23441767.148 9  23441766.820 8 123187276.297 3  95990100.988 9
  91990535.074 8  23441767.56646
  20331269.492 7  20331273.918 9  20331274.273 9 106841537.148 7  83253165.896 9
  79784290.410 9  20331273.49248
  21363736.531 7  21363739.332 9                 112267193.647 7  87480946.574 9
                  21363738.83648
  22992853.539 3  22992854.531 8                 120828467.201 3  94152043.955 8
                  22992854.30945
  22537817.188 6  22537823.441 9  22537822.750 9 118437020.146 6  92288615.223 9
  88443248.391 9  22537824.14148
  22735087.773 6                                 121404190.008 6  94425399.422 9
                  22735092.922 9
  19637888.570 4                                 104681039.438 4  81418574.524 8
                  19637893.355 8
  20200780.117 6                                 107946827.836 6  83958665.972 9
                  20200785.992 9
  19722439.008 5                                 105464931.964 5  82028132.469 9
                  19722443.051 9
  20896835.531 7                                 111823177.951 7  86973585.557 9
                  20896839.613 9
 19  5 27 10  2  5.0000000  0 13G02G12G14G24G25G29G31G32R09R10R11R20
                                R21
  22695788.008 2                                 119267313.731 2
                
  20758073.359 7  20758075.414 9                 109084411.935 7  85000842.824 9
                  20758075.42648
  22609183.398 1                                                
                
  23443761.578 4  23443769.137 9  23443768.098 8 123197796.076 4  95998298.233 9
  91998390.762 8  23443769.31347
  20329383.875 7  20329388.750 9  20329388.977 9 106831630.372 7  83245446.321 9
  79776892.499 9  20329388.60948
  21359859.891 7  21359862.727 9                 112246821.334 7  87465072.089 9
                  21359862.49648
  22988640.859 5  22988639.242 8                 120806320.480 5  94134786.809 8
                  22988638.90645
  22537872.734 6  22537879.906 9  22537877.574 9 118437318.743 6  92288847.893 9
  88443471.345 9  22537880.19548
  22737003.477 5                                 121414428.156 5  94433362.424 9
                  22737009.672 9
  19637837.453 3                                 104680779.133 3  81418372.103 8
                  19637845.457 8
  20197164.398 6                                 107927508.206 6  83943639.575 9
                  20197170.387 9
  19721665.172 5                                 105460795.743 5  82024915.386 9
                  19721669.176 9
  20892060.445 7                                 111797638.647 7  86953721.652 9
                  20892065.988 9
 19  5 27 10  2 10.0000000  0 13G02G12G14G24G25G29G31G32R09R10R11R20
                                R21
  22694049.422 1                                 119258159.591 1
                
  20758485.023 7  20758486.605 9                 109086575.253 7  85002528.525 9
                  20758486.93448
  22607788.133 1                                 118804629.84411
                
  23445765.844 5  23445771.617 9  23445771.262 8 123208318.985 5  96006497.858 9
  92006248.774 8  23445771.83246
  20327500.680 7  20327505.648 9  20327505.098 9 106821732.769 7  83237733.899 9
  79769501.428 9  20327505.37548
  21355985.813 7  21355987.973 9                 112226458.622 7  87449205.053 9
                  21355988.19948
  22984424.172 4  22984426.867 8                 120784178.642 4  94117533.431 8
                  22984426.09045
  22537933.609 7  22537939.750 9  22537936.984 9 118437630.167 7  92289090.554 9
  88443703.928 9  22537940.01648
  22738920.703 4                                 121424670.808 4  94441328.869 8
                  22738927.047 8
  19637789.406 1                                 104680530.912 1  81418178.953 8
                  19637800.000 8
  20193551.172 6                                 107908196.208 6  83928619.134 9
                  20193557.414 9
  19720894.016 5                                 105456680.854 5  82021714.941 9
                  19720900.355 9
  20887290.609 7                                 111772111.340 7  86933867.098 9
                  20887295.383 9
 19  5 27 10  2 15.0000000  0 13G02G12G14G24G25G29G31G32R09R10R11R20
                                R21
  22692309.727 4                                 119249020.124 4
                
  20758898.766 7  20758899.844 9                 109088747.646 7  85004221.289 9
                  20758900.19948
  22606401.125 2                                 118797322.275 2
                
  23447767.602 5  23447775.457 9  23447773.234 8 123218847.504 5  96014701.939 9
  92014110.903 8  23447775.44547
  20325619.109 7  20325624.094 9  20325624.234 9 106811846.564 7  83230030.366 9
  79762118.858 9  20325623.63348
  21352113.313 7  21352115.004 9                 112206107.786 7  87433347.241 9
                  21352115.02348
  22980213.438 4  22980214.746 8                 120762044.234 4  94100285.932 8
                  22980213.99646
  22537995.211 6  22538001.039 9  22537998.785 9 118437956.614 6  92289344.953 9
  88443947.688 9  22538001.40648
  22740842.281 5                                 121434920.190 5  94449300.631 9
                  22740848.043 9
  19637743.008 1                                                  81417997.12418
                  19637755.172 8
  20189939.805 6                                 107888894.142 6  83913606.447 9
                  20189944.414 9
  19720128.883 5                                 105452589.637 5  82018532.878 9
                  19720134.984 9
  20882523.125 7                                 111746598.329 7  86914023.651 9
                  20882528.480 9
 19  5 27 10  2 20.0000000  0 14G02G12G14G24G25G29G31G32R02R09R10R11
                                R20R21
  22690573.953 4                                 119239896.201 4
                
  20759314.172 7  20759315.262 9                 109090929.577 7  85005921.512 9
                  20759315.38748
  22605012.734 2                                 118790031.772 2
                
  23449771.961 4  23449779.949 9  23449778.324 8 123229381.733 4  96022910.364 9
  92021977.428 8  23449780.18446
  20323740.422 7  20323745.086 9  20323744.977 9 106801972.282 7  83222336.116 9
  79754745.215 9  20323744.72748
  21348242.313 7  21348245.375 9                 112185769.274 7  87417499.048 9
                  21348245.80948
  22976003.453 5  22976004.387 8                 120739917.806 5  94083044.428 8
                  22976004.27046
  22538060.438 6  22538066.191 9  22538064.734 9 118438298.656 6  92289611.449 9
  88444203.107 9  22538066.77048
  22760731.984 1                                 121455491.49111
                
  22742763.734 5                                 121445176.649 5  94457277.815 9
                  22742767.730 9
  19637706.141 3                                 104680077.98513  81417826.70118
                  19637714.313 8
  20186328.000 6                                 107869602.379 6  83898601.747 9
                  20186334.496 9
  19719368.977 5                                 105448522.447 5  82015369.498 9
                  19719374.703 9
  20877759.727 7                                 111721100.057 7  86894191.636 9
                  20877762.828 9
 19  5 27 10  2 25.0000000  0 13G02G12G14G24G25G29G31G32R09R10R11R20
                                R21
  22688837.039 3                                 119230785.860 3
                
  20759730.859 7  20759731.980 9                 109093119.152 7  85007627.672 9
                  20759732.08648
  22603628.031 2                                 118782756.504 2
                
  23451778.172 4  23451784.836 9  23451784.859 8 123239919.894 4  96031121.978 9
  92029846.821 8  23451785.13746
  20321863.766 7  20321868.258 9  20321868.277 9 106792107.989 7  83214649.645 9
  79747379.013 9  20321867.73448
  21344374.219 7  21344376.617 9                 112165441.299 7  87401659.080 9
                  21344377.16448
  22971795.406 5  22971794.328 8                 120717797.229 5  94065807.686 8
                  22971794.86346
  22538128.008 6  22538134.031 9  22538131.438 9 118438654.368 6  92289888.631 9
  88444468.719 9  22538134.05948
  22744683.805 4                                 121455438.437 4  94465259.217 8
                  22744688.930 8
  19637666.031 2                                 104679871.901 2  81417666.414 8
                  19637675.492 8
  20182722.125 6                                 107850319.206 6  83883603.791 9
                  20182725.402 9
  19718613.602 5                                 105444477.550 5  82012223.429 9
                  19718618.469 9
  20872994.977 7                                 111695614.659 7  86874369.685 9
                  20872999.805 9
 19  5 27 10  2 30.0000000  0 13G02G12G14G24G25G29G31G32R09R10R11R20
                                R21
  22687108.148 2                                 119221688.779 2
                
  20760148.570 7  20760150.164 9                 109095316.154 7  85009339.599 9
                  20760150.26648
  22602245.055 1                                 118775496.210 1
                
  23453785.047 5  23453791.250 9  23453789.848 8 123250461.858 5  96039336.452 9
  92037719.027 8  23453791.17646
  20319988.484 7  20319992.809 9  20319993.293 9 106782253.443 7  83206970.781 9
  79740020.114 9  20319992.39548
  21340508.000 7  21340510.957 9                 112145123.580 7  87385827.091 9
                  21340511.54748
  22967584.867 4  22967586.363 8                 120695682.448 4  94048575.375 8
                  22967586.19546
  22538198.594 7  22538203.629 9  22538201.805 9 118439023.473 7  92290176.232 9
  88444744.344 9  22538204.13348
  22746606.211 5                                 121465705.275 5  94473244.465 8
                  22746611.852 8
  19637630.211 3                                 104679678.568 3  81417516.077 8
                  19637639.133 8
  20179115.086 6                                 107831044.408 6  83868612.264 9
                  20179118.652 9
  19717860.555 5                                 105440454.413 5  82009094.374 9
                  19717865.766 9
  20868234.805 7                                 111670141.875 7  86854557.539 9
                  20868239.930 9
 19  5 27 10  2 35.0000000  0 14G02G12G14G24G25G29G31G32R02R09R10R11
                                R20R21
  22685379.273 4                                 119212607.066 4
                
  20760568.266 7  20760570.020 9                 109097522.620 7  85011058.932 9
                  20760570.14848
  22600863.313 1                                 118768253.013 1
                
  23455792.070 5  23455798.090 9  23455796.895 8 123261009.696 5  96047555.526 9
  92045595.633 8  23455798.34447
  20318115.219 7  20318120.035 9  20318120.227 9 106772410.743 7  83199301.125 9
  79732670.028 9  20318119.38749
  21336644.195 7  21336647.016 9                 112124818.156 7  87370004.669 9
                  21336647.46548
  22963379.477 4  22963379.898 8                 120673575.400 4  94031349.122 8
                  22963379.88746
  22538270.758 6  22538276.758 9  22538274.723 9 118439407.994 6  92290475.866 9
  88445031.463 9  22538276.58248
  22757875.242 2                                 121440329.47512
                
  22748531.555 5                                 121475979.193 5  94481235.312 8
                  22748535.680 8
  19637598.180 3                                 104679500.111 3  81417377.224 8
                  19637605.953 8
  20175508.742 6                                 107811779.989 6  83853628.784 9
                  20175512.805 9
  19717112.977 5                                 105436455.288 5  82005983.942 9
                  19717118.109 9
  20863478.266 7                                 111644683.880 7  86834756.867 9
                  20863482.984 9
 19  5 27 10  2 40.0000000  0 14G02G06G12G14G24G25G29G31G32R09R10R11
                                R20R21
  22683652.750 4                                 119203540.394 4
                
  23532857.789 1                                                
                
  20760989.828 7  20760992.531 9                 109099738.249 7  85012785.380 9
                  20760992.38748
  22599490.164 1                                 118761026.317 1
                
  23457800.898 5  23457806.703 9  23457806.309 8 123271563.018 5  96055778.845 9
  92053476.324 8  23457806.58247
  20316243.906 7  20316249.227 9  20316249.770 9 106762579.576 7  83191640.484 9
  79725328.571 9  20316248.93448
  21332782.414 7  21332785.230 9                 112104524.759 7  87354191.628 9
                  21332785.80548
  22959174.172 4  22959175.621 8                 120651475.985 4  94014128.752 8
                  22959175.67246
  22538346.883 6  22538353.445 9  22538351.789 9 118439807.688 6  92290787.346 9
  88445329.947 9  22538353.41448
  22750456.555 5                                 121486259.803 5  94489231.334 8
                  22750461.137 8
  19637568.625 4                                 104679336.051 4  81417249.626 8
                  19637575.609 8
  20171905.164 6                                 107792525.658 6  83838653.157 9
                  20171910.543 9
  19716369.367 5                                 105432479.858 5  82002891.946 9
                  19716373.977 9
  20858723.602 7                                 111619240.324 7  86814967.416 9
                  20858728.113 9
 19  5 27 10  2 45.0000000  0 15G02G06G12G14G24G25G29G31G32R02R09R10
                                R11R20R21
  22681930.438 3                                 119194487.061 3  92878707.16655
                  22681929.63345
  23533002.578 1  23532997.016 8  23532998.000 8 123666594.57611  96363687.47818
  92348536.25318
  20761413.102 7  20761415.016 9                 109101961.284 7  85014517.632 9
                  20761415.20348
  22598119.594 1                                 118753814.640 1
                
  23459808.805 5  23459815.031 9  23459816.105 9 123282119.946 5  96064005.021 9
  92061359.729 9  23459815.44146
  20314375.008 6  20314380.094 9  20314380.371 9 106752758.245 6  83183987.519 9
  79717994.483 9  20314379.82448
  21328922.797 7  21328925.418 9                 112084241.692 7  87338386.654 9
                  21328926.25848
  22954970.344 3  22954970.961 8                 120629382.312 3  93996912.860 8
                  22954970.96546
  22538425.742 6  22538432.102 9  22538430.887 9 118440220.798 6  92291109.220 9
  88445638.412 9  22538432.27348
  22755988.594 1                                 121430266.68811
                
  22752382.875 6                                 121496545.603 6  94497231.387 8
                  22752387.633 8
  19637538.773 4                                 104679184.621 4  81417131.891 8
                  19637547.504 8
  20168302.563 6                                 107773279.688 6  83823684.101 9
                  20168308.574 9
  19715630.531 5                                 105428526.455 5  81999817.112 9
                  19715635.031 9
  20853971.023 7                                 111593809.584 7  86795187.972 9
                  20853975.492 9
 19  5 27 10  2 50.0000000  0 15G02G06G12G14G24G25G29G31G32R02R09R10
                                R11R20R21
  22680210.336 3                                 119185448.250 3  92871663.86345
                  22680210.16045
  23533143.094 1  23533140.137 8  23533140.008 8 123667341.813 1  96364269.719 8
  92349094.261 8
  20761837.539 7  20761839.500 9                 109104192.821 7  85016256.479 9
                  20761839.97348
  22596749.305 2                                 118746619.111 2
                
  23461818.805 5  23461824.445 9  23461826.445 9 123292681.690 5  96072234.905 9
  92069246.689 9  23461825.08246
  20312507.391 6  20312513.516 9  20312514.020 9 106742947.813 6  83176343.017 9
  79710668.492 9  20312513.47748
  21325064.914 7  21325068.469 9                 112063970.051 7  87322590.585 9
                  21325068.68448
  22950766.578 3  22950767.445 8                 120607295.559 3  93979702.401 8
                  22950768.33645
  22538507.383 7  22538513.301 9  22538512.258 9 118440648.441 7  92291442.448 9
  88445957.747 9  22538513.70348
  22755052.977 1                                 121425266.521 1
                
  22754309.688 5                                 121506837.499 5  94505236.172 8
                  22754314.848 8
  19637513.266 4                                 104679047.128 4  81417024.968 8
                  19637522.891 8
  20164704.156 6                                 107754043.200 6  83808722.406 9
                  20164708.027 9
  19714893.484 4                                 105424596.034 4  81996760.128 9
                  19714900.629 9
  20849222.180 7                                 111568392.649 7  86775419.256 9
                  20849224.965 9
 19  5 27 10  2 55.0000000  0 13G02G12G14G24G25G29G31G32R09R10R11R20
                                R21
  22678491.445 3                                 119176422.658 3  92864630.89145
                  22678492.55945
  20762263.164 7  20762265.898 9                 109106431.569 7  85018000.957 9
                  20762266.29748
  22595384.039 2                                 118739438.412 2
                
  23463829.773 5  23463835.512 9  23463836.445 9 123303246.914 5  96080467.556 9
  92077136.318 9  23463835.89846
  20310643.148 6  20310648.609 9  20310649.234 9 106733147.044 6  83168706.062 9
  79703349.736 9  20310648.57448
  21321209.414 7  21321212.266 9                 112043708.526 7  87306802.400 9
                  21321212.94548
  22946564.148 3  22946564.969 8                 120585214.449 3  93962496.346 8
                  22946566.99645
  22538591.680 7  22538597.508 9  22538596.723 9 118441089.255 7  92291785.938 9
  88446286.925 9  22538597.58248
  22756238.289 5                                 121517134.261 5  94513244.766 8
                  22756243.512 8
  19637489.469 3                                 104678922.151 3  81416927.757 8
                  19637498.965 8
  20161106.203 6                                 107734814.900 6  83793767.088 9
                  20161109.605 9
  19714163.180 4                                 105420687.382 4  81993720.069 9
                  19714169.543 9
  20844475.398 8                                 111542988.352 8  86755660.367 9
                  20844477.473 9
 19  5 27 10  3  0.0000000  0 14G02G12G14G24G25G29G31G32R02R09R10R11
                                R20R21
  22676776.633 3                                 119167410.924 3  92857608.72145
                  22676777.53145
  20762691.539 7  20762693.867 9                 109108678.230 7  85019751.604 9
                  20762694.15248
  22594021.648 3                                 118732273.201 3
                
  23465840.813 5  23465846.414 8  23465847.523 9 123313816.471 5  96088703.603 8
  92085029.188 9  23465846.74246
  20308779.789 6  20308785.285 9  20308785.910 9 106723356.588 6  83161077.153 9
  79696038.692 9  20308785.66048
  21317355.836 7  21317358.676 9                 112023457.901 7  87291022.686 9
                  21317359.10948
  22942364.438 2  22942364.258 8                 120563139.651 2  93945295.200 8
                  22942366.28545
  22538677.852 7  22538683.699 9  22538683.359 9 118441543.976 7  92292140.283 9
  88446626.479 9  22538683.93048
  22753188.313 1                                 121415327.46211  94434232.89916
                  22753200.906 6
  22758166.617 5                                 121527436.511 5  94521257.619 9
                  22758172.586 9
  19637467.945 2                                 104678810.411 2  81416840.819 8
                  19637477.781 8
  20157508.906 6                                 107715595.526 6  83778818.670 8
                  20157512.785 8
  19713435.883 5                                 105416801.203 5  81990697.462 9
                  19713443.074 9
  20839729.703 8                                 111517597.360 8  86735911.805 9
                  20839732.102 9
 19  5 27 10  3  5.0000000  0 14G02G12G14G24G25G29G31G32R02R09R10R11
                                R20R21
  22675065.656 3                                 119158412.910 3  92850597.32745
                  22675065.36345
  20763120.430 7  20763122.211 9                 109110932.723 7  85021508.332 9
                  20763122.89148
  22592663.508 4                                 118725123.422 4
                
  23467853.344 4  23467858.117 8  23467859.621 9 123324390.151 4  96096942.876 8
  92092925.113 9  23467858.31346
  20306919.031 6  20306924.020 9  20306924.891 9 106713576.413 6  83153456.202 9
  79688735.293 9  20306924.46548
  21313504.188 7  21313506.918 9                 112003218.021 7  87275251.352 9
                  21313507.50048
  22938165.719 3  22938163.621 8                 120541071.051 3  93928098.912 8
                  22938166.50845
  22538766.969 7  22538772.656 9  22538772.285 9 118442012.561 7  92292505.383 9
  88446976.376 9  22538772.38748
  22752266.430 2                                 121410388.963 2
                
  22760097.734 5                                 121537744.239 5  94529274.712 9
                  22760102.957 9
  19637450.617 2                                 104678711.917 2  81416764.239 8
                  19637459.797 8
  20153912.570 6                                 107696385.095 6  83763877.241 8
                  20153917.563 8
  19712713.414 5                                 105412937.304 5  81987692.194 9
                  19712720.496 9
  20834987.516 7                                 111492219.676 7  86716173.606 9
                  20834990.617 9
 19  5 27 10  3 10.0000000  0 14G02G12G14G24G25G29G31G32R02R09R10R11
                                R20R21
  22673357.023 3                                 119149430.444 3  92843597.99645
                  22673355.86345
  20763551.039 7  20763553.133 9                 109113196.691 7  85023272.450 9
                  20763553.55548
  22591304.445 4                                 118717990.695 4
                
  23469866.883 5  23469872.320 8  23469872.621 9 123334969.510 5  96105186.546 8
  92100825.255 9  23469871.37546
  20305059.547 6  20305065.566 9  20305066.488 9 106703808.107 6  83145844.550 9
  79681440.789 9  20305065.59048
  21309655.453 7  21309656.879 9                 111982990.574 7  87259489.712 9
                  21309657.85548
  22933968.289 4  22933966.523 8                 120519010.436 4  93910908.847 8
                  22933968.07845
  22538859.813 7  22538865.324 9  22538863.664 9 118442496.577 7  92292882.522 9
  88447337.810 9  22538865.46548
  22751344.000 1                                 121405472.468 1
                  22751353.215 6
  22762029.320 5                                 121548059.163 5  94537297.399 9
                  22762034.949 9
  19637435.469 3                                 104678628.273 3  81416699.220 8
                  19637443.336 8
  20150320.227 6                                 107677185.206 6  83748944.001 8
                  20150324.836 8
  19711996.531 4                                 105409097.492 4  81984705.687 9
                  19712003.039 9
  20830247.227 7                                 111466856.899 7  86696447.030 9
                  20830250.172 9
 19  5 27 10  3 15.0000000  0 14G02G12G14G24G25G29G31G32R02R09R10R11
                                R20R21
  22671648.594 3                                 119140460.886 3  92836608.72645
                  22671648.83245
  20763983.453 7  20763985.762 9                 109115467.738 7  85025042.097 9
                  20763986.26648
  22589949.156 4                                 118710872.552 4
                
  23471880.703 5  23471885.918 9  23471887.547 9 123345552.246 5  96113432.815 9
  92108727.952 9  23471885.36346
  20303202.945 7  20303208.207 9  20303209.262 9 106694049.285 7  83138240.266 9
  79674153.349 9  20303208.30548
  21305808.188 7  21305810.238 9                 111962773.143 7  87243735.873 9
                  21305810.77748
  22929770.828 2  22929770.316 8                 120496955.372 2  93893723.121 8
                  22929772.39145
  22538953.758 7  22538959.090 9  22538957.266 9 118442993.578 7  92293269.772 9
  88447708.935 9  22538959.24248
  22750426.773 1                                 121400576.241 1
                
  22763961.602 5                                 121558378.674 5  94545323.645 8
                  22763966.957 8
  19637421.773 2                                 104678557.058 2  81416643.828 8
                  19637429.449 8
  20146728.047 6                                 107657993.295 6  83734016.958 9
                  20146732.898 9
  19711282.375 4                                 105405279.142 4  81981735.856 9
                  19711288.582 9
  20825510.438 7                                 111441506.610 7  86676730.148 9
                  20825513.070 9
 19  5 27 10  3 20.0000000  0 14G02G12G14G24G25G29G31G32R02R09R10R11
                                R20R21
  22669944.484 2                                 119131505.343 2  92829630.42345
                  22669944.69145
  20764417.188 7  20764418.977 9                 109117746.787 7  85026817.979 9
                  20764419.40648
  22588597.891 3                                 118703769.972 3
                
  23473895.773 5  23473901.320 9  23473902.363 9 123356139.309 5  96121682.501 9
  92116633.850 9  23473900.82447
  20301347.813 6  20301353.164 9  20301354.363 9 106684300.880 6  83130644.118 9
  79666873.701 9  20301353.11748
  21301963.117 7  21301965.422 9                 111942566.678 7  87227990.572 9
                  21301965.59448
  22925574.680 2  22925574.742 8                 120474906.854 2  93876542.437 8
                  22925576.16045
  22539051.586 7  22539057.008 9  22539055.090 9 118443504.546 7  92293667.945 9
  88448090.517 9  22539057.00448
  22749513.688 1                                 121395700.729 1
                
  22765895.117 5                                 121568703.714 5  94553354.265 8
                  22765900.574 8
  19637410.273 3                                 104678499.384 3  81416598.983 8
                  19637418.883 8
  20143139.359 6                                 107638810.498 6  83719097.011 9
                  20143143.656 9
  19710573.023 5                                 105401483.253 5  81978783.505 9
                  19710578.996 9
  20820775.750 7                                 111416169.785 7  86657023.734 9
                  20820778.090 9
 19  5 27 10  3 25.0000000  0 14G02G12G14G24G25G29G31G32R02R09R10R11
                                R20R21
  22668245.188 2                                 119122562.666 2  92822662.10445
                  22668243.28945
  20764852.203 7  20764854.609 9                 109120032.683 7  85028599.189 9
                  20764854.84048
  22587248.898 4                                 118696681.856 4
                
  23475909.594 4  23475916.391 9  23475917.230 9 123366729.368 4  96129934.474 9
  92124542.004 9  23475916.04346
  20299494.969 6  20299499.910 9  20299501.301 9 106674561.802 6  83123055.212 9
  79659601.012 9  20299499.87548
  21298119.414 7  21298121.945 9                 111922370.056 7  87212252.961 9
                  21298122.43448
  22921380.336 3  22921381.055 8                 120452863.680 3  93859365.919 8
                  22921381.43445
  22539151.250 7  22539156.457 9  22539154.480 9 118444028.289 7  92294076.052 9
  88448481.608 9  22539156.45748
  22748602.859 1                                                
                
  22767829.570 5                                 121579033.223 5  94561388.322 8
                  22767834.402 8
  19637403.344 3                                 104678453.899 3  81416563.624 8
                  19637410.410 8
  20139550.836 6                                 107619635.627 6  83704183.229 9
                  20139555.504 9
  19709866.391 5                                 105397708.822 5  81975847.827 9
                  19709872.906 9
  20816044.094 8                                 111390845.298 8  86637326.924 9
                  20816045.449 9
 19  5 27 10  3 30.0000000  0 14G02G12G14G24G25G29G31G32R02R09R10R11
                                R20R21
  22666545.102 2                                 119113635.687 2  92815706.09345
                  22666544.61345
  20765288.875 7  20765290.965 9                 109122328.286 7  85030387.962 9
                  20765291.22348
  22585905.938 4                                 118689611.000 4
                
  23477927.344 4  23477932.785 9  23477933.441 9 123377325.241 4  96138190.984 9
  92132454.483 9  23477932.89846
  20297644.273 7  20297648.855 9  20297650.094 9 106664834.788 7  83115475.717 9
  79652337.332 9  20297648.61348
  21294278.938 7  21294281.680 9                 111902186.111 7  87196525.220 9
                  21294282.55948
  22917185.344 3  22917188.625 8                 120430828.716 3  93842195.787 8
                  22917188.70345
  22539253.398 7  22539259.301 9  22539257.969 9 118444567.707 7  92294496.370 9
  88448884.410 9  22539259.35948
  22747700.172 1                                 121386011.18011
                
  22769763.898 4                                 121589370.168 4  94569428.179 8
                  22769769.680 8
  19637397.281 3                                 104678423.478 3  81416539.955 8
                  19637404.082 8
  20135964.461 6                                 107600471.509 6  83689277.780 9
                  20135968.887 9
  19709165.711 5                                 105393958.474 5  81972930.897 9
                  19709171.469 9
  20811313.219 8                                 111365536.039 8  86617641.960 9
                  20811316.063 9
 19  5 27 10  3 35.0000000  0 14G02G12G14G24G25G29G31G32R02R09R10R11
                                R20R21
  22664848.781 2                                 119104723.229 2  92808761.25545
                  22664848.17645
  20765727.680 7  20765729.148 9                 109124632.406 7  85032183.365 9
                  20765729.70348
  22584560.469 3                                 118682556.261 3
                
  23479944.266 4  23479950.621 9  23479951.500 9 123387926.113 4  96146451.399 9
  92140370.727 9  23479950.78146
  20295794.891 7  20295799.699 9  20295800.758 9 106655118.771 7  83107904.796 9
  79645081.877 9  20295799.56648
  21290439.641 7  21290442.289 9                 111882013.712 7  87180806.459 9
                  21290443.71548
  22912993.422 3  22912997.609 8                 120408800.782 3  93825031.131 8
                  22912997.26645
  22539358.836 7  22539364.598 9  22539363.590 9 118445121.533 7  92294927.924 9
  88449297.976 9  22539364.80548
  22746800.617 1                                 121381198.990 1
                
  22771700.828 4                                 121599713.188 4  94577472.697 8
                  22771706.500 8
  19637392.281 3                                 104678406.983 3  81416527.154 8
                  19637400.332 8
  20132380.148 6                                 107581317.046 6  83674379.886 9
                  20132384.938 9
  19708467.578 5                                 105390231.173 5  81970031.897 9
                  19708473.930 9
  20806586.750 8                                 111340240.840 8  86597967.927 9
                  20806588.961 9
 19  5 27 10  3 40.0000000  0 14G02G12G14G24G25G29G31G32R02R09R10R11
                                R20R21
  22663156.023 2                                 119095824.478 2  92801827.07945
                  22663155.53945
  20766167.281 7  20766169.570 9                 109126944.223 7  85033984.767 9
                  20766170.03948
  22583219.500 2                                 118675516.864 2
                
  23481961.102 3  23481968.262 9  23481968.500 9 123398530.980 3  96154714.901 9
  92148289.907 9  23481968.48446
  20293948.086 7  20293952.938 9  20293953.738 9 106645412.900 7  83100341.788 9
  79637833.984 9  20293952.60548
  21286602.727 7  21286606.383 9                 111861852.048 7  87165096.079 9
                  21286607.46148
  22908802.383 3  22908805.645 8                 120386779.090 3  93807871.365 8
                  22908806.64545
  22539466.891 7  22539472.180 9  22539471.906 9 118445689.043 7  92295370.139 9
  88449721.764 9  22539472.06648
  22745905.602 2                                 121376407.290 2
                
  22773639.570 4                                 121610061.500 4  94585521.376 8
                  22773644.875 8
  19637389.211 1                                 104678403.536 1  81416524.414 7
                  19637398.914 7
  20128797.922 6                                 107562171.439 6  83659488.866 9
                  20128801.715 9
  19707773.766 5                                 105386526.103 5  81967150.173 9
                  19707781.484 9
  20801861.992 8                                 111314958.902 8  86578304.189 9
                  20801864.277 9
 19  5 27 10  3 45.0000000  0 14G02G12G14G24G25G29G31G32R02R09R10R11
                                R20R21
  22661467.945 1                                 119086939.172 1  92794903.50345
                  22661464.51645
  20766608.734 7  20766610.328 9                 109129263.534 7  85035792.023 9
                  20766610.97748
  22581879.477 1                                                
                
  23483978.914 3  23483986.879 9  23483988.680 9 123409139.516 3  96162981.221 9
  92156211.786 9  23483987.37546
  20292103.227 7  20292107.566 9  20292108.336 9 106635716.954 7  83092786.484 9
  79630593.511 9  20292107.61348
  21282768.047 7  21282771.652 9                 111841700.889 7  87149393.889 9
                  21282772.75448
  22904613.070 4  22904615.723 8                 120364763.371 4  93790716.282 8
                  22904617.18845
  22539577.227 6  22539582.344 9  22539582.992 9 118446269.940 6  92295822.812 9
  88450155.529 9  22539582.44548
  22745008.609 1                                                
                
  22775579.477 4                                 121620414.821 4  94593573.970 9
                  22775582.836 9
  19637391.898 1                                 104678412.830 1  81416531.656 7
                  19637400.375 7
  20125217.336 6                                 107543034.365 6  83644604.486 9
                  20125221.227 9
  19707086.930 5                                 105382842.944 5  81964285.479 9
                  19707092.945 9
  20797139.477 8                                 111289690.064 8  86558650.645 9
                  20797142.660 9
 19  5 27 10  3 50.0000000  0 13G02G12G14G24G25G29G31G32R09R10R11R20
                                R21
  22659780.070 1                                 119078068.130 1  92787991.01745
                  22659776.54345
  20767051.633 7  20767053.887 9                 109131591.026 7  85037605.650 9
                  20767053.80148
  22580548.820 2                                 118661484.00612
                
  23485999.320 4  23486007.566 9  23486008.164 9 123419752.629 4  96171251.202 9
  92164137.200 9  23486006.97747
  20290260.141 7  20290264.793 9  20290265.746 9 106626031.663 7  83085239.511 9
  79623360.996 9  20290265.02349
  21278935.125 7  21278938.793 9                 111821560.906 7  87133700.393 9
                  21278939.98448
  22900424.805 3  22900428.031 8                 120342754.449 3  93773566.470 8
                  22900429.68845
  22539690.484 6  22539694.996 9  22539695.473 9 118446864.968 6  92296286.438 9
  88450599.884 9  22539694.98448
  22777517.078 3                                 121630774.074 3  94601631.077 9
                  22777523.953 9
  19637397.266 2                                 104678435.604 2  81416549.393 7
                  19637405.117 7
  20121636.813 6                                 107523906.755 6  83629727.468 9
                  20121641.840 9
  19706401.328 5                                 105379182.461 5  81961438.439 9
                  19706407.480 9
  20792420.281 8                                 111264434.964 8  86539007.814 9
                  20792423.863 9
 19  5 27 10  3 55.0000000  0 14G02G06G12G14G24G25G29G31G32R09R10R11
                                R20R21
  22658091.289 1                                 119069211.203 1  92781089.59145
                  22658090.51645
  23535230.109 1  23535238.945 8  23535242.820 8 123678371.58911  96372872.07718
  92357339.30018
  20767495.766 7  20767498.070 9                 109133926.723 7  85039425.693 9
                  20767497.92248
  22579218.492 3                                 118654491.226 3
                
  23488020.656 3  23488026.145 9  23488027.566 8 123430370.066 3  96179524.521 9
  92172065.777 8  23488026.49246
  20288419.305 7  20288423.637 9  20288424.781 9 106616357.040 7  83077700.837 9
  79616136.438 9  20288423.70748
  21275105.609 7  21275108.473 9                 111801432.211 7  87118015.695 9
                  21275109.18848
  22896237.563 3  22896240.059 8                 120320752.246 3  93756421.831 8
                  22896242.58245
  22539807.164 7  22539811.348 9  22539811.426 9 118447474.088 7  92296761.073 9
  88451054.760 9  22539810.70748
  22779460.570 3                                 121641139.107 3  94609692.729 9
                  22779465.234 9
  19637406.852 3                                 104678472.184 3  81416577.803 7
                  19637412.148 7
  20118059.828 6                                 107504788.450 6  83614857.639 9
                  20118064.578 9
  19705720.930 5                                 105375544.723 5  81958609.093 9
                  19705727.016 9
  20787703.906 8                                 111239193.685 8  86519375.712 9
                  20787706.973 9
 19  5 27 10  4  0.0000000  0 14G02G06G12G14G24G25G29G31G32R09R10R11
                                R20R21
  22656407.734 1                                 119060367.492 1  92774198.39545
                  22656407.16445
  23535412.109 1  23535420.281 8  23535422.242 8 123679322.394 1  96373613.098 8
  92358049.263 8
  20767941.805 7  20767943.465 9                 109136269.503 7  85041251.227 9
                  20767943.36348
  22577893.180 3                                 118647513.143 3
                
  23490041.344 4  23490048.207 9  23490049.633 9 123440990.945 4  96187800.528 9
  92179996.936 9  23490048.03546
  20286579.945 7  20286584.484 9  20286585.457 9 106606691.970 7  83070169.613 9
  79608918.997 9  20286584.50448
  21271277.016 7  21271279.574 9                 111781313.609 7  87102338.895 9
                  21271280.03148
  22892051.758 3  22892052.844 8                 120298755.796 3  93739281.814 8
                  22892056.41045
  22539925.336 7  22539929.941 9  22539930.148 9 118448096.206 7  92297245.816 9
  88451519.307 9  22539929.83648
  22781402.117 5                                 121651508.746 5  94617758.003 9
                  22781407.352 9
  19637414.523 4                                 104678521.249 4  81416615.898 7
                  19637421.113 7
  20114482.016 6                                 107485678.348 6  83599994.203 9
                  20114488.117 9
  19705045.875 5                                 105371928.446 5  81955796.440 9
                  19705051.531 9
  20782988.672 7                                 111213965.139 7  86499753.535 9
                  20782992.125 9
 19  5 27 10  4  5.0000000  0 13G02G12G14G24G25G29G31G32R09R10R11R20
                                R21
  22654728.102 3                                 119051538.432 3  92767318.56845
                  22654726.54345
  20768389.008 7  20768391.387 9                 109138620.912 7  85043083.466 9
                  20768391.53148
  22576567.055 4                                 118640551.353 4
                
  23492063.477 4  23492070.129 9  23492071.316 9 123451616.530 4  96196080.173 9
  92187931.618 9  23492070.36346
  20284743.172 7  20284747.109 9  20284748.031 9 106597037.985 7  83062647.032 9
  79601709.854 9  20284747.13348
  21267451.523 7  21267453.457 9                 111761206.708 7  87086671.192 9
                  21267453.84448
  22887869.344 4  22887868.238 8                 120276766.595 4  93722147.394 8
                  22887871.51245
  22540045.766 6  22540051.434 9  22540050.727 9 118448732.851 6  92297741.902 9
  88451994.727 9  22540051.64848
  22783344.641 4                                 121661884.670 4  94625828.131 9
                  22783350.289 9
  19637426.695 4                                 104678584.188 4  81416664.896 7
                  19637432.742 7
  20110908.977 6                                 107466578.131 6  83585138.500 9
                  20110914.879 9
  19704373.492 5                                 105368335.354 5  81953001.795 9
                  19704379.094 9
  20778275.414 7                                 111188750.854 7  86480142.443 9
                  20778280.055 9
 19  5 27 10  4 10.0000000  0 13G02G12G14G24G25G29G31G32R09R10R11R20
                                R21
  22653047.672 1                                 119042723.288 1  92760449.64645
                  22653049.24645
  20768838.875 7  20768840.262 9                 109140980.174 7  85044921.844 9
                  20768840.03948
  22575244.367 4                                 118633604.979 4
                
  23494085.813 4  23494092.852 9  23494094.277 9 123462246.326 4  96204363.123 9
  92195869.427 9  23494092.79346
  20282907.531 7  20282911.895 9  20282913.074 9 106587394.343 7  83055132.483 9
  79594508.431 9  20282911.82848
  21263627.266 7  21263628.988 9                 111741110.734 7  87071011.968 9
                  21263629.50048
  22883685.258 4  22883685.238 8                 120254783.793 4  93705017.919 8
                  22883687.83645
  22540169.758 6  22540174.902 9  22540174.500 9 118449383.241 6  92298248.682 9
  88452480.404 9  22540174.94948
  22785288.898 2                                 121672265.988 2  94633902.459 9
                  22785294.934 9
  19637440.289 3                                 104678660.373 3  81416724.122 7
                  19637447.039 7
  20107336.508 6                                 107447486.917 6  83570289.810 9
                  20107342.223 9
  19703705.680 5                                 105364764.541 5  81950224.479 9
                  19703711.852 9
  20773567.055 8                                 111163550.076 8  86460541.828 9
                  20773570.438 9
 19  5 27 10  4 15.0000000  0 12G12G14G24G25G29G31G32R09R10R11R20R21
  20769288.766 7  20769290.648 9                 109143347.273 7  85046766.361 9
                  20769290.33648
  22573926.820 5                                 118626674.094 5
                
  23496111.836 5  23496116.500 9  23496117.754 9 123472880.050 5  96212649.129 9
  92203810.207 9  23496116.79747
  20281074.500 7  20281078.762 9  20281080.121 9 106577761.033 7  83047626.010 9
  79587314.710 9  20281078.75848
  21259804.352 7  21259807.195 9                 111721025.686 7  87055361.298 9
                  21259807.61348
  22879500.656 2  22879503.324 8                 120232807.522 2  93687893.505 8
                  22879505.54345
  22540296.977 6  22540302.051 9  22540300.969 9 118450047.411 6  92298766.208 9
  88452976.375 9  22540301.77348
  22787232.477 2                                 121682652.711 2  94641981.052 9
                  22787239.516 9
  19637456.938 3                                 104678750.014 3  81416793.748 7
                  19637464.152 7
  20103764.703 6                                 107428404.902 6  83555448.202 9
                  20103771.418 9
  19703040.609 5                                 105361215.914 5  81947464.448 9
                  19703048.145 9
  20768859.570 7                                 111138362.910 7  86440951.822 9
                  20768864.410 9
 19  5 27 10  4 20.0000000  0 12G12G14G24G25G29G31G32R09R10R11R20R21
  20769741.016 8  20769742.902 9                 109145723.389 8  85048617.890 9
                  20769742.30548
  22572609.961 4                                 118619759.851 4
                
  23498134.117 3  23498140.859 9  23498142.465 8 123483518.960 3  96220939.200 9
  92211754.843 8  23498141.27746
  20279243.438 7  20279247.676 9  20279249.836 9 106568139.259 7  83040128.538 9
  79580129.633 9  20279247.41848
  21255984.930 7  21255987.301 9                 111700952.787 7  87039720.089 9
                  21255987.92648
  22875322.234 2  22875322.926 8                 120210838.925 2  93670775.168 8
                  22875324.94945
  22540426.367 6  22540431.270 9  22540431.113 9 118450726.467 6  92299295.339 9
  88453483.440 9  22540431.68048
  22789178.828 2                                 121693046.126 2  94650064.774 9
                  22789186.727 9
  19637476.836 2                                 104678854.125 2  81416874.781 7
                  19637482.965 7
  20100196.602 6                                 107409333.143 6  83540614.607 9
                  20100202.539 9
  19702381.609 5                                 105357690.886 5  81944722.779 9
                  19702389.520 9
  20764155.320 7                                 111113190.482 7  86421373.275 9
                  20764160.258 9
 19  5 27 10  4 25.0000000  0 12G12G14G24G25G29G31G32R09R10R11R20R21
  20770194.961 8  20770196.703 9                 109148108.026 8  85050476.034 9
                  20770196.28548
  22571299.695 5                                 118612861.760 5
                
  23500159.227 2  23500167.047 9  23500168.320 9 123494162.848 2  96229233.150 9
  92219703.224 9  23500167.36746
  20277414.352 7  20277419.277 9  20277420.762 9 106558528.480 7  83032639.611 9
  79572952.730 9  20277418.93048
  21252166.969 7  21252169.402 9                 111680891.497 7  87024087.927 9
                  21252170.19548
  22871140.063 1  22871144.484 8                 120188877.605 1  93653662.484 8
                  22871145.76645
  22540557.609 7  22540562.582 9  22540562.219 9 118451419.947 7  92299835.716 9
  88454001.297 9  22540562.61348
  22791129.180 3                                 121703445.618 3  94658153.311 9
                  22791133.938 9
  19637496.219 1                                 104678972.018 1  81416966.455 7
                  19637503.719 7
  20096630.063 7                                 107390271.147 7  83525788.609 9
                  20096634.508 9
  19701727.344 5                                 105354188.794 5  81941998.918 9
                  19701733.738 9
  20759454.781 7                                 111088032.314 7  86401805.808 9
                  20759458.352 9
 19  5 27 10  4 30.0000000  0 14G02G06G12G14G24G25G29G31G32R09R10R11
                                R20R21
  22646369.250 3                                                
                
  23536557.477 3                                 123685349.04613
                
  20770649.930 7  20770651.980 9                 109150500.801 7  85052340.513 9
                  20770651.62948
  22569987.734 4                                 118605979.367 4
                
  23502186.320 3  23502192.840 9  23502193.992 9 123504811.138 3  96237530.504 9
  92227654.818 9  23502192.86346
  20275588.063 7  20275592.508 9  20275594.371 9 106548928.289 7  83025158.947 9
  79565783.769 9  20275592.24648
  21248351.188 7  21248353.477 9                 111660841.531 7  87008464.562 9
                  21248353.84848
  22866963.563 1  22866966.852 8                 120166922.999 1  93636554.962 8
                  22866968.08645
  22540692.031 6  22540697.434 9  22540698.762 9 118452127.409 6  92300386.960 9
  88454529.583 9  22540697.80548
  22793074.273 2                                 121713850.867 2  94666246.290 9
                  22793082.664 9
  19637522.531 4                                 104679103.498 4  81417068.600 7
                  19637527.441 7
  20093065.281 7                                 107371218.594 7  83510969.975 9
                  20093069.027 9
  19701077.398 6                                 105350709.342 6  81939292.640 9
                  19701082.625 9
  20754755.609 7                                 111062888.043 7  86382249.144 9
                  20754760.172 9
 19  5 27 10  4 35.0000000  0 15G02G06G12G14G24G25G29G31G32R02R09R10
                                R11R20R21
  22644705.547 3                                 118998861.92813  92726271.62356
                  22644703.51646
  23536759.203 3  23536765.078 8  23536766.680 8 123686403.353 3  96379111.50518
  92363330.19918  23536765.66845
  20771106.109 7  20771109.387 9                 109152901.025 7  85054210.779 9
                  20771109.30548
  22568679.266 1                                 118599112.167 1
                
  23504212.055 3  23504219.809 9  23504220.371 9 123515463.038 3  96245830.537 9
  92235609.089 9  23504220.06346
  20273762.539 7  20273767.574 9  20273768.719 9 106539338.127 7  83017686.114 9
  79558622.310 9  20273767.00048
  21244537.836 7  21244540.883 9                 111640802.140 7  86992849.446 9
                  21244540.73048
  22862784.813 1  22862789.215 8                 120144974.557 1  93619452.286 8
                  22862790.96145
  22540829.000 6  22540834.684 9  22540834.574 9 118452848.272 6  92300948.676 9
  88455067.891 9  22540834.61348
  22736276.875 1                                 121325045.68411
                
  22795026.219 3                                 121724261.037 3  94674343.069 8
                  22795031.992 8
  19637552.578 5                                 104679247.793 5  81417180.714 8
                  19637555.340 8
  20089500.289 6                                 107352174.778 6  83496158.104 9
                  20089505.957 9
  19700429.680 5                                 105347251.835 5  81936603.455 9
                  19700436.625 9
  20750058.305 7                                 111037756.936 7  86362702.708 9
                  20750063.578 9
 19  5 27 10  4 40.0000000  0 14G02G06G12G14G24G25G29G31G32R09R10R11
                                R20R21
  22643046.180 2                                 118990130.814 2  92719468.12645
                  22643042.18045
  23536961.992 3  23536968.246 8  23536970.797 8 123687470.822 3  96379943.267 8
  92364127.286 8  23536968.31645
  20771564.828 7  20771567.520 9                 109155307.986 7  85056086.381 9
                  20771567.38748
  22567372.766 1                                                
                
  23506240.711 2  23506247.418 9  23506248.508 9 123526117.89412  96254132.97019
  92243565.56119  23506247.14146
  20271939.969 7  20271944.352 9  20271946.234 9 106529757.128 7  83010220.373 9
  79551467.631 9  20271943.99248
  21240727.172 7  21240729.875 9                 111620772.522 7  86977241.967 9
                  21240729.95748
  22858611.766 4  22858614.426 8                 120123031.599 4  93602353.996 8
                  22858615.75845
  22540969.609 7  22540973.672 9  22540973.902 9 118453581.575 7  92301520.084 9
  88455615.487 9  22540974.35548
  22796975.742 1                                 121734675.536 1  94682443.249 8
                  22796983.504 8
  19637579.547 2                                 104679403.925 2  81417302.340 7
                  19637584.617 7
  20085937.016 6                                 107333138.824 6  83481352.364 9
                  20085943.879 9
  19699786.867 5                                 105343815.371 5  81933930.666 9
                  19699794.348 9
  20745364.742 7                                 111012638.346 7  86343166.012 9
                  20745370.465 9
 19  5 27 10  4 45.0000000  0 15G02G06G12G14G24G25G29G31G32R02R09R10
                                R11R20R21
  22641387.664 2                                 118981414.362 2  92712676.05545
                  22641384.05145
  23537168.227 3  23537174.191 7  23537177.309 8 123688553.403 3  96380786.890 7
  92364935.705 8  23537174.42245
  20772023.930 7  20772026.227 9                 109157723.462 7  85057968.561 9
                  20772026.07848
  22566073.992 2                                 118585422.44312
                
  23508266.195 1  23508276.266 9  23508276.918 8                  96262439.06719
  92251525.52618  23508276.14146
  20270118.789 7  20270122.426 9  20270124.543 9 106520187.195 7  83002763.292 9
  79544321.268 9  20270122.30148
  21236917.852 7  21236919.328 9                 111600754.705 7  86961643.672 9
                  21236919.73048
  22854434.586 1  22854439.137 7                 120101095.724 1  93585261.106 7
                  22854440.35945
  22541111.023 6  22541116.270 9  22541116.578 9 118454329.420 6  92302102.813 9
  88456173.925 9  22541116.56348
  22734580.008 1                                 121315981.66611
                
  22798926.016 3                                 121745096.26513  94690548.20319
                  22798933.770 9
  19637611.141 1                                 104679574.265 1  81417434.746 7
                  19637616.980 7
  20082376.344 6                                 107314112.870 6  83466554.390 9
                  20082383.133 9
  19699148.625 5                                 105340401.948 5  81931275.776 9
                  19699155.887 9
  20740673.273 7                                 110987534.180 7  86323640.588 9
                  20740678.863 9
 19  5 27 10  4 50.0000000  0 14G02G06G12G14G24G25G29G31G32R09R10R11
                                R20R21
  22639726.992 1                                 118972712.78611  92705895.68755
                  22639727.73045
  23537377.000 4  23537382.949 8  23537387.070 8 123689651.492 4  96381642.422 8
  92365755.624 8  23537382.71545
  20772485.641 7  20772488.512 9                 109160147.895 7  85059857.707 9
                  20772488.27048
  22564774.547 1                                 118578602.15811
                
  23510295.781 1  23510305.770 9  23510304.863 8                  96270749.22919
  92259489.40718  23510305.37546
  20268300.344 8  20268304.617 9  20268305.730 9 106510628.787 8  82995315.188 9
  79537183.487 9  20268303.84049
  21233109.953 7  21233112.832 9                 111580749.071 7  86946054.827 9
                  21233112.76248
  22850262.641 1  22850266.551 7                 120079167.784 1  93568174.474 7
                
  22541255.891 6  22541261.715 9  22541261.992 9 118455092.068 6  92302697.055 9
  88456743.421 9  22541262.03148
  22800880.164 3                                 121755523.486 3  94698658.286 8
                  22800886.965 8
  19637648.180 3                                 104679759.044 3  81417578.479 7
                  19637652.410 7
  20078818.266 6                                 107295097.181 6  83451764.401 9
                  20078824.477 9
  19698515.633 5                                 105337012.143 5  81928639.222 9
                  19698521.422 9
  20735985.227 7                                 110962444.879 7  86304126.682 9
                  20735990.719 9
 19  5 27 10  4 55.0000000  0 14G02G06G12G24G25G29G31G32R02R09R10R11
                                R20R21
  22638074.594 3                                 118964025.067 3  92699126.06346
                  22638074.03946
  23537588.445 3  23537594.965 8  23537597.332 8 123690763.573 3  96382509.000 8
  92366586.107 8  23537593.91445
  20772948.742 7  20772951.359 9                 109162579.852 7  85061752.725 9
                  20772951.41048
  23512329.844 5  23512335.270 8  23512336.516 9 123558110.44515  96279062.267 8
  92267456.091 9  23512334.27046
  20266482.781 7  20266487.473 9  20266487.656 9 106501080.399 7  82987874.897 9
  79530053.216 9  20266486.41048
  21229304.469 6  21229307.500 9                 111560754.063 6  86930474.327 9
                  21229307.43847
  22846095.117 5  22846094.754 8                 120057246.029 5  93551092.534 8
                
  22541402.891 6  22541408.867 9  22541409.617 9 118455868.036 6  92303301.744 9
  88457322.891 9  22541409.54347
  22732898.469 2                                 121307001.02112  94350001.37118
                  22732905.902 8
  22802833.625 2                                 121765955.828 2  94706772.309 9
                  22802840.109 9
  19637683.625 5                                 104679956.829 5  81417732.154 8
                  19637691.258 8
  20075262.445 7                                 107276090.390 7  83436981.350 9
                  20075266.832 9
  19697886.148 6                                 105333643.996 6  81926019.564 9
                  19697891.969 9
  20731299.531 7                                 110937368.832 7  86284623.118 9
                  20731303.664 9
 19  5 27 10  5  0.0000000  0 14G02G06G12G24G25G29G31G32R02R09R10R11
                                R20R21
  22636426.117 1                                 118955351.334 1  92692367.27846
                  22636423.01646
  23537803.234 4  23537809.043 8  23537811.953 8 123691890.187 4  96383387.000 8
  92367427.398 8  23537808.65246
  20773412.820 8  20773415.695 9                 109165019.788 8  85063653.979 9
                  20773415.73848
  23514360.023 2  23514365.805 8  23514366.184 9 123568782.990 2  96287378.516 8
  92275425.802 9  23514365.46546
  20264667.484 7  20264672.418 9  20264672.996 9 106491542.578 7  82980442.805 9
  79522930.791 9  20264672.15648
  21225502.492 7  21225505.148 9                 111540770.326 7  86914902.565 9
                  21225504.41848
  22841921.313 3  22841925.703 8                 120035331.108 3  93534015.897 8
                  22841924.72346
  22541553.266 6  22541559.949 9  22541559.699 9 118456657.857 6  92303917.179 9
  88457912.694 9  22541560.27048
  22732062.680 1                                 121302542.113 1  94346533.416 7
                  22732070.551 7
  22804791.211 3                                 121776393.897 3  94714890.694 8
                  22804794.352 8
  19637726.297 5                                 104680168.006 5  81417896.531 8
                  19637731.855 8
  20071706.805 7                                 107257092.955 7  83422205.549 9
                  20071712.988 9
  19697259.625 6                                 105330298.387 6  81923417.430 9
                  19697267.027 9
  20726616.484 7                                 110912306.754 7  86265130.365 9
                  20726620.609 9
 19  5 27 10  5  5.0000000  0 15G02G06G12G14G24G25G29G31G32R02R09R10
                                R11R20R21
  22634777.617 2                                 118946692.003 2  92685619.69246
                  22634775.37146
  23538022.234 5  23538026.520 8  23538028.418 8 123693031.619 5  96384276.362 8
  92368279.746 8  23538025.46946
  20773879.508 8  20773881.520 9                 109167468.002 8  85065561.662 9
                  20773881.51248
  22560898.969 1                                                
                
  23516392.898 3  23516398.094 9  23516397.078 9 123579459.966 3  96295698.236 9
  92283398.903 9  23516397.59046
  20262853.703 7  20262860.121 9  20262861.109 9 106482015.470 7  82973019.093 9
  79515816.428 9  20262860.03548
  21221700.953 7  21221704.965 9                 111520797.988 7  86899339.730 9
                  21221704.29348
  22837753.391 4  22837757.188 8                 120013423.106 4  93516944.783 8
                  22837756.57846
  22541706.703 6  22541712.262 9  22541712.680 9 118457461.772 6  92304543.572 9
  88458512.996 9  22541712.71948
  22731231.695 2                                 121298104.140 2
                
  22806747.172 3                                 121786837.634 3  94723013.630 8
                  22806749.680 8
  19637765.609 5                                 104680393.058 5  81418071.514 8
                  19637774.426 8
  20068154.039 7                                 107238105.101 7  83407437.226 9
                  20068159.941 9
  19696638.930 5                                 105326975.315 5  81920832.834 9
                  19696645.242 9
  20721936.711 7                                 110887258.818 7  86245648.661 9
                  20721939.543 9
 19  5 27 10  5 10.0000000  0 14G02G06G12G14G24G25G29G31G32R09R10R11
                                R20R21
  22633131.203 2                                 118938045.387 2  92678882.09146
                  22633129.88346
  23538240.289 5  23538245.898 8  23538248.301 8 123694186.164 5  96385176.024 8
  92369141.860 8  23538245.05946
  20774346.727 8  20774348.188 9                 109169922.787 8  85067474.494 9
                  20774348.09048
  22559614.750 3                                 118551476.24913
                
  23518426.844 4  23518430.453 9  23518429.707 8 123590139.779 4  96304020.137 9
  92291374.061 8  23518430.16046
  20261043.500 7  20261048.055 9  20261048.848 9 106472497.541 7  82965602.526 9
  79508708.859 9  20261048.12948
  21217903.422 7  21217905.660 9                 111500835.441 7  86883784.509 9
                  21217905.36348
  22833586.328 4  22833588.551 8                 119991520.588 4  93499877.838 8
                  22833588.01645
  22541862.422 6  22541867.492 9  22541867.414 9 118458278.115 6  92305179.691 9
  88459122.616 9  22541867.98048
  22808702.250 1                                 121797285.504 1  94731139.704 8
                  22808706.422 8
  19637809.398 2                                 104680630.001 2  81418255.839 8
                  19637818.758 8
  20064600.938 7                                 107219125.339 7  83392675.162 9
                  20064607.031 9
  19696021.727 5                                 105323673.322 5  81918264.616 9
                  19696027.477 9
  20717257.000 8                                 110862223.392 8  86226176.657 9
                  20717261.359 9
 19  5 27 10  5 15.0000000  0 14G02G06G12G14G24G25G29G31G32R09R10R11
                                R20R21
  22631488.242 3                                 118929413.593 3  92672155.99246
                  22631487.77346
  23538462.867 4  23538467.762 8  23538469.227 8 123695355.925 4  96386087.504 8
  92370015.354 8  23538467.51245
  20774814.898 7  20774817.137 9                 109172386.245 7  85069394.062 9
                  20774817.07048
  22558333.148 3                                 118544733.376 3
                
  23520455.109 1  23520464.344 9  23520463.199 8 123600824.30311  96312345.79619
  92299352.81718  23520464.05946
  20259235.117 7  20259239.359 9  20259239.918 9 106462990.861 7  82958194.699 9
  79501609.694 9  20259239.55149
  21214107.141 7  21214108.664 9                 111480884.823 7  86868238.610 9
                  21214108.43048
  22829420.859 4  22829421.977 8                 119969625.587 4  93482816.867 8
                  22829421.69145
  22542020.734 6  22542025.715 9  22542026.035 9 118459108.994 6  92305827.103 9
  88459743.063 9  22542026.02048
  22810660.109 2                                 121807739.66312  94739270.81318
                  22810664.023 8
  19637857.922 5                                 104680881.162 5  81418451.201 7
                  19637865.008 7
  20061051.555 7                                 107200155.583 7  83377920.943 9
                  20061056.828 9
  19695407.906 5                                 105320394.550 5  81915714.426 9
                  19695414.191 9
  20712581.078 7                                 110837202.591 7  86206716.076 9
                  20712585.121 9
 19  5 27 10  5 20.0000000  0 14G02G06G12G14G24G25G29G31G32R09R10R11
                                R20R21
  22629847.695 2                                 118920795.351 2  92665440.47046
                  22629848.10246
  23538688.414 4  23538693.523 8  23538694.652 8 123696539.676 4  96387009.838 8
  92370899.246 8  23538692.82046
  20775285.070 8  20775287.359 9                 109174857.102 8  85071319.433 9
                  20775287.81648
  22557053.539 4                                 118538005.550 4
                
  23522492.820 3  23522498.215 9  23522496.730 8 123611512.543 3  96320674.234 9
  92307334.267 8  23522497.94546
  20257427.297 7  20257432.309 9  20257432.500 9 106453494.115 7  82950794.659 9
  79494517.981 9  20257432.25048
  21210312.227 7  21210314.551 9                 111460944.902 7  86852700.986 9
                  21210313.66448
  22825253.344 4  22825256.684 8                 119947736.819 4  93465760.707 8
                  22825255.83645
  22542181.375 6  22542186.449 9  22542186.680 9 118459953.112 6  92306484.866 9
  88460373.401 9  22542187.07448
  22812618.297 3                                 121818198.717 3  94747405.657 8
                  22812622.574 8
  19637909.711 5                                 104681145.283 5  81418656.587 8
                  19637914.801 8
  20057503.742 7                                 107181194.791 7  83363173.633 9
                  20057508.059 9
  19694799.133 5                                 105317137.495 5  81913181.153 9
                  19694805.090 9
  20707908.273 8                                 110812195.157 8  86187265.852 9
                  20707912.313 9
 19  5 27 10  5 25.0000000  0 14G02G06G12G14G24G25G29G31G32R09R10R11
                                R20R21
  22628210.766 3                                 118912190.709 3  92658735.54646
                  22628210.82446
  23538915.930 3  23538921.645 8  23538921.844 8 123697737.357 3  96387943.166 8
  92371793.660 8  23538920.77346
  20775757.094 8  20775758.512 9                 109177335.454 8  85073250.607 9
                  20775758.91848
  22555774.938 4                                 118531292.899 4
                
  23524526.016 2  23524532.879 9  23524531.695 8 123622204.482 2  96329005.597 9
  92315318.470 8  23524532.91046
  20255622.227 7  20255626.961 9  20255628.070 9 106444007.456 7  82943402.447 9
  79487433.792 9  20255627.40648
  21206520.297 7  21206521.938 9                 111441015.705 7  86837171.746 9
                  21206521.45748
  22821088.508 1  22821092.188 8                 119925854.415 1  93448709.472 8
                  22821092.44145
  22542344.391 6  22542349.859 9  22542350.938 9 118460810.566 6  92307152.992 9
  88461013.708 9  22542350.45348
  22814576.016 2                                 121828662.967 2  94755544.502 9
                  22814582.922 9
  19637958.984 5                                 104681422.260 5  81418871.975 8
                  19637966.273 8
  20053957.000 7                                 107162242.753 7  83348433.168 9
                  20053961.199 9
  19694193.508 5                                 105313902.311 5  81910664.888 9
                  19694199.766 9
  20703237.234 7                                 110787201.171 7  86167826.094 9
                  20703242.457 9
 19  5 27 10  5 30.0000000  0 14G02G06G12G14G24G25G29G31G32R09R10R11
                                R20R21
  22626575.930 4                                 118903600.251 4  92652041.64446
                  22626576.00046
  23539146.258 2  23539153.180 8  23539153.242 8 123698949.577 2  96388887.651 8
  92372698.791 8  23539151.99645
  20776229.875 8  20776231.707 9                 109179821.748 8  85075187.981 9
                  20776231.85948
  22554499.359 4                                 118524595.811 4
                
  23526558.148 1  23526568.027 9  23526566.875 8 123632900.356 1  96337340.032 9
  92323305.660 8  23526567.62145
  20253818.500 7  20253823.367 9  20253824.934 9 106434531.311 7  82936018.418 9
  79480357.412 9  20253823.74648
  21202729.914 7  21202731.820 9                 111421097.711 7  86821651.244 9
                  21202731.20748
  22816926.023 2  22816929.445 8                 119903978.669 2  93431663.517 8
                  22816928.98045
  22542509.664 6  22542515.797 9  22542517.359 9 118461681.738 6  92307831.849 9
  88461664.269 9  22542516.11348
  22816539.641 4                                 121839132.623 4  94763687.586 8
                  22816543.637 8
  19638015.141 5                                 104681712.508 5  81419097.691 8
                  19638020.020 8
  20050411.664 7                                 107143300.230 7  83333700.104 9
                  20050416.375 9
  19693592.391 5                                 105310689.539 5  81908166.079 9
                  19693598.637 9
  20698568.180 7                                 110762221.140 7  86148397.200 9
                  20698573.645 9
 19  5 27 10  5 35.0000000  0 14G02G06G12G14G24G25G29G31G32R09R10R11
                                R20R21
  22624945.461 5                                 118895025.471 5  92645360.00346
                  22624944.68446
  23539380.375 2  23539386.590 8  23539387.281 8 123700177.769 2  96389844.664 8
  92373615.939 8  23539385.15245
  20776704.859 7  20776706.434 9                 109182317.623 7  85077132.791 9
                  20776706.58648
  22553229.617 4                                 118517916.015 4
                
  23528595.352 2  23528604.930 8  23528604.191 9                  96345679.16618
  92331297.32419  23528604.35245
  20252017.961 7  20252022.406 9  20252023.148 9 106425067.286 7  82928643.896 9
  79473290.166 9  20252022.95748
  21198942.125 7  21198943.949 9                 111401192.668 7  86806140.794 9
                  21198942.53948
  22812764.469 2  22812768.270 8                 119882111.503 2  93414624.107 8
                  22812768.90245
  22542679.492 6  22542684.441 9  22542685.578 9 118462568.343 6  92308522.692 9
  88462326.328 9  22542684.32848
  22818500.383 4                                 121849609.602 4  94771836.311 9
                  22818506.746 9
  19638071.148 5                                 104682017.746 5  81419335.126 8
                  19638077.293 8
  20046868.617 6                                 107124368.757 6  83318975.614 9
                  20046873.531 9
  19692998.719 5                                 105307500.831 5  81905685.971 9
                  19693002.484 9
  20693903.375 7                                 110737256.814 7  86128980.518 9
                  20693906.953 9
 19  5 27 10  5 40.0000000  0 15G02G06G12G14G24G25G29G31G32R02R09R10
                                R11R20R21
  22623316.320 4                                 118886464.644 4  92638689.23346
                  22623315.69546
  23539619.070 4  23539622.801 8  23539622.902 8 123701420.313 4  96390812.913 8
  92374543.821 8  23539621.53946
  20777181.305 7  20777183.391 9                 109184821.240 7  85079083.666 9
                  20777183.49648
  22551960.523 3                                 118511251.658 3
                
  23530633.016 3  23530641.496 9  23530640.738 8 123654307.82113  96354021.135 9
  92339291.667 8  23530641.71946
  20250218.938 7  20250223.238 9  20250224.445 9 106415613.627 7  82921277.383 9
  79466230.587 9  20250223.43448
  21195156.250 7  21195157.859 9                 111381298.680 7  86790639.001 9
                  21195156.50048
  22808606.734 2  22808607.879 8                 119860251.003 2  93397590.001 8
                  22808608.68445
  22542850.281 6  22542855.488 9  22542857.230 9 118463468.496 6  92309224.091 9
  88462998.479 9  22542856.27748
  22725524.461 1                                 121267614.09611
                
  22820462.953 2                                 121860091.786 2  94779989.108 9
                  22820469.172 9
  19638130.172 4                                 104682336.380 4  81419582.962 8
                  19638136.980 8
  20043327.859 7                                 107105446.625 7  83304258.352 9
                  20043331.836 9
  19692404.125 5                                 105304334.269 5  81903223.067 9
                  19692410.527 9
  20689240.461 7                                 110712306.258 7  86109574.542 9
                  20689244.762 9
 19  5 27 10  5 45.0000000  0 14G02G06G12G14G24G25G29G31G32R09R10R11
                                R20R21
  22621688.195 3                                 118877917.480 3  92632029.07246
                  22621689.15246
  23539856.313 4  23539862.934 8  23539863.336 8 123702676.789 4  96391791.998 8
  92375482.122 8  23539861.44546
  20777658.891 7  20777661.133 9                 109187332.403 7  85081040.411 9
                  20777661.02048
  22550694.000 3                                 118504602.458 3
                
  23532672.430 1  23532679.563 9  23532678.555 8 123665017.13111  96362366.01219
  92347288.85918  23532680.06346
  20248422.203 7  20248426.648 9  20248427.098 9 106406170.039 7  82913918.774 9
  79459178.578 9  20248426.25848
  21191372.844 6  21191374.844 9                 111361415.476 6  86775145.613 9
                  21191373.47748
  22804447.875 3  22804449.648 8                 119838396.901 3  93380560.800 8
                  22804449.61345
  22543024.180 6  22543029.660 9  22543031.039 9 118464381.965 6  92309935.886 9
  88463680.627 9  22543029.61748
  22822426.227 3                                 121870579.142 3  94788145.909 9
                  22822432.762 9
  19638194.133 5                                 104682668.063 5  81419840.935 7
                  19638198.230 7
  20039788.125 7                                 107086533.367 7  83289548.047 8
                  20039792.219 8
  19691816.844 6                                 105301189.587 6  81900777.216 9
                  19691823.035 9
  20684581.508 7                                 110687369.269 7  86090179.094 9
                  20684584.891 9
 19  5 27 10  5 50.0000000  0 14G02G06G12G14G24G25G29G31G32R09R10R11
                                R20R21
  22620064.305 4                                 118869384.502 4  92625380.01746
                  22620066.13346
  23540098.094 4  23540104.688 8  23540104.934 8 123703947.840 4  96392782.458 8
  92376431.257 8  23540103.21946
  20778137.703 7  20778140.648 9                 109189851.592 7  85083003.393 9
                  20778140.37148
  22549432.727 3                                 118497968.920 3
                
  23534709.688 2  23534717.699 9  23534717.391 8 123675730.548 2  96370714.104 9
  92355289.122 8  23534718.19546
  20246627.266 7  20246631.680 9  20246631.906 9 106396737.076 7  82906568.406 9
  79452134.473 9  20246631.48048
  21187590.711 7  21187593.418 9                 111341543.594 7  86759661.023 9
                  21187592.73848
  22800287.063 1  22800293.004 8                 119816549.623 1  93363536.987 8
                  22800292.35545
  22543200.625 6  22543206.000 9  22543207.613 9 118465309.214 6  92310658.435 9
  88464373.056 9  22543206.66048
  22824390.305 3                                 121881072.020 3  94796307.010 9
                  22824397.055 9
  19638259.414 5                                 104683013.118 5  81420109.256 7
                  19638263.355 7
  20036250.422 7                                 107067629.775 7  83274845.248 9
                  20036254.496 9
  19691232.070 5                                 105298067.197 5  81898348.688 9
                  19691239.348 9
  20679923.461 7                                 110662446.421 7  86070794.649 9
                  20679927.699 9
 19  5 27 10  5 55.0000000  0 14G02G06G12G14G24G25G29G31G32R09R10R11
                                R20R21
  22618442.945 4                                 118860865.832 4  92618742.09646
                  22618444.88746
  23540342.789 4  23540348.758 8  23540350.590 8 123705233.445 4  96393784.257 8
  92377391.280 8  23540347.87946
  20778618.570 7  20778621.313 9                 109192378.916 7  85084972.737 9
                  20778621.10248
  22548174.289 4                                 118491351.275 4
                
  23536750.477 3  23536758.066 8  23536756.996 8 123686448.289 3  96379065.614 8
  92363292.645 8  23536758.09446
  20244833.914 7  20244838.398 9  20244838.563 9 106387314.821 7  82899226.406 9
  79445098.393 9  20244838.43048
  21183811.930 7  21183814.031 9                 111321683.127 7  86744185.337 9
                  21183813.85948
  22796131.711 2  22796137.047 8                 119794709.546 2  93346518.772 8
                  22796136.03545
  22543379.969 6  22543384.617 9  22543386.203 9 118466250.411 6  92311391.833 9
  88465075.899 9  22543384.84048
  22826355.883 3                                 121891570.604 3  94804472.562 9
                  22826363.133 9
  19638324.961 5                                 104683371.852 5  81420388.264 7
                  19638330.754 7
  20032714.734 7                                 107048735.814 7  83260149.956 8
                  20032719.090 8
  19690653.266 5                                 105294967.419 5  81895937.766 9
                  19690658.801 9
  20675269.125 7                                 110637537.826 7  86051421.285 9
                  20675273.430 9
 19  5 27 10  6  0.0000000  0 14G02G06G12G14G24G25G29G31G32R09R10R11
                                R20R21
  22616826.281 5                                 118852362.607 5  92612116.21346
                  22616826.25046
  23540589.875 4  23540596.355 8  23540596.414 8 123706534.860 4  96394798.378 8
  92378363.104 8  23540595.46145
  20779101.359 7  20779103.406 9                 109194915.494 7  85086949.271 9
                  20779103.56348
  22546917.047 4                                 118484750.482 4
                
  23538792.359 3  23538797.730 8  23538798.410 8 123697171.573 3  96387421.407 8
  92371300.223 8  23538798.27746
  20243042.711 7  20243047.176 9  20243048.215 9 106377904.441 7  82891893.636 9
  79438071.171 9  20243047.25848
  21180034.773 7  21180037.332 9                 111301835.274 7  86728719.486 9
                  21180037.14848
  22791979.289 3  22791981.902 8                 119772877.674 3  93329506.842 8
                  22791980.94145
  22543561.414 6  22543567.375 9  22543567.535 9 118467206.713 6  92312136.984 9
  88465790.011 9  22543567.63748
  22828323.047 2                                 121902076.119 2  94812643.512 8
                  22828329.977 8
  19638395.859 6                                 104683745.425 6  81420678.822 7
                  19638401.617 7
  20029182.258 7                                 107029852.708 7  83245463.165 8
                  20029184.289 8
  19690078.203 5                                 105291891.352 5  81893545.271 9
                  19690083.570 9
  20670616.914 7                                 110612644.625 7  86032059.908 9
                  20670621.301 9
 19  5 27 10  6  5.0000000  0 14G02G06G12G14G24G25G29G31G32R09R10R11
                                R20R21
  22615212.352 5                                 118843873.003 5  92605500.95246
                  22615210.53546
  23540840.883 4  23540847.273 7  23540846.453 8 123707850.245 4  96395823.353 7
  92379345.368 8  23540845.38345
  20779585.742 7  20779588.246 9                 109197459.538 7  85088931.640 9
                  20779588.12148
  22545665.461 3                                 118478164.852 3
                
  23540833.695 3  23540839.348 8  23540838.223 8 123707898.303 3  96395779.949 8
  92379310.488 8  23540839.67246
  20241254.125 7  20241258.539 9  20241259.020 9 106368504.098 7  82884568.683 9
  79431051.432 9  20241258.65248
  21176259.609 7  21176262.027 9                 111281998.195 7  86713262.040 9
                  21176261.93448
  22787826.469 4  22787829.063 8                 119751052.135 4  93312499.963 8
                  22787828.23046
  22543745.883 6  22543751.434 9  22543752.254 9 118468176.155 6  92312892.354 9
  88466513.933 9  22543751.59448
  22830292.977 2                                 121912586.586 2  94820818.333 8
                  22830299.031 8
  19638468.305 6                                 104684131.927 6  81420979.409 8
                  19638474.250 8
  20025650.023 7                                 107010978.604 7  83230783.297 8
                  20025652.289 8
  19689506.563 5                                 105288837.089 5  81891169.708 9
                  19689512.980 9
  20665966.781 7                                 110587765.021 7  86012709.142 9
                  20665971.527 9
 19  5 27 10  6 10.0000000  0 14G02G06G12G14G24G25G29G31G32R09R10R11
                                R20R21
  22613598.297 5                                 118835398.041 5  92598897.08946
                  22613597.15246
  23541094.117 5  23541097.273 7  23541099.645 8 123709180.482 5  96396859.839 7
  92380338.721 8  23541098.62945
  20780071.063 7  20780073.625 9                 109200012.038 7  85090920.595 9
                  20780073.68848
  22544413.508 3                                 118471595.362 3
                
  23542875.359 4  23542880.492 9  23542879.793 8 123718629.664 4  96404141.997 9
  92387324.117 8  23542881.47346
  20239467.383 7  20239471.934 9  20239473.020 9 106359114.833 7  82877252.386 9
  79424039.975 9  20239471.94948
  21172487.164 7  21172489.711 9                 111262172.933 7  86697813.765 9
                  21172489.36348
  22783673.891 4  22783677.957 8                 119729234.086 4  93295498.880 8
                  22783676.89546
  22543933.094 6  22543939.109 9  22543939.449 9 118469159.880 6  92313658.892 9
  88467248.539 9  22543938.90248
  22832262.492 3                                 121923103.121 3  94828997.806 9
                  22832267.656 9
  19638542.836 6                                 104684532.411 6  81421290.895 8
                  19638549.438 8
  20022120.125 7                                 106992114.506 7  83216111.230 8
                  20022121.348 8
  19688938.883 5                                 105285805.681 5  81888811.940 9
                  19688945.137 9
  20661319.336 7                                 110562900.049 7  85993369.729 9
                  20661325.414 9
 19  5 27 10  6 15.0000000  0 15G02G06G12G14G24G25G29G31G32R02R09R10
                                R11R20R21
  22611987.258 5                                 118826937.397 5  92592304.37946
                  22611986.66046
  23541350.406 5  23541353.043 8  23541354.754 8 123710525.357 5  96397907.702 8
  92381343.023 8  23541354.27045
  20780558.898 7  20780561.125 9                 109202572.614 7  85092915.853 9
                  20780560.89148
  22543166.289 3                                 118465041.697 3
                
  23544918.516 4  23544924.160 9  23544922.199 8 123729365.204 4  96412507.345 9
  92395340.923 8  23544924.70346
  20237682.734 7  20237687.223 9  20237688.574 9 106349736.282 7  82869944.404 9
  79417036.499 9  20237687.21148
  21168716.648 7  21168719.371 9                 111242359.137 7  86682374.438 9
                  21168718.93448
  22779523.617 4  22779527.270 8                 119707423.155 4  93278503.322 8
                  22779526.66046
  22544123.039 6  22544128.438 9  22544128.523 9 118470157.458 6  92314436.222 9
  88467993.464 9  22544128.33248
  22720009.766 1                                 121238122.87111
                
  22834232.789 4                                 121933625.282 4  94837181.744 8
                  22834238.465 8
  19638621.656 6                                 104684946.392 6  81421612.857 8
                  19638627.496 8
  20018591.883 7                                 106973260.146 7  83201446.718 8
                  20018592.242 8
  19688377.289 5                                 105282796.658 5  81886471.583 9
                  19688383.012 9
  20656677.070 7                                 110538049.405 7  85974041.455 9
                  20656681.773 9
 19  5 27 10  6 20.0000000  0 15G02G06G12G14G24G25G29G31G32R02R09R10
                                R11R20R21
  22610380.836 5                                 118818491.619 5  92585723.27646
                  22610379.24246
  23541609.961 4  23541613.793 8  23541613.746 8 123711885.371 4  96398967.467 8
  92382358.591 8  23541612.84845
  20781048.031 7  20781049.742 9                 109205141.848 7  85094917.838 9
                  20781049.32848
  22541922.055 4                                 118458504.303 4
                
  23546961.844 4  23546967.492 8  23546966.090 8 123740105.479 4  96420876.381 8
  92403361.257 8  23546968.59446
  20235899.898 7  20235904.156 9  20235905.449 9 106340369.026 7  82862645.244 9
  79410041.463 9  20235904.20348
  21164948.375 7  21164951.375 9                 111222557.388 7  86666944.535 9
                  21164950.68448
  22775374.828 4  22775377.809 8                 119685619.852 4  93261513.754 8
                  22775377.57446
  22544316.031 6  22544321.074 9  22544321.203 9 118471169.452 6  92315224.771 9
  88468749.172 9  22544320.71948
  22719228.445 1                                 121233997.688 1
                  22719224.727 7
  22836204.359 4                                 121944153.677 4  94845370.473 8
                  22836209.988 8
  19638701.984 6                                 104685374.569 6  81421945.919 8
                  19638708.652 8
  20015065.305 7                                 106954416.061 7  83186790.200 8
                  20015066.445 8
  19687818.086 6                                 105279810.741 6  81884149.203 9
                  19687824.754 9
  20652036.477 7                                 110513213.655 7  85954724.745 9
                  20652040.535 9
 19  5 27 10  6 25.0000000  0 15G02G06G12G14G24G25G29G31G32R02R09R10
                                R11R20R21
  22608777.242 5                                 118810058.947 5  92579152.32446
                  22608774.71546
  23541868.805 2  23541875.262 8  23541874.613 8 123713258.714 2  96400037.621 8
  92383384.131 8  23541874.12945
  20781538.008 7  20781540.293 9                 109207717.974 7  85096925.218 9
                  20781540.00048
  22540681.641 3                                 118451981.584 3
                
  23549006.766 4  23549010.945 8  23549010.648 8 123750848.861 4  96429247.839 8
  92411383.905 8  23549012.62546
  20234119.445 7  20234124.031 9  20234125.547 9 106331011.219 7  82855353.445 9
  79403053.499 9  20234123.89148
  21161182.219 7  21161185.070 9                 111202765.913 7  86651522.598 9
                  21161184.42248
  22771227.766 4  22771229.781 8                 119663822.406 4  93244528.776 8
                  22771229.56346
  22544510.875 6  22544516.172 9  22544516.586 9 118472194.076 6  92316023.162 9
  88469514.306 9  22544516.27748
  22718455.188 1                                                  94290024.53217
                  22718455.887 7
  22838177.320 4                                 121954686.501 4  94853562.642 8
                  22838181.824 8
  19638784.688 6                                 104685815.161 6  81422288.586 8
                  19638792.117 8
  20011540.297 7                                 106935580.422 7  83172140.268 8
                  20011541.480 8
  19687264.633 5                                 105276846.146 5  81881843.378 9
                  19687270.262 9
  20647398.273 7                                 110488390.950 7  85935418.189 9
                  20647401.254 9
 19  5 27 10  6 30.0000000  0 15G02G06G12G14G24G25G29G31G32R02R09R10
                                R11R20R21
  22607173.867 5                                 118801640.118 5  92572592.23446
                  22607172.90646
  23542132.969 1  23542140.074 8  23542139.188 8 123714646.235 1  96401118.835 8
  92384420.172 8  23542138.17645
  20782029.516 7  20782032.328 9                 109210301.743 7  85098938.535 9
                  20782031.91448
  22539443.172 2                                 118445474.186 2
                
  23551052.500 3  23551055.902 8  23551055.734 8 123761595.988 3  96437622.166 8
  92419409.377 8  23551057.12546
  20232341.016 7  20232344.609 9  20232346.617 9 106321663.714 7  82848069.678 9
  79396073.217 9  20232344.60948
  21157417.867 6  21157420.859 9                 111182985.489 6  86636109.273 9
                  21157419.60548
  22767081.117 5  22767082.555 8                 119642031.651 5  93227548.978 8
                  22767083.21946
  22544708.531 6  22544714.078 9  22544714.230 9 118473232.075 6  92316832.016 9
  88470289.433 9  22544714.21548
  22717689.359 1                                                  94286846.97617
                  22717690.711 7
  22840153.805 5                                 121965224.434 5  94861758.762 8
                  22840155.609 8
  19638868.930 6                                 104686268.977 6  81422641.533 8
                  19638877.293 8
  20008017.141 7                                 106916754.142 7  83157497.607 8
                  20008019.195 8
  19686713.539 5                                 105273903.390 5  81879554.571 9
                  19686719.285 9
  20642760.867 7                                 110463582.172 7  85916122.490 9
                  20642765.133 9
 19  5 27 10  6 35.0000000  0 14G02G06G12G14G24G25G29G31G32R09R10R11
                                R20R21
  22605574.438 5                                 118793235.276 5  92566042.99446
                  22605573.38746
  23542401.969 4  23542408.160 8  23542406.367 8 123716047.835 4  96402211.017 8
  92385466.864 8  23542405.47345
  20782522.445 7  20782524.727 9                 109212893.240 7  85100957.851 9
                  20782524.54748
  22538205.711 1                                 118438982.097 1
                
  23553096.898 3  23553102.535 8  23553101.113 8 123772346.925 3  96445999.457 8
  92427437.627 8  23553102.61746
  20230563.641 7  20230568.371 9  20230569.891 9 106312326.603 7  82840793.995 9
  79389100.697 9  20230567.87948
  21153656.438 6  21153658.832 9                 111163216.240 6  86620704.667 9
                  21153658.39148
  22762935.328 4  22762936.820 8                 119620247.781 4  93210574.570 8
                  22762937.44146
  22544907.914 6  22544913.609 9  22544913.160 9 118474283.613 6  92317651.369 9
  88471074.647 9  22544914.02347
  22842126.695 5                                 121975767.709 5  94869959.116 8
                  22842129.707 8
  19638956.109 6                                 104686736.063 6  81423004.854 8
                  19638964.793 8
  20004495.836 7                                 106897937.220 7  83142862.218 8
                  20004498.211 8
  19686167.117 5                                 105270982.770 5  81877282.974 9
                  19686173.004 9
  20638127.773 7                                 110438787.430 7  85896837.706 9
                  20638131.211 9
 19  5 27 10  6 40.0000000  0 14G02G06G12G14G24G25G29G31G32R09R10R11
                                R20R21
  22603976.883 4                                 118784844.980 4  92559505.13746
                  22603976.44546
  23542670.336 4  23542678.129 8  23542675.250 8 123717464.310 4  96403314.736 8
  92386524.613 8  23542675.00045
  20783017.195 7  20783019.391 9                 109215493.125 7  85102983.730 9
                  20783018.90648
  22536976.375 4                                 118432506.162 4
                
  23555143.141 3  23555149.371 8  23555148.941 8 123783102.537 3  96454380.447 8
  92435469.379 8  23555149.04345
  20228788.898 7  20228793.816 9  20228795.984 9 106303000.460 7  82833526.857 9
  79382136.366 9  20228793.33248
  21149896.188 6  21149899.047 9                 111143458.823 6  86605309.291 9
                  21149898.84048
  22758792.922 5  22758793.145 8                 119598471.271 5  93193605.820 8
                  22758793.54346
  22545110.992 6  22545116.477 9  22545116.520 9 118475349.207 6  92318481.703 9
  88471870.388 9  22545116.68048
  22844102.273 5                                 121986316.988 5  94878164.090 8
                  22844105.359 8
  19639047.063 6                                 104687216.995 6  81423378.913 8
                  19639054.832 8
  20000976.984 7                                 106879130.351 7  83128234.661 8
                  20000979.383 8
  19685626.016 5                                 105268084.928 5  81875029.090 9
                  19685631.188 9
  20633496.836 7                                 110414007.261 7  85877564.239 9
                  20633500.031 9
 19  5 27 10  6 45.0000000  0 14G02G06G12G14G24G25G29G31G32R09R10R11
                                R20R21
  22602384.906 5                                 118776469.872 5  92552979.06046
                  22602383.06346
  23542941.836 2  23542948.965 7  23542948.117 8 123718896.169 2  96404430.435 7
  92387593.895 8  23542947.74645
  20783514.289 7  20783515.746 9                 109218101.892 7  85105016.517 9
                  20783515.91048
  22535746.383 3                                 118426046.794 3
                
  23557192.570 4  23557195.613 8  23557197.309 8 123793863.026 4  96462765.261 8
  92443504.805 8  23557196.23845
  20227016.734 7  20227020.930 9  20227022.891 9 106293685.858 7  82826268.714 9
  79375180.656 9  20227020.53148
  21146138.273 6  21146141.859 9                 111123713.661 6  86589923.451 9
                  21146142.05148
  22754649.023 5  22754650.773 8                 119576702.688 5  93176643.312 8
                  22754651.18846
  22545316.641 6  22545322.270 9  22545322.703 9 118476429.420 6  92319323.403 9
  88472677.021 9  22545322.62948
  22846079.398 5                                 121996872.590 5  94886373.996 8
                  22846081.582 8
  19639140.211 6                                 104687712.251 6  81423764.098 8
                  19639147.770 8
  19997459.828 7                                 106860334.017 7  83113615.285 8
                  19997461.930 8
  19685088.148 5                                 105265210.324 5  81872793.272 9
                  19685093.664 9
  20628870.344 7                                 110389242.396 7  85858302.678 9
                  20628871.598 9
 19  5 27 10  6 50.0000000  0 14G02G06G12G14G24G25G29G31G32R09R10R11
                                R20R21
  22600793.383 5                                 118768109.309 5  92546464.32046
                  22600792.14146
  23543216.117 1  23543223.066 7  23543223.969 8 123720342.670 1  96405557.508 7
  92388674.044 8  23543223.07445
  20784012.438 7  20784013.793 9                 109220718.898 7  85107055.755 9
                  20784013.93048
  22534518.930 2                                 118419603.440 2
                
  23559240.727 4  23559244.563 8  23559246.199 8 123804627.829 4  96471153.426 8
  92451543.452 8  23559244.42246
  20225246.445 7  20225250.246 9  20225252.504 9 106284382.201 7  82819019.101 9
  79368233.111 9  20225250.02748
  21142383.703 6  21142386.910 9                 111103980.220 6  86574546.776 9
                  21142386.75448
  22750509.070 5  22750510.555 8                 119554941.604 5  93159686.627 8
                  22750509.93446
  22545524.023 6  22545530.570 9  22545530.082 9 118477523.669 6  92320176.051 9
  88473494.142 9  22545530.94548
  22848057.172 5                                 122007434.059 5  94894588.444 8
                  22848059.949 8
  19639235.195 6                                 104688221.411 6  81424160.120 8
                  19639243.059 8
  19993944.063 7                                 106841547.739 7  83099003.747 8
                  19993947.066 8
  19684556.148 5                                 105262358.358 5  81870575.118 9
                  19684560.477 9
  20624244.242 7                                 110364492.179 7  85839052.494 9
                  20624247.605 9
 19  5 27 10  6 55.0000000  0 14G02G06G12G14G24G25G29G31G32R09R10R11
                                R20R21
  22599204.086 5                                 118759761.625 5  92539959.63446
                  22599203.64846
  23543493.453 2  23543500.211 7  23543501.910 8 123721802.201 2  96406694.929 7
  92389764.095 8  23543500.95745
  20784511.266 7  20784513.094 9                 109223342.544 7  85109100.172 9
                  20784513.07848
  22533297.492 3                                 118413174.387 3
                
  23561287.523 2  23561294.152 8  23561295.520 8 123815395.496 2  96479543.756 8
  92459584.204 8  23561293.10245
  20223477.742 7  20223481.297 9  20223483.605 9 106275087.818 7  82811776.721 9
  79361292.503 9  20223481.41848
  21138630.703 7  21138634.059 9                 111084256.882 7  86559177.918 9
                  21138633.89848
  22746370.891 5  22746369.992 8                 119533186.143 5  93142734.269 8
                  22746369.59846
  22545735.547 6  22545740.785 9  22545740.688 9 118478630.246 6  92321038.315 9
  88474320.481 9  22545740.84848
  22850035.305 5                                 122017999.792 5  94902806.253 8
                  22850039.340 8
  19639333.391 7                                 104688742.723 7  81424565.588 8
                  19639340.738 8
  19990430.516 8                                 106822769.754 8  83084398.689 8
                  19990433.855 8
  19684025.406 5                                 105259527.318 5  81868373.171 9
                  19684030.566 9
  20619621.883 7                                 110339754.873 7  85819812.368 9
                  20619625.453 9
 19  5 27 10  7  0.0000000  0 14G02G06G12G14G24G25G29G31G32R09R10R11
                                R20R21
  22597618.984 5                                 118751429.007 5  92533466.68246
                  22597618.05546
  23543776.688 3  23543780.277 7  23543783.555 8 123723277.106 3  96407844.152 7
  92390865.489 8
  20785012.281 7  20785014.289 9                 109225975.019 7  85111151.450 9
                  20785013.72748
  22532076.789 4                                 118406761.891 4
                
  23563339.633 4  23563344.320 8  23563346.219 8 123826168.118 4  96487937.942 8
  92467628.652 8  23563343.03945
  20221711.250 7  20221715.191 9  20221717.090 9 106265804.919 7  82804543.283 9
  79354360.471 9  20221715.19548
  21134880.469 6  21134883.426 9                 111064545.807 6  86543818.633 9
                  21134883.44148
  22742231.602 5  22742231.859 8                 119511438.676 5  93125788.221 8
                  22742231.18846
  22545948.992 6  22545954.016 9  22545954.199 9 118479751.353 6  92321911.904 9
  88475157.660 9  22545954.12548
  22852015.414 5                                 122028571.838 5  94911028.914 8
                  22852018.395 8
  19639433.648 6                                 104689278.399 6  81424982.223 8
                  19639440.066 8
  19986917.641 8                                 106804002.372 8  83069801.821 8
                  19986921.383 8
  19683500.938 6                                 105256719.483 6  81866189.298 9
                  19683506.207 9
  20615002.102 7                                 110315032.782 7  85800584.074 9
                  20615004.828 9
 19  5 27 10  7  5.0000000  0 14G02G06G12G14G24G25G29G31G32R09R10R11
                                R20R21
  22596035.398 5                                 118743110.989 5  92526985.12446
                  22596035.45346
  23544060.242 4  23544063.242 7  23544067.637 8 123724766.810 4  96409004.932 7
  92391977.906 8
  20785514.578 7  20785516.535 9                 109228615.793 7  85113209.188 9
                  20785515.98848
  22530858.961 3                                 118400365.424 3
                
  23565390.305 3  23565395.371 8  23565397.563 8 123836945.014 3  96496335.470 8
  92475676.245 8  23565393.61745
  20219946.984 7  20219950.633 9  20219952.676 9 106256533.001 7  82797318.412 9
  79347436.625 9  20219951.01648
  21131131.578 7  21131135.023 9                 111044846.504 7  86528468.525 9
                  21131134.99648
  22738095.266 5  22738094.688 8                 119489698.614 5  93108847.865 8
                  22738093.97346
  22546164.820 6  22546170.527 9  22546170.563 9 118480886.505 6  92322796.453 9
  88476005.323 9  22546169.96147
  22853997.313 5                                 122039149.735 5  94919256.181 8
                  22854000.297 8
  19639536.672 7                                 104689827.928 7  81425409.636 8
                  19639543.086 8
  19983407.914 7                                 106785245.101 7  83055212.827 8
                  19983411.578 8
  19682979.219 5                                 105253934.258 5  81864023.003 9
                  19682985.770 9
  20610383.516 7                                 110290325.429 7  85781367.255 9
                  20610388.047 9
 19  5 27 10  7 10.0000000  0 14G02G06G12G14G24G25G29G31G32R09R10R11
                                R20R21
  22594454.898 5                                 118734805.948 5  92520513.64046
                  22594455.27046
  23544345.547 4  23544348.777 7  23544353.582 8 123726269.599 4  96410175.960 7
  92393100.100 8
  20786018.930 7  20786020.039 9                 109231263.258 7  85115272.135 9
                  20786019.77348
  22529641.977 2                                 118393983.402 2
                
  23567444.328 3  23567445.891 8  23567448.973 8 123847724.526 3  96504735.082 8
  92483725.849 8  23567444.03545
  20218184.500 7  20218188.707 9  20218190.508 9 106247270.462 7  82790100.844 9
  79340519.792 9  20218189.02348
  21127384.977 7  21127388.160 9                 111025157.484 7  86513126.407 9
                  21127387.75448
  22733959.977 5  22733959.043 8                 119467964.400 5  93091912.124 8
                  22733958.03546
  22546383.273 6  22546388.199 9  22546388.043 9 118482034.070 6  92323690.646 9
  88476862.253 9  22546387.85247
  22855980.250 5                                 122049731.789 5  94927486.673 8
                  22855981.855 8
  19639642.109 7                                 104690389.775 7  81425846.616 8
                  19639649.063 8
  19979899.477 7                                 106766496.226 7  83040630.360 8
                  19979902.598 8
  19682462.641 5                                 105251170.104 5  81861873.104 9
                  19682469.023 9
  20605769.039 7                                 110265631.113 7  85762160.574 9
                  20605772.672 9
 19  5 27 10  7 15.0000000  0 15G02G06G12G14G24G25G29G31G32R02R09R10
                                R11R20R21
  22592877.773 5                                 118726515.371 5  92514053.46146
                  22592877.50046
  23544633.844 4  23544636.973 7  23544642.539 8 123727787.036 4  96411358.319 7
  92394233.229 8
  20786523.602 7  20786525.426 9                 109233918.940 7  85117341.473 9
                  20786525.37148
  22528430.625 2                                 118387617.292 2
                
  23569495.273 3  23569497.848 8  23569501.734 8 123858508.380 3  96513138.041 8
  92491778.712 8  23569496.55945
  20216423.914 7  20216427.520 9  20216429.586 9 106238018.773 7  82782891.747 9
  79333611.065 9  20216427.87148
  21123640.156 7  21123643.672 9                 111005480.114 7  86497793.392 9
                  21123643.15648
  22729823.086 4  22729823.949 8                 119446237.597 4  93074982.152 8
                  22729823.26646
  22546603.813 6  22546609.375 9  22546609.879 9 118483195.536 6  92324595.669 9
  88477729.556 9  22546609.15647
  22710974.125 1                                 121190269.36511
                  22710972.418 7
  22857963.141 6                                 122060319.727 6  94935721.680 8
                  22857965.051 8
  19639750.922 7                                 104690965.138 7  81426294.124 8
                  19639756.707 8
  19976392.297 7                                 106747757.336 7  83026055.667 8
                  19976395.520 8
  19681950.102 5                                 105248428.467 5  81859740.701 9
                  19681956.016 9
  20601157.211 7                                 110240951.505 7  85742965.310 9
                  20601161.215 9
