     2.11           OBSERVATION DATA    Mixed(MIXED)        RINEX VERSION / TYPE
cnvtToRINEX 3.09.11 convertToRINEX OPR  29-May-19 08:33 UTC PGM / RUN BY / DATE 
----------------------------------------------------------- COMMENT             
1                                                           MARKER NAME         
1                                                           MARKER NUMBER       
GNSS Observer       Trimble                                 OBSERVER / AGENCY   
5216486001          TRIMBLE R8 GNSS3    4.44                REC # / TYPE / VERS 
                    TRM60158.00                             ANT # / TYPE        
  4146347.3608   611812.3688  4791819.3981                  APPROX POSITION XYZ 
        0.0000        0.0000        0.0000                  ANTENNA: DELTA H/E/N
     1     1     0                                          WAVELENGTH FACT L1/2
     7    C1    C2    C5    L1    L2    L5    P2            # / TYPES OF OBSERV 
  2019     5    27     8    29    5.0000000     GPS         TIME OF FIRST OBS   
  2019     5    27     9    39   45.0000000     GPS         TIME OF LAST OBS    
     0                                                      RCV CLOCK OFFS APPL 
    18                                                      LEAP SECONDS        
    19                                                      # OF SATELLITES     
   G02   655     0     0   655   655     0   655            PRN / # OF OBS      
   G06   748   748   748   748  1496   748   748            PRN / # OF OBS      
   G12   748   748     0   748  1496     0   748            PRN / # OF OBS      
   G14   748     0     0   747   721     0   722            PRN / # OF OBS      
   G17    48    48     0    48    96     0    48            PRN / # OF OBS      
   G19   488     0     0   488   390     0   390            PRN / # OF OBS      
   G24   748   748   748   748  1496   748   748            PRN / # OF OBS      
   G25   748   748   748   748  1496   748   748            PRN / # OF OBS      
   G29   465   465     0   465   930     0   465            PRN / # OF OBS      
   G32   748   748   748   748  1496   748   748            PRN / # OF OBS      
   R01   746     0     0   746   746     0   746            PRN / # OF OBS      
   R02   116     0     0   114    88     0    90            PRN / # OF OBS      
   R08   386     0     0   386   386     0   386            PRN / # OF OBS      
   R09   748     0     0   748   748     0   748            PRN / # OF OBS      
   R10   748     0     0   748   748     0   748            PRN / # OF OBS      
   R11   647     0     0   647   647     0   647            PRN / # OF OBS      
   R19   677     0     0   676   677     0   677            PRN / # OF OBS      
   R20   748     0     0   748   748     0   748            PRN / # OF OBS      
   R21   274     0     0   274   274     0   274            PRN / # OF OBS      
CARRIER PHASE MEASUREMENTS: PHASE SHIFTS REMOVED            COMMENT             
                                                            END OF HEADER       
                            2  1
              *** Start of Kinematic Data ***               COMMENT             
 19  5 27  8 29  5.0000000  0 14G06G12G14G17G19G24G25G32R01R08R09R10
                                R19R20
  23759242.648 6  23759247.781 9  23759249.535 9 124855610.69916  97290144.32619
  93236385.57719  23759248.28547
  19955780.305 7  19955781.105 9                 104868331.40417  81715586.55819
                  19955781.10549
  24354579.773 2                                 127984050.79412
                
  24311314.477 3  24311318.215 8                 127756810.58313  99550764.48518
                  24311318.09046
  22297539.938 6                                 117174358.51416  91304691.76257
                  22297539.72347
  20579474.164 7  20579478.617 9  20579480.453 9 108145844.54017  84269524.26619
  80758290.44819  20579478.68049
  22095810.586 6  22095815.770 9  22095817.141 9 116114226.86216  90478675.45919
  86708727.50219  22095815.71548
  22843318.898 6  22843324.270 9  22843323.816 9 120042415.35716  93539594.64419
  89642106.91619  22843324.15248
  21732985.844 5                                 116175192.43015  90358566.99018
                  21732993.563 8
  21760384.469 6                                 116525859.65516  90631220.44519
                  21760387.996 9
  19967453.984 7                                 106625084.82117  82930622.34719
                  19967457.664 9
  19669131.883 8                                 104847541.60818  81548085.74519
                  19669138.703 9
  20519863.477 4                                 109767435.20314  85374680.94819
                  20519866.488 9
  21629292.219 5                                 115661804.48115  89959018.65819
                  21629296.809 9
 19  5 27  8 29 10.0000000  0 14G06G12G14G17G19G24G25G32R01R08R09R10
                                R19R20
  23756108.172 6  23756114.168 9  23756115.453 9 124839138.282 6  97277308.674 9
  93224084.747 9  23756114.03147
  19953939.594 8  19953940.191 9                 104858658.640 8  81708049.354 9
                  19953940.27749
  24350422.414 1                                 127962215.099 1
                
  24312889.898 3  24312893.332 8                 127765087.114 3  99557213.703 8
                  24312893.34446
  22298496.273 6                                 117179382.484 6  91308606.55047
                  22298496.29747
  20579633.156 7  20579637.605 9  20579639.105 9 108146682.879 7  84270177.496 9
  80758916.483 9  20579637.62549
  22091914.266 7  22091919.543 9  22091920.664 9 116093749.067 7  90462718.754 9
  86693435.656 9  22091919.41448
  22840028.633 6  22840033.777 9  22840032.770 9 120025122.416 6  93526119.609 9
  89629193.341 9  22840033.75048
  21731495.883 5                                 116167225.842 5  90352370.767 8
                  21731503.305 8
  21761730.039 6                                 116533059.141 6  90636820.040 9
                  21761732.645 9
  19967646.359 8                                 106626110.904 8  82931420.413 9
                  19967648.949 9
  19666549.977 8                                 104833772.121 8  81537376.136 9
                  19666555.570 9
  20518751.039 3                                 109761477.498 3  85370047.166 9
                  20518752.691 9
  21624332.227 5                                 115635280.186 5  89938388.645 9
                  21624336.707 9
                            3  5
              *** Start of Occupation ***                   COMMENT             
1                                                           MARKER NAME         
1                                                           MARKER NUMBER       
  4146347.3608   611812.3688  4791819.3981                  APPROX POSITION XYZ 
        0.0000        0.0000        0.0000                  ANTENNA: DELTA H/E/N
 19  5 27  8 29 15.0000000  0 14G06G12G14G17G19G24G25G32R01R08R09R10
                                R19R20
  23752975.805 6  23752981.492 9  23752983.578 9 124822676.781 6  97264481.526 9
  93211792.078 9  23752981.03947
  19952100.945 7  19952101.898 9                 104848997.134 7  81700520.919 9
                  19952101.97749
  24346270.781 1                                 127940386.267 1
                
  24314465.617 3  24314469.340 8                 127773368.954 3  99563667.080 8
                  24314469.59445
  22299454.922 6                                 117184419.347 6  91312531.38447
                  22299454.86747
  20579794.914 7  20579799.434 9  20579800.367 9 108147531.729 7  84270838.930 9
  80759550.356 9  20579799.06349
  22088018.883 7  22088023.461 9  22088024.648 9 116073277.904 7  90446767.222 9
  86678148.767 9  22088023.52048
  22836740.258 6  22836745.754 9  22836744.848 9 120007841.921 6  93512654.304 9
  89616289.081 9  22836745.82448
  21730009.906 5                                 116159280.550 5  90346191.113 8
                  21730016.691 8
  21763076.594 7                                 116540272.919 7  90642430.738 9
                  21763079.844 9
  19967840.523 8                                 106627145.793 8  82932225.309 9
                  19967842.910 9
  19663967.781 8                                 104820011.203 8  81526673.202 9
                  19663974.695 9
  20517639.648 4                                 109755542.562 4  85365431.086 9
                  20517643.414 9
  21619373.758 5                                 115608766.653 5  89917767.032 9
                  21619379.242 9
 19  5 27  8 29 20.0000000  0 14G06G12G14G17G19G24G25G32R01R08R09R10
                                R19R20
  23749844.367 6  23749850.801 9  23749852.512 9 124806227.108 6  97251663.596 9
  93199508.238 9  23749850.15247
  19950264.539 7  19950266.293 9                 104839347.817 7  81693001.955 9
                  19950265.68049
  24342116.938 1                                 127918565.111 1
                
  24316043.336 3  24316045.922 8                 127781657.193 3  99570125.443 8
                  24316046.77745
  22300415.688 6                                 117189470.007 6  91316466.93847
                  22300416.10947
  20579958.648 7  20579963.234 9  20579964.109 9 108148392.167 7  84271509.408 9
  80760192.881 9  20579962.56649
  22084124.930 7  22084129.594 9  22084130.805 9 116052814.354 7  90430821.588 9
  86662867.546 9  22084129.20748
  22833454.547 6  22833459.297 9  22833458.969 9 119990574.815 6  93499199.433 9
  89603394.807 9  22833459.71547
  21728528.484 5                                 116151357.570 5  90340028.787 8
                  21728534.398 8
  21764426.438 6                                 116547502.002 6  90648053.367 9
                  21764429.672 9
  19968035.625 8                                 106628190.342 8  82933037.740 9
                  19968038.711 9
  19661387.672 8                                 104806259.897 8  81515977.735 9
                  19661394.750 9
  20516534.813 4                                 109749631.474 4  85360833.580 9
                  20516538.449 9
  21614417.258 5                                 115582264.947 5  89897154.595 9
                  21614423.352 9
 19  5 27  8 29 25.0000000  0 14G06G12G14G17G19G24G25G32R01R08R09R10
                                R19R20
  23746716.602 6  23746722.742 9  23746723.656 9 124789788.860 6  97238854.587 9
  93187232.922 9  23746722.11747
  19948430.727 7  19948431.980 9                 104829710.301 7  81685492.197 9
                  19948431.69949
  24337965.625 1                                 127896751.326 1
                
  24317621.898 4  24317625.078 8                 127789951.309 4  99576588.418 8
                  24317625.12946
  22301379.430 6                                 117194533.959 6  91320412.86747
                  22301380.07447
  20580124.656 7  20580129.387 9  20580130.047 9 108149263.571 7  84272188.402 9
  80760843.600 9  20580128.80149
  22080232.133 7  22080236.750 9  22080237.949 9 116032357.987 7  90414881.587 9
  86647591.683 9  22080236.52748
  22830171.500 6  22830176.074 9  22830175.543 9 119973320.686 6  93485754.621 9
  89590510.227 9  22830176.16848
  21727050.430 6                                 116143456.514 6  90333883.523 8
                  21727056.828 8
  21765778.852 6                                 116554745.789 6  90653687.406 9
                  21765781.906 9
  19968232.500 7                                 106629244.229 7  82933857.411 9
                  19968235.637 9
  19658810.344 8                                 104792517.828 8  81505289.457 9
                  19658816.965 9
  20515436.016 4                                 109743743.656 4  85356254.174 9
                  20515437.309 9
  21609462.734 5                                 115555774.495 5  89876550.909 9
                  21609468.633 9
 19  5 27  8 29 30.0000000  0 14G06G12G14G17G19G24G25G32R01R08R09R10
                                R19R20
  23743591.031 6  23743597.520 9  23743598.668 9 124773362.962 6  97226055.167 9
  93174966.812 9  23743597.07047
  19946599.063 8  19946600.262 9                 104820085.452 8  81677992.322 9
                  19946599.84449
  24333814.633 1                                 127874945.746 1
                
  24319202.531 5  24319203.934 8                 127798252.112 5  99583056.537 8
                  24319204.31346
  22302345.430 6                                 117199612.103 6  91324369.85847
                  22302346.14847
  20580292.719 7  20580297.406 9  20580297.965 9 108150146.859 7  84272876.680 9
  80761503.193 9  20580296.65649
  22076341.250 7  22076346.043 9  22076347.168 9 116011909.673 7  90398947.836 9
  86632321.824 9  22076345.33248
  22826890.359 6  22826895.406 9  22826895.563 9 119956080.417 6  93472320.642 9
  89577635.997 9  22826895.60248
  21725576.102 5                                 116135578.201 5  90327755.951 8
                  21725582.949 8
  21767134.680 6                                 116562005.350 6  90659333.739 9
                  21767137.301 9
  19968432.266 7                                 106630308.267 7  82934685.003 9
                  19968435.148 9
  19656234.469 8                                 104778785.880 8  81494609.056 9
                  19656241.395 9
  20514338.703 3                                 109737880.052 3  85351693.585 9
                  20514341.371 9
  21604511.656 5                                 115529296.405 5  89855956.864 9
                  21604517.887 9
 19  5 27  8 29 35.0000000  0 14G06G12G14G17G19G24G25G32R01R08R09R10
                                R19R20
  23740466.820 5  23740473.637 9  23740474.816 9 124756948.586 5  97213264.726 9
  93162709.324 9  23740473.80547
  19944769.922 7  19944771.105 9                 104810472.428 7  81670501.654 9
                  19944770.87949
  24329668.414 1                                 127853147.594 1
                
  24320783.422 5  24320784.980 8                 127806558.771 5  99589529.265 8
                  24320785.30146
  22303314.320 6                                 117204703.581 6  91328337.24347
                  22303314.91447
  20580462.539 7  20580467.383 9  20580468.195 9 108151041.293 7  84273573.638 9
  80762171.108 9  20580466.53949
  22072451.102 7  22072455.648 9  22072457.426 9 115991468.596 7  90383019.721 9
  86617057.390 9  22072455.18048
  22823612.711 6  22823617.086 9  22823617.191 9 119938853.207 6  93458896.840 9
  89564771.521 9  22823617.29348
  21724105.664 5                                 116127721.883 5  90321645.501 8
                  21724112.992 8
  21768492.297 6                                 116569279.587 6  90664991.479 9
                  21768496.879 9
  19968632.945 7                                 106631381.767 7  82935519.934 9
                  19968636.008 9
  19653659.695 8                                 104765063.241 8  81483935.909 9
                  19653666.461 9
  20513246.031 3                                 109732039.850 3  85347151.214 9
                  20513248.898 9
  21599561.938 5                                 115502829.819 5  89835371.745 9
                  21599568.281 9
 19  5 27  8 29 40.0000000  0 14G06G12G14G17G19G24G25G32R01R08R09R10
                                R19R20
  23737345.336 5  23737352.547 9  23737353.648 9 124740547.212 5  97200484.432 9
  93150461.546 9  23737352.52047
  19942943.109 7  19942944.219 9                 104800872.709 7  81663021.351 9
                  19942943.89849
  24325520.289 1                                 127831358.392 1
                
  24322365.703 5  24322366.957 8                 127814872.806 5  99596007.728 8
                  24322366.92246
  22304285.281 6                                 117209809.894 6  91332316.19147
                  22304286.64147
  20580635.477 7  20580640.004 9  20580640.891 9 108151948.289 7  84274280.394 9
  80762848.411 9  20580639.46949
  22068562.625 7  22068567.320 9  22068568.785 9 115971036.277 7  90367098.426 9
  86601799.489 9  22068566.83648
  22820336.898 6  22820341.574 9  22820342.105 9 119921640.520 6  93445484.366 9
  89551917.902 9  22820341.79748
  21722640.164 6                                 116119888.862 6  90315553.148 8
                  21722647.688 8
  21769854.398 6                                 116576570.237 6  90670661.974 9
                  21769857.566 9
  19968836.867 8                                 106632465.979 8  82936363.208 9
                  19968838.996 9
  19651087.289 8                                 104751351.401 8  81473271.139 9
                  19651094.348 9
  20512160.898 4                                 109726224.556 4  85342628.208 9
                  20512162.266 9
  21594615.422 5                                 115476376.265 5  89814796.761 9
                  21594621.184 9
 19  5 27  8 29 45.0000000  0 14G06G12G14G17G19G24G25G32R01R08R09R10
                                R19R20
  23734226.500 5  23734233.641 9  23734234.594 9 124724157.154 5  97187712.958 9
  93138222.216 9  23734233.34847
  19941118.781 7  19941120.164 9                 104791284.608 7  81655550.095 9
                  19941119.78149
  24321377.227 1                                 127809576.389 1
                
  24323948.875 5  24323950.227 8                 127823192.507 5  99602490.591 8
                  24323950.56346
  22305259.633 6                                 117214929.328 6  91336305.35647
                  22305260.93847
  20580809.859 7  20580814.824 9  20580815.746 9 108152866.364 7  84274995.776 9
  80763533.985 9  20580814.37949
  22064675.430 7  22064680.813 9  22064682.598 9 115950610.963 7  90351182.586 9
  86586546.817 9  22064680.41448
  22817063.367 6  22817068.371 9  22817068.496 9 119904440.676 6  93432081.886 9
  89539073.855 9  22817068.59848
  21721179.477 5                                 116112077.605 5  90309477.740 8
                  21721185.969 8
  21771218.820 6                                 116583875.254 6  90676343.640 9
                  21771222.109 9
  19969041.938 8                                 106633559.365 8  82937213.608 9
                  19969044.203 9
  19648517.258 8                                 104737648.555 8  81462613.373 9
                  19648523.816 9
  20511078.602 4                                 109720432.409 4  85338123.209 9
                  20511080.012 9
  21589670.438 5                                 115449934.021 5  89794230.567 9
                  21589676.508 9
 19  5 27  8 29 50.0000000  0 14G06G12G14G17G19G24G25G32R01R08R09R10
                                R19R20
  23731110.586 6  23731117.023 9  23731118.059 9 124707779.934 6  97174951.492 9
  93125992.475 9  23731117.04747
  19939297.063 7  19939297.563 9                 104781709.579 7  81648089.041 9
                  19939297.29749
  24317234.547 1                                 127787803.059 1
                
  24325533.016 5  24325535.207 8                 127831519.313 5  99608978.989 8
                  24325534.88346
  22306237.281 6                                 117220063.326 6  91340305.85747
                  22306237.68847
  20580987.227 7  20580991.680 9  20580993.137 9 108153796.665 7  84275720.688 9
  80764228.692 9  20580991.53549
  22060790.789 7  22060795.422 9  22060797.512 9 115930194.160 7  90335273.394 9
  86571300.497 9  22060794.85548
  22813793.250 6  22813798.227 9  22813798.875 9 119887255.179 6  93418690.566 9
  89526240.508 9  22813798.50847
  21719722.477 5                                 116104289.529 5  90303420.318 8
                  21719729.063 8
  21772585.391 6                                 116591196.321 6  90682037.813 9
                  21772589.043 9
  19969248.078 8                                 106634663.321 8  82938072.230 9
                  19969251.313 9
  19645947.820 8                                 104723956.228 8  81451963.794 9
                  19645954.680 9
  20509998.430 4                                 109714664.896 4  85333637.373 9
                  20510001.879 9
  21584728.383 5                                 115423504.453 5  89773674.249 9
                  21584734.043 9
 19  5 27  8 29 55.0000000  0 14G06G12G14G17G19G24G25G32R01R08R09R10
                                R19R20
  23727995.930 6  23728003.273 9  23728004.410 9 124691413.883 6  97162198.739 9
  93113771.075 9  23728002.98847
  19937477.008 7  19937478.113 9                 104772146.020 7  81640636.916 9
                  19937477.82049
  24313092.813 1                                 127766036.937 1
                
  24327118.836 5  24327120.758 8                 127839851.658 5  99615471.699 8
                  24327120.82446
  22307216.797 6                                 117225210.272 6  91344316.46347
                  22307216.49647
  20581166.539 7  20581171.145 9  20581172.051 9 108154737.732 7  84276453.976 9
  80764931.425 9  20581171.09449
  22056906.891 7  22056911.090 9  22056913.000 9 115909784.268 7  90319369.565 9
  86556059.359 9  22056910.81348
  22810525.742 6  22810529.836 9  22810530.055 9 119870082.395 6  93405309.196 9
  89513416.696 9  22810529.62947
  21718269.789 6                                 116096523.087 6  90297379.761 8
                  21718275.961 8
  21773954.953 6                                 116598531.824 6  90687743.213 9
                  21773958.285 9
  19969456.492 8                                 106635776.280 8  82938937.873 9
                  19969459.629 9
  19643380.953 8                                 104710272.700 8  81441321.047 9
                  19643388.176 9
  20508924.883 4                                 109708920.411 4  85329169.448 9
                  20508928.113 9
  21579787.070 5                                 115397086.233 5  89753126.754 9
                  21579794.285 9
 19  5 27  8 30  0.0000000  0 14G06G12G14G17G19G24G25G32R01R08R09R10
                                R19R20
  23724883.633 6  23724890.680 9  23724892.063 9 124675059.774 6  97149455.303 9
  93101558.608 9  23724890.34447
  19935659.172 7  19935660.230 9                 104762594.618 7  81633194.261 9
                  19935659.93849
  24308952.797 1                                 127744278.515 1
                
  24328704.797 4  24328707.496 8                 127848190.118 4  99621969.208 8
                  24328707.00846
  22308198.703 6                                 117230370.876 6  91348337.71047
                  22308199.25047
  20581347.070 7  20581352.086 9  20581353.414 9 108155690.341 7  84277196.255 9
  80765642.776 9  20581352.16449
  22053024.664 7  22053028.559 9  22053031.066 9 115889382.015 7  90303471.703 9
  86540823.900 9  22053028.06348
  22807260.211 6  22807264.781 9  22807265.086 9 119852923.074 6  93391938.307 9
  89500602.919 9  22807264.89547
  21716822.922 6                                 116088778.864 6  90291356.483 8
                  21716828.074 8
  21775328.094 6                                 116605882.308 6  90693460.242 9
                  21775331.078 9
  19969666.078 8                                 106636898.900 8  82939811.018 9
                  19969669.813 9
  19640815.398 8                                 104696598.708 8  81430685.722 9
                  19640821.773 9
  20507854.883 3                                 109703199.657 3  85324719.971 9
                  20507857.363 9
  21574850.195 5                                 115370679.931 5  89732588.529 9
                  21574856.207 9
 19  5 27  8 30  5.0000000  0 14G06G12G14G17G19G24G25G32R01R08R09R10
                                R19R20
  23721774.352 6  23721780.672 9  23721781.824 9 124658718.164 6  97136721.604 9
  93089355.492 9  23721779.98847
  19933843.820 7  19933845.539 9                 104753055.958 7  81625761.537 9
                  19933844.85249
  24304812.570 1                                 127722528.556 1  99524166.41055
                  24304818.73045
  24330292.836 4  24330295.539 8                 127856535.373 4  99628471.981 8
                  24330295.61346
  22309182.906 5                                 117235545.674 5  91352370.01247
                  22309183.87547
  20581530.875 7  20581535.617 9  20581536.980 9 108156654.855 7  84277947.825 9
  80766363.032 9  20581535.91049
  22049143.422 7  22049147.930 9  22049150.051 9 115868987.896 7  90287580.176 9
  86525594.527 9  22049147.22348
  22803997.008 6  22804002.348 9  22804002.047 9 119835777.773 6  93378578.324 9
  89487799.604 9  22804002.03147
  21715377.086 6                                 116081057.541 6  90285351.004 8
                  21715384.195 8
  21776703.883 6                                 116613248.483 6  90699189.477 9
                  21776707.379 9
  19969879.531 8                                 106638031.796 8  82940692.149 9
                  19969881.598 9
  19638252.656 8                                 104682935.072 8  81420058.457 9
                  19638259.000 9
  20506789.430 4                                 109697503.215 4  85320289.396 9
                  20506792.152 9
  21569913.227 5                                 115344285.958 5  89712059.901 9
                  21569919.766 9
 19  5 27  8 30 10.0000000  0 14G06G12G14G17G19G24G25G32R01R08R09R10
                                R19R20
  23718666.797 6  23718673.133 9  23718674.324 9 124642388.546 6  97123997.224 9
  93077161.302 9  23718672.78547
  19932030.711 7  19932032.609 9                 104743529.530 7  81618338.341 9
                  19932032.26249
  24300675.070 1                                 127700786.496 1  99507224.54145
                  24300681.46945
  24331881.242 4  24331884.438 8                 127864886.787 4  99634979.545 8
                  24331884.69946
  22310170.578 6                                 117240734.123 6  91356412.96247
                  22310171.13747
  20581717.141 7  20581721.293 9  20581722.441 9 108157631.029 7  84278708.471 9
  80767091.990 9  20581721.48849
  22045264.211 7  22045269.176 9  22045270.508 9 115848601.448 7  90271694.654 9
  86510370.889 9  22045268.08648
  22800737.102 6  22800742.602 9  22800741.605 9 119818645.968 6  93365228.892 9
  89475006.391 9  22800742.11747
  21713936.383 6                                 116073358.530 6  90279362.881 8
                  21713943.344 8
  21778082.617 6                                 116620629.676 6  90704930.382 9
                  21778086.234 9
  19970092.750 8                                 106639174.377 8  82941580.820 9
                  19970095.285 9
  19635691.617 8                                 104669281.220 8  81409438.799 9
                  19635697.750 9
  20505730.234 3                                 109691830.523 3  85315877.298 9
                  20505732.164 9
  21564981.164 5                                 115317904.138 5  89691540.692 9
                  21564987.094 9
 19  5 27  8 30 15.0000000  0 14G06G12G14G17G19G24G25G32R01R08R09R10
                                R19R20
  23715561.695 6  23715568.098 9  23715569.609 9 124626070.209 6  97111281.627 9
  93064975.530 9  23715567.48047
  19930220.664 7  19930221.844 9                 104734014.592 7  81610924.109 9
                  19930221.55949
  24296539.570 1                                 127679051.563 1  99490288.20445
                  24296545.32845
  24333471.313 2  24333475.578 8                 127873243.626 2  99641491.386 8
                  24333475.46546
  22311160.500 6                                 117245935.486 6  91360465.96647
                  22311160.78147
  20581904.750 7  20581909.168 9  20581910.445 9 108158617.947 7  84279477.506 9
  80767828.973 9  20581909.31649
  22041385.242 7  22041390.984 9  22041392.457 9 115828221.941 7  90255814.535 9
  86495152.430 9  22041390.21148
  22797480.039 6  22797485.281 9  22797484.363 9 119801526.923 6  93351889.367 9
  89462222.688 9  22797485.22347
  21712500.625 6                                 116065681.037 6  90273391.497 8
                  21712507.137 8
  21779465.563 7                                 116628025.187 7  90710682.445 9
                  21779466.305 9
  19970308.391 8                                 106640325.942 8  82942476.480 9
                  19970310.766 9
  19633131.578 8                                 104655636.319 8  81398826.104 8
                  19633137.293 8
  20504674.914 3                                 109686180.841 3  85311483.090 9
                  20504676.438 9
  21560049.188 5                                 115291533.644 5  89671030.319 9
                  21560055.027 9
 19  5 27  8 30 20.0000000  0 14G06G12G14G17G19G24G25G32R01R08R09R10
                                R19R20
  23712459.445 6  23712465.105 9  23712465.535 9 124609763.330 6  97098574.981 9
  93052798.309 9  23712464.52347
  19928412.227 7  19928413.793 9                 104724511.358 7  81603518.981 9
                  19928413.52749
  24292404.273 1                                 127657324.087 1  99473357.71345
                  24292410.24645
  24335062.672 2  24335066.938 8                 127881606.125 2  99648007.617 8
                  24335066.55546
  22312153.633 6                                 117251149.959 6  91364529.20047
                  22312152.99647
  20582094.484 7  20582099.238 9  20582100.090 9 108159615.721 7  84280255.004 9
  80768574.068 9  20582099.37149
  22037509.102 7  22037513.785 9  22037515.301 9 115807849.571 7  90239939.972 9
  86479939.308 9  22037513.52748
  22794224.242 6  22794230.285 9  22794229.230 9 119784420.895 6  93338560.007 9
  89449448.715 9  22794230.44547
  21711068.852 6                                 116058025.379 6  90267437.086 8
                  21711074.805 8
  21780848.047 6                                 116635435.255 6  90716445.818 9
                  21780851.234 9
  19970526.281 8                                 106641486.792 8  82943379.353 9
                  19970528.758 9
  19630573.547 8                                 104642000.528 8  81388220.472 9
                  19630579.465 9
  20503621.844 3                                 109680554.366 3  85307106.964 9
                  20503625.137 9
  21555119.922 5                                 115265174.558 5  89650528.820 9
                  21555126.637 9
 19  5 27  8 30 25.0000000  0 14G06G12G14G17G19G24G25G32R01R08R09R10
                                R19R20
  23709358.883 6  23709364.613 9  23709365.516 9 124593468.346 6  97085877.598 9
  93040629.968 9  23709364.09447
  19926605.328 7  19926607.125 9                 104715020.157 7  81596123.234 9
                  19926607.02749
  24288272.570 1                                 127635604.411 1  99456433.30745
                  24288277.03545
  24336655.234 2  24336659.020 8                 127889974.691 2  99654528.569 8
                  24336658.56346
  22313148.461 6                                 117256377.896 6  91368602.90747
                  22313147.59047
  20582286.508 7  20582291.230 9  20582292.219 9 108160624.938 7  84281041.391 9
  80769327.695 9  20582290.79749
  22033634.109 7  22033638.855 9  22033640.098 9 115787484.735 7  90224071.260 9
  86464731.805 9  22033638.55548
  22790971.844 6  22790977.320 9  22790976.316 9 119767328.278 6  93325241.100 9
  89436684.759 9  22790978.00047
  21709640.719 6                                 116050391.847 6  90261499.899 8
                  21709645.992 8
  21782235.273 6                                 116642860.105 6  90722220.694 9
                  21782236.086 9
  19970745.266 8                                 106642657.096 8  82944289.593 9
                  19970747.949 9
  19628016.805 8                                 104628374.115 8  81377622.153 9
                  19628023.219 9
  20502575.078 4                                 109674951.532 4  85302749.195 9
                  20502577.184 9
  21550193.961 6                                 115238827.524 6  89630036.693 9
                  21550199.344 9
 19  5 27  8 30 30.0000000  0 14G06G12G14G17G19G24G25G32R01R08R09R10
                                R19R20
  23706259.539 6  23706265.461 9  23706266.051 9 124577185.391 6  97073189.590 9
  93028470.635 9  23706265.56647
  19924802.047 7  19924803.441 9                 104705541.168 7  81588737.023 9
                  19924803.57049
  24284139.508 1                                 127613892.631 1  99439514.94545
                  24284145.19145
  24338248.805 3  24338252.492 8                 127898349.410 3  99661054.334 8
                  24338252.35546
  22314146.273 6                                 117261619.469 6  91372687.25147
                  22314145.08647
  20582480.938 7  20582484.988 9  20582486.453 9 108161645.630 7  84281836.733 9
  80770089.897 9  20582484.73449
  22029760.516 7  22029765.086 9  22029766.371 9 115767127.594 7  90208208.563 9
  86449530.051 9  22029765.41848
  22787721.586 6  22787727.141 9  22787726.547 9 119750249.171 6  93311932.708 9
  89423930.869 9  22787727.64547
  21708215.102 5                                 116042780.571 5  90255580.035 8
                  21708222.078 8
  21783623.609 6                                 116650299.850 6  90728007.150 9
                  21783625.918 9
  19970966.430 7                                 106643837.139 7  82945207.403 9
                  19970968.801 9
  19625462.680 8                                 104614757.368 8  81367031.352 9
                  19625468.684 9
  20501532.195 4                                 109669372.421 4  85298409.897 9
                  20501534.273 9
  21545267.938 5                                 115212492.553 5  89609553.954 9
                  21545274.766 9
 19  5 27  8 30 35.0000000  0 14G06G12G14G17G19G24G25G32R01R08R09R10
                                R19R20
  23703163.375 6  23703169.285 9  23703169.453 9 124560914.670 6  97060511.108 9
  93016320.426 9  23703169.32047
  19923001.219 7  19923001.867 9                 104696074.585 7  81581360.463 9
                  19923001.87549
  24280009.055 1                                 127592188.983 1  99422603.11145
                  24280014.90645
  24339844.484 2  24339847.781 8                 127906730.534 2  99667585.097 8
                  24339847.42645
  22315145.805 6                                 117266874.839 6  91376782.33147
                  22315145.09847
  20582677.477 7  20582681.762 9  20582683.574 9 108162677.982 7  84282641.166 9
  80770860.810 9  20582681.38749
  22025887.594 7  22025892.793 9  22025893.824 9 115746778.313 7  90192351.980 9
  86434334.170 9  22025892.69548
  22784474.242 6  22784479.418 9  22784478.227 9 119733183.880 6  93298635.053 9
  89411187.279 9  22784479.09047
  21706795.891 6                                 116035191.957 6  90249677.781 8
                  21706802.910 8
  21785015.563 6                                 116657754.808 6  90733805.444 9
                  21785018.156 9
  19971188.578 7                                 106645027.105 7  82946132.919 9
                  19971192.230 9
  19622910.375 8                                 104601150.804 8  81356448.471 9
                  19622915.945 9
  20500494.484 4                                 109663817.323 4  85294089.264 9
                  20500495.906 9
  21540344.500 5                                 115186169.890 5  89589080.773 9
                  21540352.230 9
 19  5 27  8 30 40.0000000  0 14G06G12G14G17G19G24G25G32R01R08R09R10
                                R19R20
  23700069.289 6  23700075.910 9  23700076.301 9 124544656.242 6  97047842.220 9
  93004179.406 9  23700075.75847
  19921202.039 7  19921202.914 9                 104686620.406 7  81573993.571 9
                  19921202.69549
  24275881.375 1                                 127570493.438 1  99405697.42045
                  24275886.06345
  24341440.641 2  24341443.805 8                 127915118.066 2  99674120.831 8
                  24341443.34045
  22316148.234 6                                 117272144.043 6  91380888.20247
                  22316148.42247
  20582875.742 7  20582880.609 9  20582881.828 9 108163721.904 7  84283454.605 9
  80771640.357 9  20582880.16849
  22022017.141 7  22022022.230 9  22022023.656 9 115726436.938 7  90176501.557 9
  86419144.182 9  22022021.88348
  22781229.453 6  22781234.348 9  22781233.418 9 119716132.302 6  93285348.118 9
  89398453.976 9  22781234.34047
  21705380.555 5                                 116027625.770 5  90243792.979 8
                  21705387.559 8
  21786411.234 6                                 116665224.919 6  90739615.510 9
                  21786412.953 9
  19971412.906 7                                 106646227.011 7  82947066.175 9
                  19971416.230 9
  19620359.758 8                                 104587554.284 8  81345873.391 9
                  19620366.164 9
  20499459.680 4                                 109658286.135 4  85289787.219 9
                  20499462.168 9
  21535424.641 5                                 115159859.438 5  89568617.100 9
                  21535431.793 9
 19  5 27  8 30 45.0000000  0 14G06G12G14G17G19G24G25G32R01R08R09R10
                                R19R20
  23696976.961 6  23696984.031 9  23696984.406 9 124528408.059 6  97035181.303 9
  92992046.031 9  23696983.68847
  19919404.430 7  19919405.711 9                 104677176.605 7  81566634.778 9
                  19919405.50449
  24271754.617 1                                 127548804.239 1  99388796.78245
                  24271758.34445
  24343037.422 3  24343039.820 8                 127923509.910 3  99680659.867 8
                  24343039.84446
  22317153.023 6                                 117277425.012 6  91385003.24047
                  22317153.00847
  20583076.727 7  20583080.895 9  20583082.641 9 108164775.632 7  84284275.683 9
  80772427.229 9  20583081.03949
  22018146.734 7  22018151.629 9  22018153.480 9 115706101.437 7  90160655.710 9
  86403958.584 9  22018151.64548
  22777987.461 6  22777992.348 9  22777991.352 9 119699092.469 6  93272070.321 9
  89385729.419 9  22777991.85947
  21703969.070 5                                 116020080.084 5  90237924.107 8
                  21703975.762 8
  21787809.461 6                                 116672708.207 6  90745435.837 9
                  21787810.789 9
  19971639.273 7                                 106647434.762 7  82948005.532 9
                  19971642.523 9
  19617810.625 8                                 104573965.563 8  81335304.395 9
                  19617817.348 9
  20498429.289 4                                 109652776.872 4  85285502.235 9
                  20498432.156 9
  21530506.758 5                                 115133559.445 5  89548161.544 9
                  21530513.676 9
 19  5 27  8 30 50.0000000  0 14G06G12G14G17G19G24G25G32R01R08R09R10
                                R19R20
  23693888.203 6  23693894.484 9  23693894.973 9 124512172.277 6  97022530.041 9
  92979921.929 9  23693894.25047
  19917609.922 7  19917610.977 9                 104667745.358 7  81559285.747 9
                  19917610.71549
  24267628.352 1                                 127527123.214 1  99371902.47545
                  24267632.62545
  24344635.750 3  24344638.914 8                 127931908.091 3  99687203.924 8
                  24344638.46146
  22318159.734 5                                 117282719.847 5  91389129.08847
                  22318160.70347
  20583278.930 7  20583283.645 9  20583285.113 9 108165841.139 7  84285105.938 9
  80773222.884 9  20583283.80949
  22014279.281 7  22014283.891 9  22014285.539 9 115685773.985 7  90144816.142 9
  86388778.995 9  22014283.76648
  22774747.453 6  22774752.113 9  22774750.977 9 119682066.589 6  93258803.407 9
  89373015.293 9  22774751.48847
  21702562.102 6                                 116012557.079 6  90232072.867 8
                  21702567.926 8
  21789208.211 6                                 116680206.587 6  90751267.905 9
                  21789211.469 9
  19971867.352 8                                 106648652.585 8  82948952.720 9
                  19971870.242 9
  19615262.992 8                                 104560386.863 8  81324743.180 9
                  19615269.742 9
  20497403.859 4                                 109647291.684 4  85281235.977 9
                  20497406.555 9
  21525590.906 5                                 115107272.009 5  89527715.759 9
                  21525597.246 9
 19  5 27  8 30 55.0000000  0 14G06G12G14G17G19G24G25G32R01R08R09R10
                                R19R20
  23690800.398 6  23690806.652 9  23690807.824 9 124495947.795 6  97009887.602 9
  92967806.268 9  23690806.75047
  19915817.500 7  19915818.340 9                 104658325.514 7  81551945.604 9
                  19915817.96149
  24263504.852 1                                 127505449.406 1  99355013.79245
                  24263508.43045
  24346234.750 3  24346238.207 8                 127940311.555 3  99693752.087 8
                  24346237.83245
  22319169.750 5                                 117288027.472 5  91393264.91547
                  22319171.09447
  20583484.094 7  20583488.203 9  20583489.473 9 108166917.330 7  84285944.532 9
  80774026.534 9  20583488.52049
  22010412.016 7  22010416.965 9  22010418.316 9 115665453.406 7  90128981.925 9
  86373604.544 9  22010416.66048
  22771509.961 6  22771514.871 9  22771513.734 9 119665053.483 6  93245546.442 9
  89360310.704 9  22771514.12547
  21701160.258 6                                 116005055.564 6  90226238.333 8
                  21701165.668 8
  21790610.602 6                                 116687719.039 6  90757110.931 9
                  21790615.105 9
  19972097.781 8                                 106649879.292 8  82949906.831 9
                  19972100.891 9
  19612717.414 8                                 104546816.914 8  81314188.770 8
                  19612723.512 8
  20496383.414 4                                 109641829.436 4  85276987.568 9
                  20496385.949 9
  21520677.195 5                                 115080995.857 5  89507278.764 9
                  21520683.559 9
 19  5 27  8 31  0.0000000  0 14G06G12G14G17G19G24G25G32R01R08R09R10
                                R19R20
  23687716.664 6  23687721.883 9  23687722.836 9 124479735.873 6  96997254.923 9
  92955699.972 9  23687722.00047
  19914027.359 7  19914028.582 9                 104648918.244 7  81544615.266 9
                  19914028.25449
  24259383.000 2                                 127483783.984 2  99338131.63445
                  24259385.46945
  24347836.125 4  24347837.574 8                 127948721.510 4  99700305.241 8
                  24347837.73045
  22320183.188 5                                 117293349.017 5  91397411.55447
                  22320183.56647
  20583691.031 7  20583695.316 9  20583696.625 9 108168005.293 7  84286792.290 9
  80774838.976 9  20583695.37949
  22006546.797 7  22006551.578 9  22006552.875 9 115645140.939 7  90113154.025 9
  86358436.146 9  22006551.09848
  22768275.156 6  22768279.934 9  22768279.035 9 119648054.354 6  93232300.370 9
  89347616.561 9  22768279.54747
  21699758.789 5                                 115997576.812 5  90220421.533 8
                  21699766.863 8
  21792016.328 6                                 116695246.881 6  90762965.918 9
                  21792020.652 9
  19972329.398 8                                 106651116.168 8  82950868.840 9
                  19972331.914 9
  19610173.453 8                                 104533257.072 8  81303642.231 8
                  19610179.770 8
  20495366.797 4                                 109636391.312 4  85272757.928 9
                  20495369.297 9
  21515765.742 5                                 115054732.376 5  89486851.613 9
                  21515772.051 9
 19  5 27  8 31  5.0000000  0 14G06G12G14G17G19G24G25G32R01R08R09R10
                                R19R20
  23684632.734 6  23684639.020 9  23684640.230 9 124463536.734 6  96984632.220 9
  92943603.202 9  23684639.39547
  19912239.664 7  19912240.387 9                 104639523.914 7  81537295.006 9
                  19912240.17649
  24255260.055 1                                 127462127.260 1  99321256.31745
                  24255263.87145
  24349437.727 5  24349439.473 8                 127957138.277 5  99706863.776 8
                  24349439.00046
  22321199.242 6                                 117298684.759 6  91401569.27247
                  22321198.92647
  20583900.570 7  20583904.988 9  20583905.988 9 108169105.512 7  84287649.599 9
  80775660.560 9  20583904.97749
  22002683.430 7  22002687.816 9  22002689.082 9 115624836.894 7  90097332.690 9
  86343274.040 9  22002687.42648
  22765042.977 6  22765047.242 9  22765047.172 9 119631069.568 6  93219065.488 9
  89334933.129 9  22765047.38747
  21698364.484 5                                 115990121.113 5  90214622.639 8
                  21698371.391 8
  21793424.484 6                                 116702790.264 6  90768832.966 9
                  21793428.352 9
  19972562.852 8                                 106652363.441 8  82951838.935 9
                  19972565.363 9
  19607631.727 8                                 104519707.949 8  81293104.028 9
                  19607637.875 9
  20494354.648 4                                 109630977.715 4  85268547.346 9
                  20494357.023 9
  21510856.266 5                                 115028481.873 5  89466434.553 9
                  21510862.770 9
 19  5 27  8 31 10.0000000  0 14G06G12G14G17G19G24G25G32R01R08R09R10
                                R19R20
  23681553.000 6  23681558.578 9  23681559.645 9 124447349.762 6  96972019.017 9
  92931515.536 9  23681558.57047
  19910454.063 7  19910455.461 9                 104630141.845 7  81529984.295 9
                  19910455.21549
  24251141.922 1                                 127440478.549 1  99304387.19045
                  24251143.53145
  24351039.813 5  24351042.375 8                 127965561.090 5  99713427.000 8
                  24351041.90246
  22322216.750 6                                 117304034.071 6  91405737.57747
                  22322216.49647
  20584111.805 7  20584116.391 9  20584117.512 9 108170217.183 7  84288515.841 9
  80776490.703 9  20584116.26649
  21998821.086 7  21998826.066 9  21998826.781 9 115604540.600 7  90081517.396 9
  86328117.720 9  21998825.41848
  22761813.469 6  22761818.105 9  22761817.750 9 119614098.462 6  93205841.241 9
  89322259.894 9  22761818.02347
  21696975.281 5                                 115982687.771 5  90208841.139 8
                  21696981.109 8
  21794836.547 6                                 116710348.588 6  90774711.657 9
                  21794840.953 9
  19972798.141 8                                 106653620.422 8  82952816.585 9
                  19972800.652 9
  19605091.289 8                                 104506168.594 8  81282573.417 9
                  19605097.945 9
  20493347.797 4                                 109625587.789 4  85264355.183 9
                  20493349.953 9
  21505950.250 5                                 115002243.594 5  89446027.011 9
                  21505956.609 9
 19  5 27  8 31 15.0000000  0 14G06G12G14G17G19G24G25G32R01R08R09R10
                                R19R20
  23678474.461 6  23678480.547 9  23678481.523 9 124431176.058 6  96959416.132 9
  92919437.762 9  23678480.10247
  19908671.359 7  19908672.387 9                 104620773.013 7  81522683.909 9
                  19908672.27049
  24247023.273 1                                 127418839.139 1  99287525.30045
                  24247025.72345
  24352644.094 5  24352646.434 8                 127973991.102 5  99719995.832 8
                  24352646.06346
  22323237.461 6                                 117309398.032 6  91409917.29647
                  22323236.77347
  20584326.023 7  20584330.344 9  20584332.000 9 108171341.355 7  84289391.814 9
  80777330.169 9  20584330.16449
  21994960.289 7  21994965.066 9  21994965.895 9 115584253.104 7  90065708.967 9
  86312967.974 9  21994964.76648
  22758587.148 6  22758591.633 9  22758591.145 9 119597142.076 6  93192628.473 9
  89309597.656 9  22758591.71547
  21695589.711 5                                 115975277.805 5  90203077.850 8
                  21695593.887 8
  21796250.898 6                                 116717922.791 6  90780602.711 9
                  21796255.680 9
  19973035.516 8                                 106654888.231 8  82953802.649 9
                  19973038.215 9
  19602553.898 8                                 104492640.021 8  81272051.197 9
                  19602559.930 9
  20492343.938 4                                 109620222.802 4  85260182.413 9
                  20492346.773 9
  21501046.320 5                                 114976019.013 5  89425630.118 9
                  21501052.781 9
 19  5 27  8 31 20.0000000  0 14G06G12G14G17G19G24G25G32R01R08R09R10
                                R19R20
  23675399.273 6  23675404.879 9  23675406.148 9 124415013.509 6  96946821.954 9
  92907368.357 9  23675404.78547
  19906890.586 7  19906892.008 9                 104611415.423 7  81515392.268 9
                  19906891.72749
  24242905.828 1                                 127397206.785 1  99270668.95345
                  24242909.66845
  24354248.703 5  24354251.836 8                 127982426.192 5  99726568.652 8
                  24354251.38346
  22324259.906 6                                 117314774.469 6  91414106.71047
                  22324259.71147
  20584541.984 7  20584546.414 9  20584548.020 9 108172475.995 7  84290275.945 9
  80778177.464 9  20584546.01249
  21991100.891 7  21991106.121 9  21991107.418 9 115563972.392 7  90049905.826 9
  86297823.285 9  21991105.64548
  22755362.813 6  22755367.148 9  22755366.738 9 119580198.352 6  93179425.584 9
  89296944.879 9  22755367.07447
  21694206.023 6                                 115967889.183 6  90197331.139 8
                  21694211.590 8
  21797667.047 6                                 116725510.812 6  90786504.503 9
                  21797672.832 9
  19973274.852 8                                 106656164.796 8  82954795.518 9
                  19973276.926 9
  19600017.680 8                                 104479120.152 8  81261535.736 9
                  19600023.656 9
  20491345.938 4                                 109614880.560 4  85256027.338 9
                  20491347.977 9
  21496143.820 5                                 114949805.555 5  89405241.890 9
                  21496150.168 9
 19  5 27  8 31 25.0000000  0 14G06G12G14G17G19G24G25G32R01R08R09R10
                                R19R20
  23672325.711 6  23672331.691 9  23672332.941 9 124398862.213 6  96934236.553 9
  92895307.328 9  23672331.10947
  19905111.789 7  19905113.332 9                 104602069.137 7  81508109.458 9
                  19905113.08249
  24238789.984 1                                 127375581.501 1  99253818.07545
                  24238794.52745
  24355855.461 5  24355857.871 8                 127990866.366 5  99733145.409 8
                  24355857.52346
  22325286.078 6                                 117320163.508 6  91418305.96347
                  22325286.07447
  20584759.703 7  20584764.102 9  20584766.066 9 108173621.187 7  84291168.302 9
  80779032.643 9  20584763.99649
  21987243.742 7  21987247.539 9  21987248.930 9 115543698.488 7  90034107.976 9
  86282683.691 9  21987247.21548
  22752141.039 6  22752145.039 9  22752145.227 9 119563267.369 6  93166232.602 9
  89284301.621 9  22752145.26648
  21692828.398 6                                 115960521.923 6  90191601.066 8
                  21692833.328 8
  21799086.859 6                                 116733112.688 6  90792417.065 9
                  21799092.293 9
  19973515.781 8                                 106657450.114 8  82955795.209 9
                  19973517.816 9
  19597482.828 8                                 104465609.269 8  81251027.278 9
                  19597489.512 9
  20490350.750 4                                 109609561.108 4  85251890.004 9
                  20490353.602 9
  21491244.195 5                                 114923603.510 5  89384862.527 9
                  21491250.461 9
 19  5 27  8 31 30.0000000  0 14G06G12G14G17G19G24G25G32R01R08R09R10
                                R19R20
  23669254.977 6  23669260.105 9  23669261.105 9 124382723.870 6  96921661.224 9
  92883255.995 9  23669259.21147
  19903335.828 8  19903337.586 9                 104592735.783 8  81500836.712 9
                  19903337.46549
  24234675.781 1                                                
                  24234680.50445
  24357463.352 5  24357465.164 8                 127999313.349 5  99739727.445 8
                  24357464.59446
  22326314.070 6                                 117325566.772 6  91422516.30547
                  22326314.10547
  20584980.070 7  20584984.547 9  20584986.680 9 108174778.626 7  84292070.202 9
  80779896.962 9  20584984.49649
  21983386.750 7  21983391.059 9  21983392.266 9 115523433.063 7  90018316.729 9
  86267550.416 9  21983390.72748
  22748922.102 6  22748926.008 9  22748925.965 9 119546350.813 6  93153050.870 9
  89271669.134 9  22748925.89147
  21691455.039 6                                 115953177.744 6  90185888.946 8
                  21691459.391 8
  21800509.086 6                                 116740729.986 6  90798341.609 9
                  21800514.012 9
  19973757.430 8                                 106658745.901 8  82956803.038 9
                  19973760.836 9
  19594950.109 8                                 104452108.907 8  81240526.979 9
                  19594956.820 9
  20489361.930 4                                 109604266.125 4  85247771.683 9
                  20489363.852 9
  21486347.234 5                                 114897414.520 5  89364493.320 9
                  21486353.223 9
 19  5 27  8 31 35.0000000  0 14G06G12G14G17G19G24G25G32R01R08R09R10
                                R19R20
  23666185.422 6  23666190.945 9  23666193.098 9 124366596.692 6  96909094.595 9
  92871212.978 9  23666190.09447
  19901561.961 7  19901563.496 9                 104583413.606 7  81493572.684 9
                  19901563.51249
  24230564.961 1                                 127332355.68811  99220135.55055
                  24230567.74245
  24359071.063 5  24359073.789 8                 128007765.300 5  99746313.368 8
                  24359073.34446
  22327345.008 6                                 117330982.439 6  91426736.29147
                  22327344.71947
  20585202.500 7  20585206.836 9  20585208.621 9 108175946.481 7  84292980.225 9
  80780769.061 9  20585206.96549
  21979532.094 7  21979536.262 9  21979537.746 9 115503174.369 7  90002530.727 9
  86252422.173 9  21979535.79748
  22745704.758 6  22745709.543 9  22745709.293 9 119529446.930 6  93139879.011 9
  89259046.099 9  22745709.04348
  21690085.125 6                                 115945854.846 6  90180193.341 8
                  21690090.262 8
  21801934.625 6                                 116748361.047 6  90804276.884 9
                  21801939.238 9
  19974002.258 7                                 106660050.287 7  82957817.558 9
                  19974004.977 9
  19592419.125 8                                 104438617.118 8  81230033.371 9
                  19592425.902 9
  20488375.336 4                                 109598993.940 4  85243671.101 9
                  20488378.605 9
  21481451.695 5                                 114871236.869 5  89344132.937 9
                  21481457.789 9
 19  5 27  8 31 40.0000000  0 14G06G12G14G17G19G24G25G32R01R08R09R10
                                R19R20
  23663118.891 6  23663124.238 9  23663125.930 9 124350481.186 6  96896537.036 9
  92859178.662 9  23663123.62947
  19899790.102 7  19899791.770 9                 104574103.069 7  81486317.723 9
                  19899791.84849
  24226454.141 1                                 127310753.931 1  99203303.07245
                  24226457.09445
  24360679.945 4  24360683.500 8                 128016222.749 4  99752903.576 8
                  24360682.80146
  22328377.680 6                                 117336411.004 6  91430966.34647
                  22328377.98847
  20585426.383 7  20585431.102 9  20585432.652 9 108177125.334 7  84293898.800 9
  80781649.369 9  20585431.28549
  21975678.398 7  21975682.094 9  21975684.133 9 115482922.879 7  89986750.333 9
  86237299.308 9  21975681.89148
  22742490.516 6  22742495.488 9  22742495.281 9 119512556.141 6  93126717.378 9
  89246432.866 9  22742495.67648
  21688719.492 5                                 115938553.706 5  90174514.664 8
                  21688725.094 8
  21803363.586 6                                 116756006.293 6  90810223.177 9
                  21803366.547 9
  19974248.258 7                                 106661363.836 7  82958839.207 9
                  19974251.355 9
  19589889.734 8                                 104425134.488 8  81219546.886 9
                  19589896.945 9
  20487393.852 4                                 109593744.794 4  85239588.409 9
                  20487396.590 9
  21476558.289 5                                 114845071.069 5  89323781.757 9
                  21476564.344 9
 19  5 27  8 31 45.0000000  0 14G06G12G14G17G19G24G25G32R01R08R09R10
                                R19R20
  23660054.875 6  23660060.477 9  23660061.422 9 124334378.063 6  96883989.155 9
  92847153.615 9  23660059.47347
  19898021.148 7  19898022.355 9                 104564804.854 7  81479072.351 9
                  19898022.23049
  24222345.375 1                                 127289160.467 1  99186477.01745
                  24222348.09845
  24362290.352 5  24362293.133 8                 128024686.383 5  99759498.633 8
                  24362292.80946
  22329413.406 6                                 117341853.156 6  91435206.97947
                  22329413.48847
  20585652.969 7  20585657.027 9  20585658.867 9 108178315.690 7  84294826.331 9
  80782538.255 9  20585657.44549
  21971825.695 7  21971829.813 9  21971832.219 9 115462679.307 7  89970976.136 9
  86222182.356 9  21971829.38748
  22739279.117 6  22739283.258 9  22739283.184 9 119495679.245 6  93113566.547 9
  89233829.988 9  22739283.46148
  21687356.969 6                                 115931275.063 6  90168853.510 8
                  21687363.629 8
  21804793.852 6                                 116763666.380 6  90816181.031 9
                  21804797.066 9
  19974495.047 7                                 106662687.302 7  82959868.553 9
                  19974499.746 9
  19587362.578 8                                 104411661.917 8  81209068.224 8
                  19587369.145 8
  20486416.766 4                                 109588519.668 4  85235524.426 9
                  20486419.250 9
  21471667.195 6                                 114818917.827 6  89303440.372 9
                  21471673.676 9
 19  5 27  8 31 50.0000000  0 14G06G12G14G17G19G24G25G32R01R08R09R10
                                R19R20
  23656991.766 5  23656998.707 9  23656999.578 9 124318286.576 5  96871450.357 9
  92835137.244 9  23656998.38747
  19896253.922 7  19896254.980 9                 104555518.237 7  81471836.038 9
                  19896254.83249
  24218237.156 1                                 127267574.423 1  99169656.71345
                  24218240.40645
  24363903.250 5  24363905.219 8                 128033155.396 5  99766097.863 8
                  24363904.74246
  22330451.469 6                                 117347308.204 6  91439457.65847
                  22330451.48047
  20585881.422 7  20585886.113 9  20585888.000 9 108179516.909 7  84295762.348 9
  80783435.268 9  20585886.10949
  21967974.570 7  21967979.238 9  21967981.336 9 115442442.897 7  89955207.499 9
  86207070.750 9  21967978.15648
  22736070.414 6  22736074.355 9  22736074.359 9 119478815.475 6  93100425.947 9
  89221236.909 9  22736074.46148
  21685998.039 5                                 115924018.153 5  90163209.251 8
                  21686005.453 8
  21806227.852 6                                 116771340.580 6  90822149.833 9
                  21806230.051 9
  19974745.617 8                                 106664019.783 8  82960904.925 9
                  19974748.496 9
  19584836.875 8                                 104398198.506 8  81198596.675 9
                  19584843.617 9
  20485444.117 4                                 109583317.538 4  85231478.315 9
                  20485447.605 9
  21466777.609 5                                 114792776.546 5  89283108.271 9
                  21466785.293 9
 19  5 27  8 31 55.0000000  0 14G06G12G14G17G19G24G25G32R01R08R09R10
                                R19R20
  23653931.984 5  23653938.859 9  23653940.090 9 124302207.131 5  96858920.943 9
  92823129.900 9  23653938.96147
  19894489.367 7  19894490.168 9                 104546243.628 7  81464609.071 9
                  19894489.79749
  24214131.344 2                                 127245996.381 2  99152842.63845
                  24214134.16045
  24365515.594 5  24365517.855 8                 128041630.189 5  99772701.592 8
                  24365516.91446
  22331492.023 6                                 117352776.391 6  91443718.57647
                  22331492.26247
  20586112.375 7  20586116.688 9  20586117.969 9 108180729.371 7  84296707.119 9
  80784340.678 9  20586116.54749
  21964125.211 7  21964129.926 9  21964132.082 9 115422214.048 7  89939444.755 9
  86191964.790 9  21964128.95748
  22732863.836 6  22732868.000 9  22732867.875 9 119461965.205 6  93087295.861 9
  89208653.906 9  22732868.09448
  21684645.766 5                                 115916783.379 5  90157582.195 8
                  21684651.672 8
  21807661.773 6                                 116779029.203 6  90828129.876 9
                  21807665.871 9
  19974996.969 8                                 106665361.810 8  82961948.703 9
                  19974999.789 9
  19582313.211 8                                 104384744.600 8  81188132.542 9
                  19582319.078 9
  20484475.891 3                                 109578138.944 3  85227450.526 9
                  20484479.063 9
  21461892.406 5                                 114766647.454 5  89262785.649 9
                  21461898.520 9
 19  5 27  8 32  0.0000000  0 14G06G12G14G17G19G24G25G32R01R08R09R10
                                R19R20
  23650875.820 5  23650881.828 9  23650883.617 9 124286141.323 5  96846402.181 9
  92811132.719 9  23650881.66847
  19892727.094 7  19892727.918 9                 104536982.626 7  81457392.703 9
                  19892727.71549
  24210027.398 2                                 127224427.944 2  99136036.05745
                  24210030.08645
  24367128.805 5  24367131.801 8                 128050112.327 5  99779311.063 8
                  24367131.12946
  22332534.336 6                                 117358259.344 6  91447990.98948
                  22332535.96148
  20586345.336 7  20586349.770 9  20586350.672 9 108181954.856 7  84297662.038 9
  80785255.811 9  20586349.42649
  21960277.648 7  21960282.012 9  21960284.078 9 115401994.356 7  89923689.157 9
  86176865.677 9  21960281.66048
  22729660.047 6  22729664.828 9  22729664.070 9 119445130.067 6  93074177.571 9
  89196082.206 9  22729664.40648
  21683297.133 5                                 115909572.342 5  90151973.618 8
                  21683302.246 8
  21809102.438 6                                 116786733.963 6  90834122.465 9
                  21809103.871 9
  19975249.742 8                                 106666714.958 8  82963001.145 9
                  19975253.082 9
  19579790.500 8                                 104371301.867 8  81177677.059 9
                  19579796.711 9
  20483513.859 4                                 109572985.492 4  85223442.288 9
                  20483515.633 9
  21457009.313 5                                 114740532.240 5  89242473.807 9
                  21457015.121 9
 19  5 27  8 32  5.0000000  0 14G06G12G14G17G19G24G25G32R01R08R09R10
                                R19R20
  23647820.469 6  23647826.957 9  23647828.707 9 124270087.984 6  96833893.069 9
  92799144.846 9  23647826.63747
  19890966.852 8  19890967.719 9                 104527734.011 8  81450185.994 9
                  19890967.69549
  24205924.898 2                                 127202867.841 2  99119236.03245
                  24205927.15645
  24368744.555 4  24368746.840 8                 128058600.614 4  99785925.304 8
                  24368746.50046
  22333581.789 6                                 117363755.862 6  91452274.00147
                  22333581.64147
  20586580.914 7  20586585.527 9  20586586.633 9 108183191.847 7  84298625.936 9
  80786179.534 9  20586585.21149
  21956431.305 7  21956436.797 9  21956438.090 9 115381782.614 7  89907939.763 9
  86161772.495 9  21956436.37548
  22726458.984 6  22726463.484 9  22726462.961 9 119428308.838 6  93061070.143 9
  89183520.920 9  22726463.12147
  21681951.945 5                                 115902383.791 5  90146382.513 8
                  21681958.027 8
  21810544.211 6                                 116794453.537 6  90840126.569 9
                  21810545.344 9
  19975506.023 8                                 106668078.024 8  82964061.322 9
                  19975508.512 9
  19577270.695 8                                 104357869.259 8  81167229.480 8
                  19577277.395 8
  20482554.430 4                                 109567856.009 4  85219452.706 9
                  20482556.734 9
  21452126.766 5                                 114714429.732 5  89222171.861 9
                  21452133.836 9
 19  5 27  8 32 10.0000000  0 14G06G12G14G17G19G24G25G32R01R08R09R10
                                R19R20
  23644767.883 6  23644774.840 9  23644776.105 9 124254047.431 6  96821393.945 9
  92787166.515 9  23644774.03547
  19889209.336 7  19889210.625 9                 104518498.104 7  81442989.184 9
                  19889210.10949
  24201824.266 3                                 127181316.320 3  99102442.61845
                  24201826.04345
  24370361.594 5  24370363.859 8                 128067095.362 5  99792544.620 8
                  24370362.94546
  22334630.188 5                                 117369266.365 5  91456567.85947
                  22334630.32447
  20586818.852 7  20586823.180 9  20586824.242 9 108184440.786 7  84299599.146 9
  80787112.184 9  20586822.99249
  21952587.531 7  21952591.914 9  21952593.340 9 115361579.150 7  89892196.824 9
  86146685.510 9  21952591.73848
  22723261.531 6  22723265.117 9  22723264.730 9 119411501.868 6  93047973.797 9
  89170970.260 9  22723265.00447
  21680611.063 5                                 115895218.077 5  90140809.177 8
                  21680617.691 8
  21811988.281 6                                 116802188.226 6  90846142.441 9
                  21811989.453 9
  19975762.656 8                                 106669451.245 8  82965129.389 9
                  19975765.258 9
  19574753.109 8                                 104344447.218 8  81156790.121 8
                  19574758.691 8
  20481599.484 4                                 109562750.688 4  85215481.899 9
                  20481603.078 9
  21447250.109 5                                 114688340.283 5  89201880.082 9
                  21447254.777 9
 19  5 27  8 32 15.0000000  0 14G06G12G14G17G19G24G25G32R01R08R09R10
                                R19R20
  23641717.875 6  23641724.313 9  23641726.270 9 124238017.681 6  96808903.245 9
  92775196.267 9  23641723.91047
  19887453.508 7  19887454.570 9                 104509272.882 7  81435800.690 9
                  19887454.61749
  24197723.609 2                                 127159771.472 2  99085654.41745
                  24197726.35545
  24371978.727 5  24371981.738 8                 128075594.560 5  99799167.380 8
                  24371981.12546
  22335680.695 5                                 117374788.683 5  91460870.97547
                  22335680.71547
  20587058.375 7  20587062.801 9  20587064.215 9 108185699.800 7  84300580.194 9
  80788052.357 9  20587062.79349
  21948743.281 7  21948748.301 9  21948749.859 9 115341381.973 7  89876458.778 9
  86131603.205 9  21948748.02748
  22720064.609 6  22720068.898 9  22720068.816 9 119394707.133 6  93034886.983 9
  89158428.742 9  22720068.80147
  21679274.016 5                                 115888073.102 5  90135251.983 8
                  21679280.816 8
  21813434.797 6                                 116809935.934 6  90852168.456 9
                  21813436.750 9
  19976021.203 8                                 106670832.655 8  82966203.811 9
                  19976024.344 9
  19572236.547 8                                 104331033.431 8  81146357.175 8
                  19572242.992 8
  20480649.672 4                                 109557667.555 4  85211528.362 9
                  20480652.066 9
  21442372.281 6                                 114662261.757 6  89181596.797 9
                  21442377.766 9
 19  5 27  8 32 20.0000000  0 14G06G12G14G17G19G24G25G32R01R08R09R10
                                R19R20
  23638670.094 6  23638676.266 9  23638676.926 9 124221999.993 6  96796421.906 9
  92763234.997 9  23638675.55947
  19885700.516 7  19885702.238 9                 104500059.603 7  81428621.503 9
                  19885702.19549
  24193626.141 4                                 127138234.669 4  99068872.49545
                  24193627.75845
  24373598.375 5  24373600.383 8                 128084099.422 5  99805794.541 8
                  24373600.02346
  22336733.617 6                                 117380324.126 6  91465184.28947
                  22336733.91047
  20587299.938 7  20587304.473 9  20587306.082 9 108186969.951 7  84301569.930 9
  80789000.840 9  20587304.48449
  21944901.469 7  21944906.055 9  21944907.527 9 115321192.325 7  89860726.591 9
  86116526.535 9  21944905.69148
  22716870.813 6  22716875.367 9  22716875.242 9 119377925.947 6  93021810.752 9
  89145897.332 9  22716875.04747
  21677943.242 5                                 115880950.154 5  90129711.915 8
                  21677948.371 8
  21814882.656 6                                 116817697.952 6  90858205.579 9
                  21814887.184 9
  19976282.180 7                                 106672223.437 7  82967285.519 9
                  19976284.449 9
  19569722.297 8                                 104317629.037 8  81135931.543 9
                  19569727.770 9
  20479704.336 4                                 109552607.847 4  85207593.028 9
                  20479706.207 9
  21437498.344 5                                 114636195.647 5  89161323.150 9
                  21437503.273 9
 19  5 27  8 32 25.0000000  0 14G06G12G14G17G19G24G25G32R01R08R09R10
                                R19R20
  23635623.555 6  23635630.688 9  23635631.910 9 124205993.298 6  96783949.176 9
  92751281.967 9  23635630.07847
  19883949.023 7  19883950.598 9                 104490857.192 7  81421450.783 9
                  19883950.69149
  24189528.953 3                                 127116704.769 3  99052096.01145
                  24189530.49245
  24375218.375 5  24375219.863 8                 128092608.885 5  99812425.271 8
                  24375219.32446
  22337789.648 6                                 117385871.580 6  91469506.96947
                  22337790.24647
  20587543.297 7  20587547.652 9  20587549.719 9 108188250.079 7  84302567.414 9
  80789956.772 9  20587547.94149
  21941060.789 7  21941065.613 9  21941067.469 9 115301009.164 7  89844999.446 9
  86101454.684 9  21941065.10548
  22713680.477 6  22713684.746 9  22713683.770 9 119361157.244 6  93008744.239 9
  89133375.256 9  22713684.04348
  21676613.570 5                                 115873848.250 5  90124188.195 8
                  21676620.125 8
  21816334.281 6                                 116825473.161 6  90864252.976 9
                  21816338.930 9
  19976544.031 7                                 106673622.637 7  82968373.769 9
                  19976546.188 9
  19567209.188 8                                 104304233.151 8  81125512.516 9
                  19567215.230 9
  20478761.648 4                                 109547570.564 4  85203675.128 9
                  20478764.723 9
  21432624.672 6                                 114610140.722 6  89141058.222 9
                  21432632.066 9
 19  5 27  8 32 30.0000000  0 14G06G12G14G17G19G24G25G32R01R08R09R10
                                R19R20
  23632579.234 5  23632586.332 9  23632588.051 9 124189998.302 5  96771485.521 9
  92739337.644 9  23632585.62947
  19882200.172 7  19882201.844 9                 104481666.379 7  81414289.112 9
                  19882201.50849
  24185432.523 2                                 127095182.469 2  99035325.32545
                  24185435.09845
  24376839.047 5  24376839.973 8                 128101123.677 5  99819060.149 8
                  24376839.31346
  22338847.531 5                                 117391431.783 5  91473839.60347
                  22338847.67647
  20587788.852 7  20587793.867 9  20587795.582 9 108189540.967 7  84303573.295 9
  80790920.743 9  20587794.04349
  21937221.578 7  21937226.465 9  21937228.531 9 115280833.152 7  89829277.881 9
  86086388.201 9  21937225.87548
  22710492.047 6  22710496.520 9  22710495.758 9 119344401.646 6  92995687.953 9
  89120862.986 9  22710495.97347
  21675287.867 5                                 115866768.044 5  90118681.354 8
                  21675296.352 8
  21817791.250 6                                 116833262.387 6  90870311.241 9
                  21817794.066 9
  19976807.469 8                                 106675030.868 8  82969469.067 9
                  19976810.570 9
  19564697.445 8                                 104290846.493 8  81115100.664 9
                  19564703.625 9
  20477822.555 3                                 109542556.349 3  85199775.176 9
                  20477827.813 9
  21427754.438 5                                 114584097.792 5  89120802.614 9
                  21427761.113 9
 19  5 27  8 32 35.0000000  0 14G06G12G14G17G19G24G25G32R01R08R09R10
                                R19R20
  23629538.078 5  23629545.113 9  23629546.402 9 124174015.035 5  96759031.060 9
  92727402.108 9  23629544.68847
  19880453.125 7  19880454.586 9                 104472487.149 7  81407136.456 9
                  19880454.62149
  24181339.117 2                                 127073667.760 2
                
  24378461.078 6  24378461.121 8                 128109643.738 6  99825699.154 8
                  24378460.71946
  22339907.438 5                                 117397004.686 5  91478182.11547
                  22339908.94947
  20588036.750 7  20588041.297 9  20588043.270 9 108190842.634 7  84304587.573 9
  80791892.762 9  20588041.49649
  21933383.227 7  21933388.723 9  21933390.785 9 115260664.380 7  89813561.941 9
  86071327.088 9  21933388.36748
  22707306.063 6  22707310.000 9  22707309.777 9 119327659.286 6  92982641.935 9
  89108360.549 9  22707309.76247
  21673966.859 5                                 115859709.408 5  90113191.321 8
                  21673975.395 8
  21819247.219 6                                 116841065.452 6  90876380.299 9
                  21819251.641 9
  19977073.086 8                                 106676448.211 8  82970571.428 9
                  19977076.242 9
  19562187.719 8                                 104277469.033 8  81104695.970 9
                  19562194.344 9
  20476891.570 3                                 109537565.261 3  85195893.217 9
                  20476895.352 9
  21422887.438 5                                 114558066.859 5  89100556.343 9
                  21422893.465 9
 19  5 27  8 32 40.0000000  0 14G06G12G14G17G19G24G25G32R01R08R09R10
                                R19R20
  23626498.852 5  23626506.199 9  23626506.918 9 124158044.450 5  96746586.441 9
  92715476.020 9  23626505.49247
  19878709.211 7  19878710.590 9                 104463320.385 7  81399993.537 9
                  19878710.20349
  24177246.586 2                                 127052161.661 2
                
  24380083.531 6  24380083.391 8                 128118170.028 6  99832343.009 8
                  24380083.50446
  22340971.141 5                                 117402591.175 5  91482535.22647
                  22340972.12547
  20588287.281 7  20588291.160 9  20588292.898 9 108192156.208 7  84305611.127 9
  80792873.669 9  20588291.24249
  21929547.305 7  21929551.887 9  21929553.984 9 115240503.703 7  89797852.326 9
  86056272.038 9  21929551.85948
  22704122.633 6  22704127.613 9  22704126.652 9 119310931.029 6  92969606.945 9
  89095868.704 9  22704127.10548
  21672653.523 5                                 115852673.521 5  90107718.935 8
                  21672659.254 8
  21820706.094 5                                 116848883.329 5  90882460.851 9
                  21820711.711 9
  19977340.297 8                                 106677875.532 8  82971681.563 9
                  19977343.922 9
  19559680.172 8                                 104264101.711 8  81094299.153 9
                  19559686.867 9
  20475962.523 3                                 109532598.074 3  85192029.863 9
                  20475966.168 9
  21418020.523 5                                 114532048.932 5  89080320.185 9
                  21418027.418 9
 19  5 27  8 32 45.0000000  0 14G06G12G14G17G19G24G25G32R01R08R09R10
                                R19R20
  23623462.305 6  23623468.836 9  23623469.652 9 124142086.252 6  96734151.516 9
  92703559.212 9  23623468.69947
  19876966.742 7  19876967.957 9                 104454165.824 7  81392860.111 9
                  19876967.90249
  24173155.820 2                                 127030663.843 2
                
  24381707.180 5  24381706.703 8                 128126702.202 5  99838991.439 8
                  24381706.82446
  22342037.141 5                                 117408191.017 5  91486898.73847
                  22342037.32447
  20588539.414 7  20588543.359 9  20588545.082 9 108193481.241 7  84306643.621 9
  80793863.136 9  20588542.89849
  21925712.320 7  21925717.039 9  21925718.938 9 115220350.858 7  89782148.815 9
  86041222.837 9  21925716.98448
  22700941.172 6  22700946.457 9  22700945.668 9 119294216.629 6  92956582.719 9
  89083387.156 9  22700946.29747
  21671340.156 5                                 115845659.914 5  90102263.911 8
                  21671348.426 8
  21822168.859 5                                 116856715.888 5  90888552.845 9
                  21822174.566 9
  19977609.633 8                                 106679312.566 8  82972799.257 9
                  19977612.547 9
  19557173.992 8                                 104250744.236 8  81083910.011 9
                  19557181.352 9
  20475039.617 4                                 109527654.654 4  85188184.972 9
                  20475041.629 9
  21413158.094 5                                 114506043.658 5  89060093.868 9
                  21413164.723 9
 19  5 27  8 32 50.0000000  0 14G06G12G14G17G19G24G25G32R01R08R09R10
                                R19R20
  23620429.273 6  23620434.711 9  23620435.824 9 124126140.340 6  96721726.146 9
  92691651.553 9  23620434.57847
  19875227.367 7  19875228.473 9                 104445023.370 7  81385736.131 9
                  19875228.61349
  24169065.227 3                                 127009174.269 3
                
  24383330.391 5  24383331.797 8                 128135240.140 5  99845644.363 8
                  24383331.67246
  22343104.773 5                                 117413804.019 5  91491272.49647
                  22343105.89147
  20588793.344 7  20588797.332 9  20588798.949 9 108194817.487 7  84307684.855 9
  80794860.985 9  20588796.76249
  21921878.547 7  21921883.309 9  21921885.266 9 115200205.749 7  89766451.316 9
  86026179.411 9  21921883.37548
  22697763.828 6  22697768.371 9  22697767.863 9 119277515.947 6  92943569.202 9
  89070915.878 9  22697768.31347
  21670033.391 5                                 115838668.635 5  90096826.244 8
                  21670040.117 8
  21823633.734 6                                 116864562.637 6  90894655.863 9
                  21823639.426 9
  19977880.711 7                                 106680759.131 7  82973924.357 9
                  19977883.027 9
  19554670.813 8                                 104237396.690 8  81073528.591 9
                  19554677.496 9
  20474118.820 4                                 109522734.859 4  85184358.459 9
                  20474121.512 9
  21408296.563 5                                 114480050.923 5  89039877.316 9
                  21408303.668 9
 19  5 27  8 32 55.0000000  0 14G06G12G14G17G19G24G25G32R01R08R09R10
                                R19R20
  23617397.227 6  23617402.777 9  23617403.273 9 124110205.879 6  96709309.709 9
  92679752.454 9  23617402.55547
  19873490.094 7  19873490.719 9                 104435892.151 7  81378620.906 9
                  19873490.69149
  24164978.063 2                                 126987692.013 2
                
  24384954.836 5  24384957.898 8                 128143782.985 5  99852301.101 8
                  24384958.16446
  22344175.992 5                                 117419429.423 5  91495655.91347
                  22344176.11347
  20589049.398 7  20589053.637 9  20589055.145 9 108196164.313 7  84308734.322 9
  80795866.725 9  20589053.19549
  21918046.422 7  21918051.164 9  21918052.941 9 115180067.515 7  89750759.197 9
  86011141.131 9  21918051.05148
  22694589.336 6  22694593.254 9  22694592.688 9 119260828.170 6  92930565.733 9
  89058454.228 9  22694592.90647
  21668729.172 6                                 115831698.542 6  90091405.051 8
                  21668736.473 8
  21825101.594 6                                 116872423.146 6  90900769.570 9
                  21825106.758 9
  19978152.414 7                                 106682214.510 7  82975056.312 9
                  19978155.496 9
  19552168.109 8                                 104224058.101 8  81063154.140 9
                  19552175.254 9
  20473204.484 4                                 109517837.783 4  85180549.629 9
                  20473206.066 9
  21403438.727 5                                 114454070.111 5  89019670.027 9
                  21403445.520 9
 19  5 27  8 33  0.0000000  0 14G06G12G14G17G19G24G25G32R01R08R09R10
                                R19R20
  23614366.672 6  23614373.246 9  23614373.820 9 124094282.944 6  96696902.220 9
  92667861.957 9  23614372.92647
  19871754.078 7  19871754.898 9                 104426772.223 7  81371514.467 9
                  19871755.35949
  24160891.492 2                                 126966217.165 2
                
  24386581.398 5  24386584.051 8                 128152330.820 5  99858961.727 8
                  24386584.02046
  22345248.984 6                                 117425067.187 6  91500048.98247
                  22345249.37547
  20589307.844 7  20589312.395 9  20589313.578 9 108197521.479 7  84309791.836 9
  80796880.183 9  20589311.86349
  21914215.727 7  21914220.223 9  21914221.941 9 115159936.232 7  89735072.479 9
  85996108.023 9  21914219.99248
  22691415.641 6  22691420.250 9  22691419.477 9 119244153.350 6  92917572.370 9
  89046002.259 9  22691419.75047
  21667429.031 6                                 115824749.961 6  90086000.589 8
                  21667435.113 8
  21826573.328 6                                 116880296.967 6  90906893.654 9
                  21826576.840 9
  19978426.961 8                                 106683678.672 8  82976195.121 9
                  19978429.133 9
  19549667.711 8                                 104210728.425 8  81052786.611 9
                  19549674.535 9
  20472293.383 5                                 109512963.467 5  85176758.485 9
                  20472295.543 9
  21398582.047 5                                 114428100.949 5  88999471.803 9
                  21398588.617 9
 19  5 27  8 33  5.0000000  0 13G06G12G14G19G24G25G32R01R08R09R10R19
                                R20
  23611339.953 6  23611345.266 9  23611346.379 9 124078373.841 6  96684505.520 9
  92655981.799 9  23611344.66447
  19870021.742 8  19870022.273 9                 104417665.936 8  81364418.651 9
                  19870022.15649
  24156806.461 3                                 126944752.031 3
                
  22346323.531 5                                 117430719.585 5  91504453.43047
                  22346325.05147
  20589568.477 7  20589573.133 9  20589574.375 9 108198891.537 7  84310859.400 9
  80797903.275 9  20589572.60249
  21910386.539 7  21910391.211 9  21910393.160 9 115139814.215 7  89719392.979 9
  85981081.850 9  21910391.32848
  22688245.430 6  22688249.520 9  22688248.887 9 119227493.837 6  92904590.923 9
  89033561.733 9  22688249.10547
  21666133.500 6                                 115817825.106 6  90080614.604 8
                  21666140.414 8
  21828046.609 6                                 116888186.664 6  90913030.077 9
                  21828049.699 9
  19978703.391 7                                 106685153.922 7  82977342.530 9
                  19978705.887 9
  19547168.859 8                                 104197409.983 8  81042427.831 9
                  19547175.879 9
  20471387.867 4                                 109508114.327 4  85172986.951 9
                  20471389.141 9
  21393729.750 5                                 114402146.242 5  88979284.800 9
                  21393734.969 9
 19  5 27  8 33 10.0000000  0 13G06G12G14G19G24G25G32R01R08R09R10R19
                                R20
  23608313.273 6  23608319.703 9  23608320.875 9 124062476.950 6  96672118.330 9
  92644110.774 9  23608318.86747
  19868291.141 7  19868291.492 9                 104408571.596 7  81357332.155 9
                  19868291.37949
  24152724.203 3                                 126923295.047 3
                
  22347401.758 5                                 117436385.088 5  91508868.08747
                  22347402.75847
  20589831.164 7  20589835.773 9  20589837.371 9 108200272.940 7  84311935.824 9
  80798934.846 9  20589835.71549
  21906558.875 7  21906564.484 9  21906565.941 9 115119699.818 7  89703719.429 9
  85966061.358 9  21906564.10948
  22685077.453 6  22685082.051 9  22685081.094 9 119210847.972 6  92891620.115 9
  89021131.376 9  22685081.78147
  21664841.758 5                                 115810922.303 5  90075245.771 8
                  21664848.547 8
  21829521.797 6                                 116896090.671 6  90919177.626 9
                  21829525.285 9
  19978980.703 7                                 106686638.625 7  82978497.306 9
                  19978984.340 9
  19544672.328 8                                 104184101.122 8  81032076.497 9
                  19544679.227 9
  20470485.867 4                                 109503288.635 4  85169233.627 9
                  20470487.309 9
  21388877.984 6                                 114376204.008 6  88959107.506 9
                  21388883.328 9
 19  5 27  8 33 15.0000000  0 13G06G12G14G19G24G25G32R01R08R09R10R19
                                R20
  23605290.117 5  23605297.027 9  23605297.820 9 124046592.721 5  96659741.009 9
  92632249.178 9  23605296.45747
  19866562.453 7  19866563.879 9                 104399489.709 7  81350255.353 9
                  19866563.74649
  24148642.938 3                                 126901846.578 3
                
  22348482.703 5                                 117442064.049 5  91513293.22647
                  22348483.64847
  20590096.508 7  20590100.641 9  20590102.402 9 108201665.915 7  84313021.270 9
  80799975.052 9  20590100.80149
  21902732.609 7  21902737.336 9  21902739.258 9 115099593.470 7  89688052.153 9
  85951046.889 9  21902737.01248
  22681912.484 6  22681916.906 9  22681916.445 9 119194216.248 6  92878660.350 9
  89008711.591 9  22681917.30948
  21663555.289 6                                 115804042.058 6  90069894.480 8
                  21663561.363 8
  21831000.656 6                                 116904009.068 6  90925336.379 9
                  21831004.219 9
  19979261.344 7                                 106688133.239 7  82979659.765 9
                  19979264.531 9
  19542177.492 8                                 104170802.507 8  81021733.138 9
                  19542184.027 9
  20469586.117 4                                 109498486.881 4  85165498.931 9
                  20469589.945 9
  21384028.102 5                                 114350274.811 5  88938940.352 9
                  21384034.871 9
 19  5 27  8 33 20.0000000  0 13G06G12G14G19G24G25G32R01R08R09R10R19
                                R20
  23602270.375 5  23602276.551 9  23602278.203 9 124030719.590 5  96647372.331 9
  92620395.864 9  23602275.90247
  19864836.508 7  19864837.500 9                 104390418.608 7  81343186.954 9
                  19864837.10549
  24144562.805 4                                 126880405.051 4
                
  22349566.266 6                                 117447754.806 6  91517727.57447
                  22349565.98047
  20590363.195 7  20590368.418 9  20590369.387 9 108203069.000 7  84314114.568 9
  80801022.805 9  20590368.43449
  21898907.891 7  21898912.500 9  21898914.992 9 115079493.608 7  89672389.942 9
  85936037.259 9  21898912.63348
  22678750.359 6  22678754.723 9  22678754.133 9 119177597.046 6  92865710.324 9
  88996301.146 9  22678754.87547
  21662272.141 6                                 115797182.732 6  90064559.456 8
                  21662277.930 8
  21832483.281 6                                 116911940.529 6  90931505.280 9
                  21832485.441 9
  19979542.922 7                                 106689636.167 7  82980828.704 9
                  19979545.945 9
  19539684.766 8                                 104157512.511 8  81011396.470 9
                  19539690.980 9
  20468692.766 4                                 109493707.299 4  85161781.488 9
                  20468695.867 9
  21379181.266 5                                 114324357.037 5  88918782.102 9
                  21379188.480 9
 19  5 27  8 33 25.0000000  0 13G06G12G14G19G24G25G32R01R08R09R10R19
                                R20
  23599251.320 5  23599258.598 9  23599259.746 9 124014858.908 5  96635013.379 9
  92608551.877 9  23599257.97347
  19863113.016 7  19863113.684 9                 104381359.706 7  81336128.078 9
                  19863113.20749
  24140484.742 4                                 126858971.972 4
                
  22350651.477 6                                 117453458.780 6  91522172.22648
                  22350651.49648
  20590632.461 7  20590636.883 9  20590638.414 9 108204483.462 7  84315216.748 9
  80802079.052 9  20590637.22749
  21895084.211 7  21895089.367 9  21895091.465 9 115059401.614 7  89656733.849 9
  85921033.500 9  21895088.80948
  22675590.273 6  22675594.789 9  22675594.207 9 119160991.707 6  92852771.117 9
  88983901.061 9  22675594.95348
  21660992.969 6                                 115790345.670 6  90059241.728 8
                  21660999.535 8
  21833967.750 6                                 116919886.288 6  90937685.312 9
                  21833969.328 9
  19979826.969 7                                 106691148.767 7  82982005.162 9
                  19979828.973 9
  19537193.664 8                                 104144232.328 8  81001067.444 9
                  19537199.793 9
  20467804.336 4                                 109488951.538 4  85158082.561 9
                  20467806.496 9
  21374336.563 5                                 114298452.087 5  88898633.836 9
                  21374343.875 9
 19  5 27  8 33 30.0000000  0 13G06G12G14G19G24G25G32R01R08R09R10R19
                                R20
  23596236.227 5  23596242.270 9  23596243.723 9 123999010.368 5  96622663.859 9
  92596716.914 9  23596242.53547
  19861390.992 7  19861392.215 9                 104372312.591 7  81329078.366 9
                  19861391.82049
  24136408.195 4                                 126837546.785 4
                
  22351739.656 6                                 117459175.530 6  91526626.84347
                  22351739.79347
  20590904.141 7  20590908.281 9  20590909.645 9 108205908.922 7  84316327.496 9
  80803143.517 9  20590908.28149
  21891261.875 7  21891267.184 9  21891269.172 9 115039317.082 7  89641083.577 9
  85906035.318 9  21891266.81348
  22672432.633 6  22672437.426 9  22672436.613 9 119144399.903 6  92839842.447 9
  88971511.078 9  22672437.47748
  21659719.313 6                                 115783530.417 6  90053940.972 8
                  21659724.305 8
  21835454.477 6                                 116927846.046 6  90943876.230 9
                  21835456.207 9
  19980111.375 8                                 106692670.625 8  82983188.816 9
                  19980113.832 9
  19534704.055 8                                 104130961.674 8  80990745.817 9
                  19534710.520 9
  20466918.734 4                                 109484219.028 4  85154401.700 9
                  20466921.895 9
  21369496.664 5                                 114272559.614 5  88878495.263 9
                  21369501.836 9
 19  5 27  8 33 35.0000000  0 13G06G12G14G19G24G25G32R01R08R09R10R19
                                R20
  23593222.688 6  23593228.855 9  23593230.816 9 123983173.439 6  96610323.434 9
  92584890.663 9  23593229.39147
  19859671.461 7  19859673.059 9                 104363276.814 7  81322037.497 9
                  19859672.78549
  24132332.266 4                                 126816129.187 4
                
  22352829.344 6                                 117464904.616 6  91531091.07747
                  22352829.54347
  20591177.203 7  20591181.359 9  20591182.891 9 108207345.013 7  84317446.529 9
  80804215.924 9  20591181.46949
  21887441.148 7  21887446.609 9  21887448.305 9 115019239.563 7  89625438.754 9
  85891042.361 9  21887445.82848
  22669277.875 6  22669282.406 9  22669282.031 9 119127821.174 6  92826923.953 9
  88959130.846 9  22669282.95347
  21658447.055 6                                 115776736.797 6  90048657.021 8
                  21658453.855 8
  21836942.555 6                                 116935819.222 6  90950077.571 9
                  21836945.148 9
  19980398.602 8                                 106694201.367 8  82984379.407 9
                  19980400.914 9
  19532216.352 8                                 104117700.118 8  80980431.278 9
                  19532222.637 9
  20466039.578 4                                 109479509.282 4  85150738.565 9
                  20466041.492 9
  21364654.945 5                                 114246679.158 5  88858366.021 9
                  21364662.262 9
 19  5 27  8 33 40.0000000  0 13G06G12G14G19G24G25G32R01R08R09R10R19
                                R20
  23590211.523 6  23590217.023 9  23590218.707 9 123967349.530 6  96597993.118 9
  92573074.114 9  23590217.87147
  19857954.469 7  19857955.746 9                 104354253.735 7  81315006.532 9
                  19857955.60249
  24128258.180 4                                 126794720.535 4
                
  22353922.516 6                                 117470647.383 6  91535565.97047
                  22353922.60947
  20591452.508 7  20591457.414 9  20591458.762 9 108208792.965 7  84318574.794 9
  80805297.176 9  20591457.28149
  21883623.039 7  21883627.813 9  21883629.965 9 114999170.442 7  89609800.488 9
  85876055.694 9  21883627.01648
  22666125.641 6  22666130.449 9  22666129.895 9 119111256.952 6  92814016.766 9
  88946761.459 9  22666130.69947
  21657181.273 6                                 115769965.949 6  90043390.807 8
                  21657187.418 8
  21838433.094 6                                 116943807.201 6  90956290.453 9
                  21838437.172 9
  19980686.414 8                                 106695742.278 8  82985577.882 9
                  19980689.074 9
  19529729.930 8                                 104104448.962 8  80970124.836 9
                  19529737.520 9
  20465162.391 4                                 109474823.794 4  85147094.303 9
                  20465165.875 9
  21359819.031 5                                 114220812.094 5  88838247.193 9
                  21359824.961 9
 19  5 27  8 33 45.0000000  0 13G06G12G14G19G24G25G32R01R08R09R10R19
                                R20
  23587203.445 6  23587208.113 9  23587208.832 9 123951537.263 6  96585671.874 9
  92561266.264 9  23587208.69947
  19856239.656 7  19856240.715 9                 104345241.942 7  81307984.358 9
                  19856240.48449
  24124185.539 3                                 126773319.402 3  98784495.93655
                  24124183.34045
  22355016.906 6                                 117476402.450 6  91540050.43447
                  22355017.41047
  20591730.563 7  20591734.344 9  20591735.863 9 108210251.460 7  84319711.291 9
  80806386.310 9  20591734.20349
  21879804.078 7  21879809.566 9  21879811.469 9 114979108.306 7  89594167.651 9
  85861074.238 9  21879808.93048
  22662975.969 6  22662980.902 9  22662980.023 9 119094705.762 6  92801119.727 9
  88934401.806 9  22662981.18047
  21655918.117 6                                 115763216.507 6  90038141.252 8
                  21655924.305 8
  21839928.328 6                                 116951808.487 6  90962513.652 9
                  21839931.500 9
  19980977.242 8                                 106697291.922 8  82986783.166 9
                  19980979.188 9
  19527245.711 8                                 104091206.858 8  80959825.413 9
                  19527253.117 9
  20464290.992 4                                 109470161.046 4  85143467.735 9
                  20464294.230 9
  21354982.844 5                                 114194957.129 5  88818137.782 9
                  21354989.750 9
 19  5 27  8 33 50.0000000  0 13G06G12G14G19G24G25G32R01R08R09R10R19
                                R20
  23584195.633 6  23584201.223 9  23584202.770 9 123935737.482 6  96573360.400 9
  92549467.748 9  23584201.58247
  19854527.258 7  19854528.680 9                 104336242.302 7  81300971.659 9
                  19854528.48449
  24120114.805 3                                 126751926.688 3  98767826.29145
                  24120113.66445
  22356114.953 6                                 117482170.668 6  91544545.15347
                  22356114.48047
  20592009.813 7  20592014.348 9  20592015.379 9 108211721.370 7  84320856.677 9
  80807483.967 9  20592014.01649
  21875988.742 7  21875993.391 9  21875994.820 9 114959054.019 7  89578540.935 9
  85846098.636 9  21875992.52048
  22659828.680 6  22659833.578 9  22659832.754 9 119078168.488 6  92788233.558 9
  88922052.548 9  22659833.73447
  21654660.063 6                                 115756489.326 6  90032909.018 8
                  21654666.230 8
  21841423.422 5                                 116959824.108 5  90968748.043 9
                  21841428.637 9
  19981269.008 8                                 106698851.354 8  82987996.034 9
                  19981271.230 9
  19524762.617 8                                 104077974.530 8  80949533.604 9
                  19524769.469 9
  20463423.820 4                                 109465521.938 4  85139859.557 9
                  20463426.719 9
  21350149.820 5                                 114169115.111 5  88798038.442 9
                  21350157.527 9
 19  5 27  8 33 55.0000000  0 13G06G12G14G19G24G25G32R01R08R09R10R19
                                R20
  23581191.023 6  23581197.320 9  23581197.910 9 123919949.523 6  96561058.114 9
  92537678.054 9  23581196.66047
  19852816.516 7  19852818.078 9                 104327254.163 7  81293967.924 9
                  19852817.93449
  24116043.945 2                                 126730541.711 2  98751162.62645
                  24116045.00045
  22357215.734 6                                 117487951.266 6  91549049.52147
                  22357214.62947
  20592292.109 8  20592296.324 9  20592297.578 9 108213201.836 8  84322010.272 9
  80808589.507 9  20592296.15649
  21872173.500 7  21872178.449 9  21872180.016 9 114939006.914 7  89562919.813 9
  85831128.404 9  21872178.06348
  22656684.828 6  22656689.660 9  22656688.945 9 119061644.448 6  92775357.678 9
  88909713.170 9  22656689.80547
  21653406.063 6                                 115749783.671 6  90027693.497 8
                  21653411.422 8
  21842922.656 6                                 116967853.093 6  90974992.801 9
                  21842927.715 9
  19981562.109 7                                 106700419.602 7  82989215.786 9
                  19981564.664 9
  19522282.891 8                                 104064751.493 8  80939249.013 9
                  19522289.246 9
  20462560.742 4                                 109460905.777 4  85136269.206 9
                  20462563.496 9
  21345322.086 5                                 114143285.403 5  88777948.670 9
                  21345327.676 9
 19  5 27  8 34  0.0000000  0 13G06G12G14G19G24G25G32R01R08R09R10R19
                                R20
  23578189.266 6  23578194.758 9  23578194.875 9 123904173.518 6  96548765.142 9
  92525897.278 9  23578193.98047
  19851108.359 7  19851109.531 9                 104318277.620 7  81286973.213 9
                  19851109.79749
  24111975.938 2                                 126709164.519 2  98734505.12945
                  24111977.66445
  22358317.445 6                                 117493744.435 6  91553563.66347
                  22358317.41447
  20592575.336 7  20592579.953 9  20592581.305 9 108214693.099 7  84323172.303 9
  80809703.108 9  20592579.88349
  21868360.609 7  21868364.875 9  21868366.168 9 114918967.102 7  89547304.373 9
  85816163.597 9  21868364.51248
  22653542.734 6  22653547.941 9  22653547.172 9 119045133.779 6  92762492.217 9
  88897383.763 9  22653547.68447
  21652154.109 6                                 115743099.813 6  90022494.930 8
                  21652161.496 8
  21844423.914 5                                 116975895.752 5  90981248.188 9
                  21844429.277 9
  19981857.727 8                                 106701996.924 8  82990442.604 9
                  19981860.313 9
  19519803.625 8                                 104051537.858 8  80928971.755 9
                  19519810.289 9
  20461702.852 4                                 109456312.624 4  85132696.744 9
                  20461704.266 9
  21340492.828 6                                 114117467.929 6  88757868.413 9
                  21340499.348 9
 19  5 27  8 34  5.0000000  0 13G06G12G14G19G24G25G32R01R08R09R10R19
                                R20
  23575189.297 5  23575195.465 9  23575196.727 9 123888409.198 5  96536481.255 9
  92514125.242 9  23575194.18847
  19849402.234 7  19849404.016 9                 104309312.341 7  81279987.277 9
                  19849404.19549
  24107911.031 3                                 126687794.992 3  98717853.52145
                  24107912.19545
  22359422.289 6                                 117499549.820 6  91558087.33547
                  22359422.40247
  20592862.086 7  20592865.957 9  20592867.738 9 108216194.882 7  84324342.521 9
  80810824.570 9  20592865.84449
  21864548.383 7  21864553.223 9  21864553.715 9 114898934.287 7  89531694.412 9
  85801204.048 9  21864553.28948
  22650403.789 6  22650408.148 9  22650407.289 9 119028636.275 6  92749637.018 9
  88885064.208 9  22650408.32847
  21650909.273 6                                 115736437.253 6  90017312.944 8
                  21650915.105 8
  21845928.781 6                                 116983951.694 6  90987513.878 9
                  21845934.039 9
  19982154.664 8                                 106703583.157 8  82991676.326 9
                  19982157.523 9
  19517326.664 8                                 104038333.127 8  80918701.374 8
                  19517333.125 8
  20460848.891 4                                 109451742.278 4  85129142.023 9
                  20460850.082 9
  21335667.453 6                                 114091662.644 6  88737797.653 9
                  21335673.227 9
 19  5 27  8 34 10.0000000  0 13G06G12G14G19G24G25G32R01R08R09R10R19
                                R20
  23572191.289 5  23572198.602 9  23572199.883 9 123872657.482 5  96524207.202 9
  92502362.617 9  23572196.64147
  19847698.820 7  19847699.770 9                 104300359.282 7  81273010.873 9
                  19847699.78949
  24103846.461 4                                 126666433.932 4  98701208.61645
                  24103846.85945
  22360529.398 6                                 117505368.346 6  91562621.23947
                  22360529.45347
  20593149.320 7  20593153.953 9  20593155.449 9 108217708.064 7  84325521.599 9
  80811954.533 9  20593153.67649
  21860737.484 7  21860742.758 9  21860743.156 9 114878909.397 7  89516090.609 9
  85786250.406 9  21860742.67248
  22647267.367 6  22647271.660 9  22647271.051 9 119012152.741 6  92736792.716 9
  88872755.084 9  22647271.50047
  21649666.633 6                                 115729797.108 6  90012148.370 8
                  21649672.227 8
  21847437.148 6                                 116992021.873 6  90993790.688 9
                  21847440.145 9
  19982453.109 7                                 106705179.017 7  82992917.552 9
                  19982456.309 9
  19514851.852 8                                 104025138.335 8  80908438.777 9
                  19514858.105 9
  20459997.070 4                                 109447195.557 4  85125605.689 9
                  20460000.680 9
  21330843.328 5                                 114065870.516 5  88717737.104 9
                  21330849.449 9
 19  5 27  8 34 15.0000000  0 13G06G12G14G19G24G25G32R01R08R09R10R19
                                R20
  23569196.531 5  23569203.406 9  23569204.582 9 123856918.655 5  96511943.152 9
  92490609.580 9  23569201.69547
  19845997.789 7  19845998.703 9                 104291418.666 7  81266044.146 9
                  19845998.60249
  24099782.969 4                                 126645081.600 4  98684570.42945
                  24099784.03545
  22361638.805 5                                 117511200.211 5  91567165.54947
                  22361638.61747
  20593439.172 7  20593444.168 9  20593445.867 9 108219232.817 7  84326709.721 9
  80813093.146 9  20593443.80149
  21856928.703 7  21856933.402 9  21856933.738 9 114858892.759 7  89500493.211 9
  85771302.893 9  21856932.96148
  22644133.148 6  22644137.742 9  22644137.461 9 118995683.522 6  92723959.551 9
  88860456.640 9  22644137.62147
  21648427.742 6                                 115723179.478 6  90007001.345 8
                  21648434.926 8
  21848947.844 6                                 117000106.509 6  91000078.724 9
                  21848950.254 9
  19982754.398 8                                 106706784.798 8  82994166.479 9
                  19982757.055 9
  19512378.641 8                                 104011953.838 8  80898184.152 9
                  19512384.645 9
  20459154.086 4                                 109442672.850 4  85122088.043 9
                  20459155.262 9
  21326022.086 5                                 114040091.630 5  88697686.865 9
                  21326029.090 9
 19  5 27  8 34 20.0000000  0 13G06G12G14G19G24G25G32R01R08R09R10R19
                                R20
  23566202.453 4  23566210.277 9  23566211.832 9 123841189.842 4  96499686.940 9
  92478864.072 9  23566209.06347
  19844297.703 7  19844299.105 9                 104282487.695 7  81259084.949 9
                  19844298.78949
  24095720.289 3                                 126623735.301 3  98667936.92345
                  24095721.89545
  22362751.031 6                                 117517042.637 6  91571718.12047
                  22362751.20747
  20593731.398 7  20593735.633 9  20593737.551 9 108220766.481 7  84327904.780 9
  80814238.405 9  20593735.53949
  21853121.297 7  21853125.531 9  21853125.707 9 114838881.417 7  89484899.956 9
  85756359.372 9  21853125.34048
  22641000.813 6  22641005.648 9  22641004.973 9 118979225.760 6  92711135.313 9
  88848166.745 9  22641005.77747
  21647193.430 6                                 115716581.625 6  90001869.694 8
                  21647200.184 8
  21850460.758 6                                 117008202.629 6  91006375.717 9
                  21850461.770 9
  19983056.453 8                                 106708397.638 8  82995420.915 9
                  19983060.141 9
  19509906.461 8                                 103998776.689 8  80887935.273 9
                  19509912.977 9
  20458312.594 4                                 109438171.145 4  85118586.727 9
                  20458313.871 9
  21321203.523 5                                 114014323.248 5  88677644.813 9
                  21321210.578 9
 19  5 27  8 34 25.0000000  0 13G06G12G14G19G24G25G32R01R08R09R10R19
                                R20
  23563212.563 5  23563219.273 9  23563220.984 9 123825472.786 5  96487439.938 9
  92467127.325 9  23563218.85947
  19842600.656 7  19842601.727 9                 104273568.052 7  81252134.568 9
                  19842601.48849
  24091660.336 4                                 126602396.649 4  98651309.39845
                  24091662.12145
  22363864.859 6                                 117522897.188 6  91576280.08947
                  22363865.14147
  20594024.922 7  20594029.477 9  20594031.352 9 108222310.755 7  84329108.102 9
  80815391.592 9  20594029.34049
  21849313.805 7  21849318.867 9  21849319.195 9 114818877.138 7  89469312.219 9
  85741421.101 9  21849318.70748
  22637871.641 6  22637876.508 9  22637875.457 9 118962781.175 6  92698321.365 9
  88835886.704 9  22637875.79348
  21645963.016 6                                 115710005.094 6  89996754.590 8
                  21645970.352 8
  21851973.578 6                                 117016311.969 6  91012682.980 9
                  21851976.301 9
  19983359.508 7                                 106710019.282 7  82996682.175 9
                  19983363.230 9
  19507436.148 8                                 103985608.712 8  80877693.512 8
                  19507442.516 8
  20457474.023 4                                 109433692.255 4  85115103.129 9
                  20457476.527 9
  21316387.328 5                                 113988567.137 5  88657612.277 9
                  21316394.266 9
 19  5 27  8 34 30.0000000  0 13G06G12G14G19G24G25G32R01R08R09R10R19
                                R20
  23560224.641 5  23560230.371 9  23560231.859 9 123809767.141 5  96475201.786 9
  92455399.106 9  23560230.60947
  19840905.094 7  19840906.605 9                 104264659.308 7  81245192.690 9
                  19840906.30149
  24087602.125 4                                 126581065.238 4  98634687.54645
                  24087602.58645
  22364981.508 6                                 117528763.592 6  91580851.30547
                  22364981.74247
  20594321.180 7  20594325.246 9  20594327.660 9 108223865.108 7  84330319.290 9
  80816552.303 9  20594325.18449
  21845508.867 7  21845513.695 9  21845514.113 9 114798879.533 7  89453729.675 9
  85726487.831 9  21845513.39548
  22634745.203 6  22634749.625 9  22634749.004 9 118946349.370 6  92685517.350 9
  88823616.204 9  22634749.22348
  21644737.758 6                                 115703449.538 6  89991655.842 8
                  21644744.039 8
  21853489.109 6                                 117024434.174 6  91019000.269 9
                  21853493.332 9
  19983665.070 7                                 106711649.369 7  82997950.013 9
                  19983667.977 9
  19504967.320 8                                 103972449.459 8  80867458.536 9
                  19504973.406 9
  20456640.508 4                                 109429235.678 4  85111636.905 9
                  20456643.320 9
  21311573.586 5                                 113962822.871 5  88637588.985 9
                  21311580.031 9
 19  5 27  8 34 35.0000000  0 13G06G12G14G19G24G25G32R01R08R09R10R19
                                R20
  23557237.164 5  23557244.695 9  23557245.684 9 123794073.583 5  96462973.033 9
  92443679.885 9  23557244.78947
  19839212.227 7  19839213.230 9                 104255762.203 7  81238259.878 9
                  19839212.93449
  24083542.680 4                                 126559741.831 4  98618071.89045
                  24083545.03945
  22366100.500 6                                 117534642.482 6  91585432.25747
                  22366100.21547
  20594618.656 7  20594623.238 9  20594624.988 9 108225430.274 7  84331538.906 9
  80817721.099 9  20594623.32849
  21841704.563 7  21841709.730 9  21841710.012 9 114778889.313 7  89438152.884 9
  85711560.068 9  21841709.34848
  22631620.594 6  22631625.336 9  22631625.070 9 118929931.068 6  92672723.881 9
  88811355.780 9  22631624.93848
  21643514.938 6                                 115696915.888 6  89986574.104 8
                  21643521.965 8
  21855010.086 6                                 117032569.892 6  91025328.054 9
                  21855012.957 9
  19983972.719 7                                 106713288.473 7  82999224.864 9
                  19983975.012 9
  19502500.086 8                                 103959299.752 8  80857230.988 9
                  19502507.488 9
  20455811.305 3                                 109424802.176 3  85108188.623 9
                  20455815.152 9
  21306761.047 6                                 113937091.176 6  88617575.441 9
                  21306767.164 9
 19  5 27  8 34 40.0000000  0 13G06G12G14G19G24G25G32R01R08R09R10R19
                                R20
  23554253.336 5  23554260.758 9  23554261.781 9 123778393.326 5  96450754.637 9
  92431970.594 9  23554260.82447
  19837521.461 7  19837522.691 9                 104246877.949 7  81231337.095 9
                  19837522.04749
  24079486.148 3                                 126538427.586 3  98601463.40845
                  24079489.03945
  22367221.938 6                                 117540535.055 6  91590023.85747
                  22367221.86347
  20594918.953 7  20594923.238 9  20594924.867 9 108227007.479 7  84332767.888 9
  80818898.872 9  20594923.50449
  21837902.508 7  21837907.246 9  21837907.832 9 114758907.682 7  89422582.781 9
  85696638.732 9  21837906.87948
  22628499.297 6  22628503.516 9  22628503.863 9 118913527.450 6  92659941.832 9
  88799106.320 9  22628503.55547
  21642297.758 6                                 115690405.124 6  89981510.188 8
                  21642303.871 8
  21856531.523 6                                 117040720.368 6  91031667.297 9
                  21856535.160 9
  19984281.438 8                                 106714937.944 8  83000507.789 9
                  19984284.797 9
  19500035.242 8                                 103946160.742 8  80847011.755 8
                  19500042.273 8
  20454986.680 4                                 109420393.000 4  85104759.286 9
                  20454990.805 9
  21301951.125 6                                 113911373.332 6  88597572.693 9
                  21301957.988 9
 19  5 27  8 34 45.0000000  0 13G06G12G14G19G24G25G32R01R08R09R10R19
                                R20
  23851064.250 5  23851071.602 9  23851072.914 9 125338148.285 5  97666148.147 9
  93596722.713 9  23851071.43447
  20135626.023 7  20135627.297 9                 105813427.115 7  82452024.760 9
                  20135626.71949
  24375225.109 3                                 128092545.636 3  99812464.48445
                  24375227.49245
  22668137.406 6                                 119121858.954 6  92822224.30647
                  22668137.82447
  20895013.820 7  20895018.211 9  20895019.180 9 109804015.213 7  85561605.076 9
  81996534.513 9  20895018.22749
  22133894.641 7  22133899.660 9  22133900.004 9 116314357.413 7  90634621.537 9
  86858175.878 9  22133899.22748
  22925172.570 6  22925177.754 9  22925177.770 9 120472560.645 6  93874772.893 9
  89963319.413 9  22925177.63348
  21940875.531 6                                 117286479.804 6  91222901.619 8
                  21940882.547 8
  22157846.703 6                                 118654257.715 6  92286640.809 9
                  22157852.254 9
  20284383.836 8                                 108317471.259 8  84246922.596 9
                  20284387.430 9
  19797365.656 8                                 105531096.144 8  82079739.277 9
                  19797372.211 9
  20753959.852 4                                 111019695.244 4  86348661.035 9
                  20753962.836 9
  21596938.516 5                                 115488798.223 5  89824458.729 9
                  21596943.852 9
 19  5 27  8 34 50.0000000  0 13G06G12G14G19G24G25G32R01R08R09R10R19
                                R20
  23848085.273 4  23848092.293 9  23848093.438 9 125322493.528 4  97653949.684 9
  93585032.527 9  23848092.25047
  20133939.781 7  20133940.941 9                 105804567.476 7  82445121.152 9
                  20133940.52349
  24371171.602 3                                 128071248.776 3  99795869.51445
                  24371174.94945
  22669263.648 6                                 119127777.825 6  92826836.40147
                  22669264.30947
  20895318.039 7  20895322.664 9  20895323.805 9 109805615.342 7  85562851.923 9
  81997729.421 9  20895323.14149
  22130095.625 7  22130099.758 9  22130100.828 9 116294391.912 7  90619064.017 9
  86843266.582 9  22130099.93048
  22922057.148 6  22922061.320 9  22922061.465 9 120456185.435 6  93862012.984 9
  89951091.178 9  22922061.50448
  21939667.016 6                                 117280013.830 6  91217872.532 8
                  21939672.676 8
  22159373.820 6                                 118662436.442 6  92293002.023 9
                  22159378.680 9
  20284696.609 7                                 108319140.340 7  84248220.779 9
                  20284699.578 9
  19794904.320 8                                 105517977.092 8  82069535.563 9
                  19794910.941 9
  20753144.531 5                                 111015333.465 5  86345268.539 9
                  20753147.055 9
  21592134.844 6                                 115463106.983 6  89804476.661 9
                  21592139.770 9
 19  5 27  8 34 55.0000000  0 13G06G12G14G19G24G25G32R01R08R09R10R19
                                R20
  23845109.391 4  23845115.793 9  23845117.074 9 125306851.445 4  97641761.054 9
  93573351.756 9  23845115.18447
  20132256.641 7  20132257.582 9                 105795719.952 7  82438226.984 9
                  20132257.18849
  24367122.188 3                                 128049960.491 3  99779281.26245
                  24367123.78545
  22670392.266 6                                 119133709.606 6  92831458.57847
                  22670392.84447
  20895624.594 7  20895629.250 9  20895630.449 9 109807226.959 7  85564107.725 9
  81998932.891 9  20895629.72749
  22126296.867 7  22126302.598 9  22126303.961 9 116274434.257 7  90603512.616 9
  86828363.150 9  22126302.24248
  22918943.531 6  22918948.598 9  22918948.078 9 120439824.225 6  93849264.031 9
  89938873.407 9  22918948.41047
  21938460.813 6                                 117273570.073 6  91212860.721 8
                  21938467.535 8
  22160905.516 6                                 118670629.229 6  92299374.175 9
                  22160909.488 9
  20285011.219 8                                 108320819.003 8  84249526.391 9
                  20285014.332 9
  19792444.969 7                                 105504868.076 7  82059339.679 9
                  19792451.617 9
  20752334.922 4                                 111010995.349 4  86341894.424 9
                  20752336.367 9
  21587332.188 6                                 115437428.982 6  89784504.906 9
                  21587337.270 9
 19  5 27  8 35  0.0000000  0 13G06G12G14G19G24G25G32R01R08R09R10R19
                                R20
  23842135.523 5  23842141.758 9  23842142.742 9 125291221.175 5  97629581.611 9
  93561679.810 9  23842140.78947
  20130574.867 7  20130576.066 9                 105786883.707 7  82431341.601 9
                  20130575.79349
  24363070.055 2                                 128028679.859 2  99762698.93145
                  24363074.65645
  22671523.570 6                                 119139653.504 6  92836090.17247
                  22671523.72347
  20895933.109 7  20895938.332 9  20895939.613 9 109808848.955 7  85565371.610 9
  82000144.122 9  20895938.71949
  22122500.914 7  22122506.125 9  22122507.344 9 116254483.664 7  90587966.698 9
  86813464.986 9  22122505.80148
  22915832.750 6  22915837.625 9  22915836.504 9 120423476.199 6  93836525.317 9
  89926665.465 9  22915837.36748
  21937259.391 6                                 117267147.639 6  91207865.495 8
                  21937265.883 8
  22162439.469 6                                 118678835.005 6  92305756.445 9
                  22162442.133 9
  20285327.547 8                                 108322506.398 8  84250838.798 9
                  20285329.980 9
  19789987.914 8                                 105491768.268 8  82049150.938 9
                  19789994.309 9
  20751529.250 4                                 111006679.837 4  86338537.930 9
                  20751528.988 9
  21582531.438 6                                 115411763.297 6  89764542.709 9
                  21582538.031 9
 19  5 27  8 35  5.0000000  0 13G06G12G14G19G24G25G32R01R08R09R10R19
                                R20
  23839163.211 5  23839170.594 9  23839171.090 9 125275604.285 5  97617412.614 9
  93550017.854 9  23839169.43447
  20128895.734 7  20128896.781 9                 105778060.339 7  82424466.246 9
                  20128896.59449
  24359023.664 2                                 128007408.562 2  99746123.90845
                  24359026.77045
  22672657.063 6                                 119145611.026 6  92840732.39747
                  22672657.48047
  20896244.422 7  20896249.082 9  20896251.355 9 109810482.961 7  85566644.860 9
  82001364.317 9  20896249.40249
  22118705.984 7  22118711.066 9  22118712.625 9 116234541.700 7  90572427.517 9
  86798573.255 9  22118711.02348
  22912724.930 6  22912729.676 9  22912728.477 9 120407142.973 6  93823798.149 9
  89914468.587 9  22912728.98847
  21936062.555 6                                 117260748.257 6  91202888.188 8
                  21936068.195 8
  22163973.453 6                                 118687055.501 6  92312150.127 9
                  22163976.578 9
  20285645.172 8                                 108324204.149 8  84252159.281 9
                  20285647.762 9
  19787531.242 8                                 105478679.185 8  82038970.553 9
                  19787538.289 9
  20750726.023 4                                 111002388.771 4  86335200.418 9
                  20750727.445 9
  21577735.398 5                                 115386111.604 5  89744591.396 9
                  21577741.285 9
 19  5 27  8 35 10.0000000  0 13G06G12G14G19G24G25G32R01R08R09R10R19
                                R20
  23836194.133 5  23836200.766 9  23836202.039 9 125259999.708 5  97605253.176 9
  93538365.060 9  23836200.20347
  20127219.281 7  20127220.305 9                 105769248.712 7  82417600.040 9
                  20127219.78549
  24354977.648 3                                 127986145.480 3  99729555.28745
                  24354980.51645
  22673794.117 6                                 119151581.096 6  92845384.41947
                  22673793.45347
  20896557.273 7  20896562.324 9  20896564.160 9 109812127.986 7  85567926.694 9
  82002592.731 9  20896562.55949
  22114912.094 7  22114917.141 9  22114918.559 9 116214607.311 7  90556894.233 9
  86783687.188 9  22114917.01648
  22909619.336 6  22909624.246 9  22909623.055 9 120390823.456 6  93811081.648 9
  89902281.935 9  22909623.74248
  21934870.297 6                                 117254370.705 6  91197927.866 8
                  21934875.844 8
  22165509.828 6                                 118695289.471 6  92318554.336 9
                  22165513.887 9
  20285964.906 7                                 108325911.184 7  84253486.969 9
                  20285967.141 9
  19785078.625 8                                 105465599.728 8  82028797.647 9
                  19785084.797 9
  20749927.102 4                                 110998120.750 4  86331880.856 9
                  20749929.844 9
  21572941.336 5                                 115360472.685 5  89724650.028 9
                  21572946.824 9
 19  5 27  8 35 15.0000000  0 13G06G12G14G19G24G25G32R01R08R09R10R19
                                R20
  23833227.328 5  23833233.172 9  23833234.461 9 125244407.102 5  97593103.111 9
  93526721.235 9  23833232.80147
  20125544.141 7  20125545.609 9                 105760448.490 7  82410742.723 9
                  20125545.42649
  24350932.406 3                                 127964890.218 3  99712992.72745
                  24350935.01645
  22674931.180 5                                 119157563.372 5  92850045.94147
                  22674931.93447
  20896872.156 7  20896876.875 9  20896879.090 9 109813783.622 7  85569216.799 9
  82003829.079 9  20896876.90649
  22111120.141 7  22111125.617 9  22111126.594 9 116194680.108 7  90541366.548 9
  86768806.504 9  22111125.28548
  22906516.898 6  22906521.020 9  22906520.578 9 120374517.315 6  93798375.561 9
  89890105.270 9  22906520.61748
  21933680.422 6                                 117248014.643 6  91192984.258 8
                  21933686.031 8
  22167051.844 6                                 118703536.635 6  92324968.792 9
                  22167053.703 9
  20286286.547 8                                 108327627.107 8  84254821.563 9
                  20286288.984 9
  19782626.484 8                                 105452529.418 8  82018631.856 9
                  19782632.898 9
  20749133.477 4                                 110993875.653 4  86328579.123 9
                  20749136.977 9
  21568149.063 5                                 115334846.438 5  89704718.514 9
                  21568154.605 9
 19  5 27  8 35 20.0000000  0 13G06G12G14G19G24G25G32R01R08R09R10R19
                                R20
  23830262.234 5  23830268.586 9  23830269.523 9 125228827.938 5  97580963.529 9
  93515087.455 9  23830268.45347
  20123872.250 7  20123873.559 9                 105751661.130 7  82403895.427 9
                  20123873.18849
  24346889.641 3                                 127943644.340 3  99696437.52845
                  24346891.92245
  22676072.164 6                                 119163559.327 6  92854718.07647
                  22676072.95347
  20897189.828 7  20897194.484 9  20897196.277 9 109815451.305 7  85570516.298 9
  82005074.428 9  20897194.03149
  22107330.047 7  22107334.734 9  22107335.703 9 116174761.572 7  90525845.617 9
  86753932.270 9  22107334.27748
  22903416.938 6  22903420.801 9  22903420.492 9 120358226.004 6  93785681.024 9
  89877939.673 9  22903420.65248
  21932496.539 6                                 117241681.629 6  91188058.574 8
                  21932502.023 8
  22168593.391 6                                 118711798.397 6  92331394.616 9
                  22168596.758 9
  20286609.297 8                                 108329353.425 8  84256164.242 9
                  20286612.281 9
  19780176.500 8                                 105439469.807 8  82008474.379 8
                  19780183.047 8
  20748345.656 4                                 110989654.892 4  86325296.308 9
                  20748348.352 9
  21563359.438 6                                 115309234.211 6  89684797.899 9
                  21563364.375 9
 19  5 27  8 35 25.0000000  0 13G06G12G14G19G24G25G32R01R08R09R10R19
                                R20
  23827298.945 5  23827306.496 9  23827307.246 9 125213260.119 5  97568832.780 9
  93503462.168 9  23827306.40647
  20122202.523 7  20122203.539 9                 105742884.496 7  82397056.503 9
                  20122203.26249
  24342847.297 3                                 127922405.749 3  99679887.96245
                  24342850.40245
  22677214.852 5                                 119169566.811 5  92859399.22747
                  22677215.68447
  20897509.344 7  20897513.195 9  20897515.121 9 109817128.949 7  85571823.561 9
  82006327.212 9  20897512.87949
  22103540.750 7  22103545.820 9  22103546.957 9 116154849.616 7  90510329.812 9
  86739062.965 9  22103545.30148
  22900318.734 6  22900323.422 9  22900322.727 9 120341947.440 6  93772996.439 9
  89865783.619 9  22900323.41448
  21931315.469 6                                 117235369.392 6  91183149.054 8
                  21931320.688 8
  22170139.203 6                                 118720072.681 6  92337830.152 9
                  22170141.410 9
  20286934.672 8                                 108331087.914 8  84257513.291 9
                  20286937.176 9
  19777728.047 8                                 105426418.942 8  81998323.703 9
                  19777734.645 9
  20747560.484 4                                 110985456.287 4  86322030.717 9
                  20747563.066 9
  21558570.406 6                                 115283633.835 6  89664886.513 9
                  21558576.797 9
 19  5 27  8 35 30.0000000  0 13G06G12G14G19G24G25G32R01R08R09R10R19
                                R20
  23824338.211 5  23824346.148 9  23824347.262 9 125197704.291 5  97556711.348 9
  93491845.791 9  23824346.25047
  20120534.227 7  20120535.297 9                 105734119.272 7  82390226.457 9
                  20120535.41849
  24338807.195 2                                 127901174.938 2  99663344.51945
                  24338810.47345
  22678361.039 5                                 119175586.387 5  92864089.80247
                  22678361.08247
  20897830.281 7  20897834.539 9  20897836.121 9 109818817.143 7  85573139.020 9
  82007587.863 9  20897834.23049
  22099752.961 7  22099758.535 9  22099759.887 9 116134944.850 7  90494819.602 9
  86724199.013 9  22099757.93848
  22897223.906 6  22897227.613 9  22897227.664 9 120325682.253 6  93760322.237 9
  89853637.529 9  22897227.94148
  21930136.680 6                                 117229078.750 6  91178256.326 8
                  21930144.301 8
  22171686.266 6                                 118728359.987 6  92344275.836 9
                  22171689.371 9
  20287260.633 7                                 108332831.271 7  84258869.254 9
                  20287263.434 9
  19775281.734 8                                 105413377.356 8  81988180.243 9
                  19775288.176 9
  20746779.797 4                                 110981280.452 4  86318782.837 9
                  20746782.145 9
  21553785.797 5                                 115258046.134 5  89644984.979 9
                  21553792.230 9
 19  5 27  8 35 35.0000000  0 13G06G12G14G19G24G25G32R01R08R09R10R19
                                R20
  23821381.672 5  23821388.270 9  23821389.633 9 125182161.264 5  97544599.936 9
  93480239.004 9  23821388.50047
  20118868.305 7  20118869.789 9                 105725366.207 7  82383405.886 9
                  20118869.63349
  24334768.781 2                                 127879952.814 2  99646807.76945
                  24334772.57445
  22679509.234 5                                 119181618.927 5  92868790.47847
                  22679509.09847
  20898153.609 7  20898158.188 9  20898159.355 9 109820516.669 7  85574463.321 9
  82008856.987 9  20898157.81649
  22095967.203 7  22095971.609 9  22095972.270 9 116115048.104 7  90479315.654 9
  86709341.066 9  22095970.96148
  22894131.094 6  22894135.148 9  22894135.617 9 120309431.234 6  93747659.124 9
  89841502.032 9  22894135.24648
  21928965.680 6                                 117222810.284 6  91173380.831 8
                  21928971.680 8
  22173236.852 6                                 118736661.154 6  92350732.278 9
                  22173239.926 9
  20287588.891 7                                 108334584.320 7  84260232.720 9
                  20287591.055 9
  19772837.406 8                                 105400345.827 8  81978044.598 9
                  19772843.527 9
  20746003.789 4                                 110977128.250 4  86315553.337 9
                  20746005.988 9
  21549004.133 6                                 115232471.701 6  89625093.761 9
                  21549010.402 9
 19  5 27  8 35 40.0000000  0 13G06G12G14G19G24G25G32R01R08R09R10R19
                                R20
  23818425.992 5  23818432.449 9  23818433.582 9 125166629.568 5  97532497.331 9
  93468640.688 9  23818432.16047
  20117204.938 7  20117205.859 9                 105716623.854 7  82376593.658 9
                  20117206.05949
  24330732.523 2                                 127858737.999 2  99630276.79445
                  24330735.35545
  22680659.133 5                                 119187662.861 5  92873500.02447
                  22680659.68047
  20898479.172 7  20898483.668 9  20898484.660 9 109822226.188 7  85575795.410 9
  82010133.569 9  20898483.52749
  22092182.188 7  22092187.227 9  22092188.461 9 116095157.879 7  90463816.780 9
  86694487.973 9  22092186.74648
  22891040.945 6  22891045.070 9  22891044.809 9 120293192.952 6  93735005.904 9
  89829376.045 9  22891044.55948
  21927795.523 6                                 117216562.655 6  91168521.593 8
                  21927802.957 8
  22174789.969 6                                 118744974.716 6  92357198.388 9
                  22174793.211 9
  20287918.875 7                                 108336345.581 7  84261602.593 9
                  20287920.332 9
  19770394.219 8                                 105387323.007 8  81967915.752 9
                  19770400.719 9
  20745231.523 3                                 110972998.139 3  86312341.019 9
                  20745234.055 9
  21544223.859 5                                 115206909.321 5  89605211.905 9
                  21544229.957 9
 19  5 27  8 35 45.0000000  0 13G06G12G14G19G24G25G32R01R08R09R10R19
                                R20
  23815473.680 5  23815478.961 9  23815480.547 9 125151108.654 5  97520403.131 9
  93457050.427 9  23815479.12547
  20115543.242 7  20115544.449 9                 105707891.649 7  82369789.345 9
                  20115544.35249
  24326695.805 2                                 127837529.948 2  99613751.08445
                  24326699.59845
  22681811.234 5                                 119193717.634 5  92878218.03247
                  22681811.85547
  20898806.102 7  20898810.582 9  20898811.762 9 109823945.019 7  85577134.755 9
  82011417.116 9  20898810.80949
  22088398.789 7  22088402.480 9  22088404.051 9 116075273.692 7  90448322.607 9
  86679639.398 9  22088401.98048
  22887953.719 7  22887957.766 9  22887957.293 9 120276966.863 7  93722362.211 9
  89817259.164 9  22887957.21548
  21926631.852 6                                 117210335.234 6  91163678.044 8
                  21926637.969 8
  22176345.336 6                                 118753299.996 6  92363673.596 9
                  22176347.297 9
  20288250.078 7                                 108338114.484 7  84262978.396 9
                  20288251.668 9
  19767953.289 8                                 105374308.227 8  81957793.137 8
                  19767959.250 8
  20744462.867 4                                 110968889.649 4  86309145.539 9
                  20744465.906 9
  21539443.953 5                                 115181358.345 5  89585338.936 9
                  21539451.270 9
 19  5 27  8 35 50.0000000  0 13G06G12G14G19G24G25G32R01R08R09R10R19
                                R20
  23812521.180 5  23812527.387 9  23812529.270 9 125135599.742 5  97508318.270 9
  93445469.087 9  23812527.60947
  20113883.344 7  20113884.766 9                 105699170.703 7  82362993.808 9
                  20113884.53949
  24322662.250 2                                 127816329.699 2  99597231.36345
                  24322665.27745
  22682966.297 5                                 119199784.454 5  92882945.43147
                  22682966.66847
  20899135.086 7  20899139.625 9  20899141.031 9 109825674.272 7  85578482.221 9
  82012708.442 9  20899139.96149
  22084615.391 7  22084620.391 9  22084622.102 9 116055396.602 7  90432833.972 9
  86664796.110 9  22084619.85948
  22884868.352 7  22884872.070 9  22884872.164 9 120260754.089 7  93709728.878 9
  89805152.226 9  22884872.09048
  21925470.156 6                                 117204129.309 6  91158851.203 8
                  21925476.973 8
  22177899.773 6                                 118761638.222 6  92370158.889 9
                  22177903.918 9
  20288582.898 7                                 108339892.136 7  84264361.009 9
                  20288584.246 9
  19765511.945 8                                 105361302.469 8  81947677.548 8
                  19765518.656 8
  20743698.000 3                                 110964803.810 3  86305967.664 9
                  20743701.309 9
  21534669.164 5                                 115155819.930 5  89565475.734 9
                  21534675.906 9
 19  5 27  8 35 55.0000000  0 13G06G12G14G19G24G25G32R01R08R09R10R19
                                R20
  23809572.750 5  23809578.992 9  23809580.414 9 125120103.456 5  97496243.235 9
  93433897.184 9  23809578.34847
  20112226.242 7  20112227.676 9                 105690461.780 7  82356207.635 9
                  20112227.74249
  24318629.961 2                                 127795137.978 2  99580718.38845
                  24318632.90245
  22684122.648 5                                 119205863.910 5  92887682.63947
                  22684123.69547
  20899466.141 7  20899471.230 9  20899472.582 9 109827414.659 7  85579838.360 9
  82014008.076 9  20899471.10249
  22080834.930 7  22080839.352 9  22080841.359 9 116035527.342 7  90417351.437 9
  86649958.686 9  22080839.41048
  22881785.750 7  22881789.867 9  22881789.434 9 120244555.316 7  93697106.463 9
  89793055.747 9  22881790.12148
  21924312.867 6                                 117197945.332 6  91154041.430 8
                  21924320.496 8
  22179459.438 6                                 118769990.102 6  92376654.754 9
                  22179463.168 9
  20288917.781 8                                 108341679.256 8  84265750.998 9
                  20288919.734 9
  19763074.211 8                                 105348306.469 8  81937569.556 9
                  19763080.945 9
  20742939.930 3                                 110960741.357 3  86302807.984 9
                  20742941.668 9
  21529895.273 5                                 115130294.966 5  89545622.973 9
                  21529902.145 9
 19  5 27  8 36  0.0000000  0 13G06G12G14G19G24G25G32R01R08R09R10R19
                                R20
  23806624.797 5  23806632.531 9  23806634.055 9 125104617.687 5  97484176.416 9
  93422333.159 9  23806631.98447
  20110571.133 7  20110572.250 9                 105681762.731 7  82349429.152 9
                  20110572.26249
  24314597.219 3                                 127773952.787 3  99564210.41545
                  24314601.61345
  22685281.328 5                                 119211953.908 5  92892428.09847
                  22685282.78947
  20899799.727 7  20899803.910 9  20899805.313 9 109829164.261 7  85581201.681 9
  82015314.594 9  20899803.94949
  22077055.359 7  22077060.078 9  22077061.746 9 116015663.766 7  90401873.334 9
  86635125.498 9  22077059.91048
  22878705.180 6  22878709.621 9  22878708.914 9 120228368.479 6  93684493.334 9
  89780968.167 9  22878709.77748
  21923159.828 6                                 117191781.227 6  91149247.125 8
                  21923167.266 8
  22181022.125 6                                 118778353.328 6  92383159.474 9
                  22181025.844 9
  20289253.961 8                                 108343473.679 8  84267146.651 9
                  20289256.746 9
  19760637.586 8                                 105335318.347 8  81927467.676 9
                  19760644.227 9
  20742182.883 4                                 110956700.214 4  86299664.859 9
                  20742186.773 9
  21525124.438 5                                 115104781.055 5  89525778.837 9
                  21525131.074 9
 19  5 27  8 36  5.0000000  0 13G06G12G14G19G24G25G32R01R08R09R10R19
                                R20
  23803681.898 5  23803687.152 9  23803689.008 9 125089144.489 5  97472119.405 9
  93410778.537 9  23803686.76247
  20108918.102 7  20108919.309 9                 105673075.596 7  82342659.945 9
                  20108919.00449
  24310568.141 3                                 127752776.148 3  99547709.14745
                  24310571.75445
  22686442.789 5                                 119218056.457 5  92897183.33947
                  22686443.39147
  20900134.586 7  20900139.148 9  20900140.398 9 109830924.912 7  85582573.600 9
  82016629.352 9  20900138.79749
  22073276.836 7  22073281.344 9  22073283.246 9 115995808.004 7  90386401.317 9
  86620298.151 9  22073281.29748
  22875627.680 6  22875632.113 9  22875631.609 9 120212195.620 6  93671891.125 9
  89768891.033 9  22875632.17648
  21922011.766 6                                 117185639.247 6  91144470.045 8
                  21922017.750 8
  22182586.461 6                                 118786730.112 6  92389674.765 9
                  22182590.238 9
  20289591.586 8                                 108345277.481 8  84268549.611 9
                  20289594.359 9
  19758202.938 8                                 105322340.149 8  81917373.522 9
                  19758209.871 9
  20741433.656 4                                 110952682.323 4  86296539.861 9
                  20741435.109 9
  21520356.094 5                                 115079280.500 5  89505945.082 9
                  21520362.000 9
 19  5 27  8 36 10.0000000  0 13G06G12G14G19G24G25G32R01R08R09R10R19
                                R20
  23800738.922 5  23800745.059 9  23800746.637 9 125073681.567 5  97460070.363 9
  93399231.529 9  23800744.62947
  20107266.617 8  20107267.645 9                 105664397.982 8  82335898.167 9
                  20107267.38749
  24306540.742 3                                 127731605.562 3  99531212.55845
                  24306543.11745
  22687606.859 6                                 119224169.192 6  92901946.49747
                  22687607.02347
  20900471.094 7  20900475.641 9  20900476.641 9 109832694.087 7  85583952.172 9
  82017950.480 9  20900475.03949
  22069499.398 7  22069503.352 9  22069504.703 9 115975957.572 7  90370933.447 9
  86605474.778 9  22069503.45748
  22872551.836 6  22872557.059 9  22872555.715 9 120196034.345 6  93659297.917 9
  89756822.547 9  22872556.92648
  21920866.359 6                                 117179516.796 6  91139708.127 8
                  21920872.797 8
  22184152.867 6                                 118795117.691 6  92396198.418 9
                  22184156.402 9
  20289930.188 7                                 108347088.257 7  84269957.981 9
                  20289934.301 9
  19755769.836 7                                 105309369.276 7  81907285.062 9
                  19755776.336 9
  20740685.500 4                                 110948685.265 4  86293431.039 9
                  20740688.090 9
  21515590.328 5                                 115053790.707 5  89486119.692 9
                  21515595.438 9
 19  5 27  8 36 15.0000000  0 13G06G12G14G19G24G25G32R01R08R09R10R19
                                R20
  23797798.883 5  23797805.094 9  23797806.688 9 125058231.017 5  97448030.999 9
  93387693.813 9  23797804.73847
  20105617.656 7  20105619.000 9                 105655732.073 7  82329145.516 9
                  20105618.67649
  24302513.625 3                                 127710443.293 3  99514722.50245
                  24302515.77345
  22688771.477 6                                 119230294.269 6  92906719.29047
                  22688772.35247
  20900809.703 7  20900814.828 9  20900815.777 9 109834474.064 7  85585339.163 9
  82019279.670 9  20900814.64549
  22065723.250 7  22065727.344 9  22065728.277 9 115956114.745 7  90355471.492 9
  86590657.073 9  22065726.97348
  22869479.156 6  22869484.238 9  22869483.363 9 120179886.864 6  93646715.472 9
  89744764.361 9  22869484.28548
  21919724.711 6                                 117173416.080 6  91134963.129 8
                  21919731.410 8
  22185720.844 6                                 118803518.729 6  92402732.559 9
                  22185725.480 9
  20290272.344 7                                 108348908.229 7  84271373.512 9
                  20290274.625 9
  19753338.852 8                                 105296408.126 8  81897204.155 9
                  19753344.816 9
  20739943.477 4                                 110944711.333 4  86290340.202 9
                  20739945.363 9
  21510824.766 5                                 115028314.034 5  89466304.510 9
                  21510831.457 9
 19  5 27  8 36 20.0000000  0 13G06G12G14G19G24G25G32R01R08R09R10R19
                                R20
  23794860.430 5  23794867.805 9  23794867.930 9 125042793.038 5  97436001.365 9
  93376165.425 9  23794867.15247
  20103970.828 7  20103972.035 9                 105647077.959 7  82322402.052 9
                  20103971.86349
  24298488.484 4                                 127689289.446 4  99498239.02145
                  24298490.40645
  22689938.828 5                                 119236431.787 5  92911501.75547
                  22689940.49647
  20901150.680 7  20901155.000 9  20901155.852 9 109836265.106 7  85586734.782 9
  82020617.138 9  20901154.84049
  22061948.758 7  22061953.086 9  22061953.594 9 115936279.568 7  90340015.515 9
  86575845.097 9  22061952.63748
  22866409.117 6  22866414.199 9  22866413.340 9 120163753.252 6  93634143.815 9
  89732716.521 9  22866414.26248
  21918589.125 6                                 117167337.326 6  91130235.221 8
                  21918593.332 8
  22187292.773 6                                 118811932.980 6  92409276.988 9
                  22187296.234 9
  20290612.961 7                                 108350737.497 7  84272796.276 9
                  20290617.016 9
  19750908.547 8                                 105283456.594 8  81887130.750 9
                  19750915.543 9
  20739205.656 4                                 110940760.558 4  86287267.381 9
                  20739207.090 9
  21506062.406 5                                 115002850.618 5  89446499.647 9
                  21506070.086 9
 19  5 27  8 36 25.0000000  0 13G06G12G14G19G24G25G32R01R08R09R10R19
                                R20
  23791925.195 5  23791931.961 9  23791932.801 9 125027366.624 5  97423980.799 9
  93364645.720 9  23791931.90647
  20102326.195 7  20102327.492 9                 105638434.662 7  82315667.013 9
                  20102327.36749
  24294463.227 4                                 127668143.097 4  99481761.31945
                  24294466.01645
  22691109.063 5                                 119242580.754 5  92916293.16447
                  22691110.98847
  20901493.094 7  20901497.852 9  20901498.656 9 109838066.103 7  85588138.165 9
  82021962.041 9  20901497.58649
  22058175.492 7  22058179.652 9  22058180.863 9 115916451.049 7  90324564.706 9
  86561038.085 9  22058179.61748
  22863341.094 6  22863346.934 9  22863346.211 9 120147632.555 6  93621582.237 9
  89720678.358 9  22863347.24648
  21917455.641 6                                 117161279.447 6  91125523.509 8
                  21917459.832 8
  22188868.602 6                                 118820359.481 6  92415830.922 9
                  22188870.676 9
  20290958.391 7                                 108352575.052 7  84274225.479 9
                  20290960.891 9
  19748480.852 8                                 105270513.904 8  81877064.216 9
                  19748487.609 9
  20738470.328 4                                 110936832.021 4  86284211.838 9
                  20738472.551 9
  21501302.977 5                                 114977399.414 5  89426704.284 9
                  21501310.152 9
 19  5 27  8 36 30.0000000  0 13G06G12G14G19G24G25G32R01R08R09R10R19
                                R20
  23788991.359 5  23788998.645 9  23788999.684 9 125011951.546 5  97411969.059 9
  93353134.453 9  23788998.55547
  20100683.266 7  20100684.414 9                 105629801.981 7  82308940.244 9
                  20100684.45349
  24290441.141 4                                 127647004.006 4  99465289.32545
                  24290443.34045
  22692281.688 5                                 119248740.965 5  92921093.33247
                  22692282.93047
  20901837.820 7  20901841.957 9  20901842.867 9 109839876.956 7  85589549.237 9
  82023314.306 9  20901841.73849
  22054403.188 7  22054407.816 9  22054408.582 9 115896629.058 7  90309119.009 9
  86546235.953 9  22054407.21548
  22860276.234 6  22860280.730 9  22860280.559 9 120131524.603 6  93609030.585 9
  89708649.695 9  22860280.83648
  21916327.203 6                                 117155242.208 6  91120827.879 8
                  21916331.270 8
  22190443.047 6                                 118828798.212 6  92422394.380 9
                  22190446.602 9
  20291304.664 8                                 108354420.711 8  84275660.983 9
                  20291306.797 9
  19746055.422 8                                 105257579.782 8  81867004.341 9
                  19746061.059 9
  20737739.094 4                                 110932925.480 4  86281173.431 9
                  20737742.063 9
  21496545.945 6                                 114951960.339 6  89406918.353 9
                  21496552.582 9
 19  5 27  8 36 35.0000000  0 13G06G12G14G19G24G25G32R01R08R09R10R19
                                R20
  23786060.352 5  23786067.324 9  23786068.574 9 124996548.444 5  97399966.612 9
  93341632.124 9  23786067.32847
  20099042.773 7  20099044.266 9                 105621180.448 7  82302222.171 9
                  20099044.52749
  24286419.516 4                                 127625872.742 4  99448823.39745
                  24286421.66445
  22693456.906 5                                 119254912.965 5  92925902.65747
                  22693457.18447
  20902184.063 7  20902188.852 9  20902190.008 9 109841698.136 7  85590968.318 9
  82024674.267 9  20902188.69949
  22050632.453 7  22050637.270 9  22050638.305 9 115876814.116 7  90293678.793 9
  86531439.088 9  22050636.87948
  22857213.523 6  22857218.238 9  22857217.797 9 120115429.960 6  93596489.317 9
  89696630.972 9  22857217.89848
  21915199.805 6                                 117149226.361 6  91116148.886 8
                  21915206.207 8
  22192021.234 6                                 118837249.477 6  92428967.571 9
                  22192025.426 9
  20291651.328 8                                 108356274.886 8  84277103.134 9
                  20291653.047 9
  19743629.773 8                                 105244654.655 8  81856951.470 9
                  19743635.648 9
  20737013.109 4                                 110929041.440 4  86278152.510 9
                  20737016.125 9
  21491791.742 5                                 114926533.863 5  89387142.221 9
                  21491798.031 9
 19  5 27  8 36 40.0000000  0 13G06G12G14G19G24G25G32R01R08R09R10R19
                                R20
  23783131.422 5  23783138.832 9  23783139.602 9 124981156.425 5  97387972.830 9
  93330138.075 9  23783138.18047
  20097403.938 7  20097405.047 9                 105612569.264 7  82295512.166 9
                  20097405.45749
  24282400.492 3                                 127604748.606 3  99432363.08245
                  24282402.27045
  22694632.969 6                                 119261095.853 6  92930720.49047
                  22694633.46147
  20902532.820 7  20902537.172 9  20902538.246 9 109843528.733 7  85592394.753 9
  82026041.268 9  20902537.34849
  22046863.711 7  22046868.102 9  22046869.082 9 115857005.432 7  90278243.451 9
  86516646.881 9  22046867.66048
  22854153.234 6  22854157.477 9  22854157.371 9 120099347.794 6  93583957.756 9
  89684621.561 9  22854157.23848
  21914078.742 6                                 117143230.780 6  91111485.657 8
                  21914084.547 8
  22193601.328 6                                 118845712.605 6  92435550.012 9
                  22193605.148 9
  20291999.438 8                                 108358136.901 8  84278551.380 9
                  20292002.344 9
  19741206.500 8                                 105231737.773 8  81846905.014 9
                  19741212.414 9
  20736291.109 4                                 110925179.125 4  86275148.487 9
                  20736295.051 9
  21487039.188 5                                 114901119.136 5  89367375.220 9
                  21487045.516 9
 19  5 27  8 36 45.0000000  0 13G06G12G14G19G24G25G32R01R08R09R10R19
                                R20
  23780203.383 5  23780210.945 9  23780212.645 9 124965774.420 5  97375986.876 9
  93318651.540 9  23780210.98447
  20095767.445 7  20095768.180 9                 105603967.244 7  82288809.299 9
                  20095768.48049
  24278381.258 4                                 127583630.261 4  99415907.20145
                  24278383.38745
  22695811.336 6                                 119267288.492 6  92935545.92647
                  22695811.89847
  20902882.969 7  20902887.094 9  20902888.148 9 109845367.720 7  85593827.723 9
  82027414.535 9  20902887.43049
  22043094.734 7  22043099.691 9  22043100.656 9 115837201.831 7  90262812.063 9
  86501858.478 9  22043099.35248
  22851094.977 6  22851099.102 9  22851098.703 9 120083276.946 6  93571435.034 9
  89672620.621 9  22851098.91848
  21912960.945 5                                 117137254.472 5  91106837.404 8
                  21912966.715 8
  22195183.656 6                                 118854186.201 6  92442140.568 9
                  22195186.645 9
  20292349.227 7                                 108360005.604 7  84280004.788 9
                  20292353.141 9
  19738784.781 8                                 105218828.040 8  81836864.104 8
                  19738790.176 8
  20735572.023 4                                 110921337.322 4  86272160.417 9
                  20735576.027 9
  21482288.320 6                                 114875715.183 6  89347616.582 9
                  21482294.430 9
 19  5 27  8 36 50.0000000  0 14G02G06G12G14G19G24G25G32R01R08R09R10
                                R19R20
  24461958.281 5                                 128548454.28715 100167657.16357
                  24461961.26247
  23777279.844 5  23777286.027 9  23777287.891 9 124950405.449 5  97364011.039 9
  93307174.706 9  23777285.76247
  20094132.695 8  20094134.066 9                 105595377.555 8  82282116.037 9
                  20094133.91849
  24274364.250 4                                 127562520.990 4  99399458.44846
                  24274366.16046
  22696992.461 6                                 119273494.037 6  92940381.40247
                  22696992.77047
  20903234.922 7  20903239.695 9  20903240.813 9 109847218.255 7  85595269.699 9
  82028796.424 9  20903240.15249
  22039327.625 7  22039332.340 9  22039333.773 9 115817406.440 7  90247387.105 9
  86487076.221 9  22039332.17248
  22848040.266 7  22848044.332 9  22848044.027 9 120067220.584 7  93558923.583 9
  89660630.476 9  22848043.83647
  21911845.828 6                                 117131300.562 6  91102206.594 8
                  21911853.176 8
  22196768.969 6                                 118862673.547 6  92448741.831 9
                  22196771.621 9
  20292701.828 8                                 108361884.070 8  84281465.797 9
                  20292705.176 9
  19736365.281 8                                 105205928.701 8  81826831.276 9
                  19736370.898 9
  20734860.211 4                                 110917519.264 4  86269190.815 9
                  20734861.746 9
  21477541.078 6                                 114850325.167 6  89327868.788 9
                  21477546.141 9
 19  5 27  8 36 55.0000000  0 14G02G06G12G14G19G24G25G32R01R08R09R10
                                R19R20
  24458161.336 5                                 128528499.299 5 100152107.83147
                  24458164.38347
  23774358.359 6  23774364.348 9  23774366.203 9 124935049.543 6  97352045.417 9
  93295707.662 9  23774364.02047
  20092500.617 8  20092501.863 9                 105586800.085 8  82275432.289 9
                  20092502.03949
  24270348.430 3                                 127541420.619 3  99383016.58945
                  24270351.11345
  22698175.953 6                                 119279712.338 6  92945226.82047
                  22698176.10247
  20903589.383 7  20903593.746 9  20903595.250 9 109849080.084 7  85596720.460 9
  82030186.737 9  20903594.64849
  22035562.320 7  22035567.504 9  22035569.199 9 115797619.179 7  90231968.471 9
  86472300.030 9  22035567.13348
  22844987.258 6  22844991.895 9  22844991.406 9 120051178.582 6  93546423.326 9
  89648651.063 9  22844991.50848
  21910736.953 6                                 117125368.862 6  91097593.048 8
                  21910743.703 8
  22198354.664 6                                 118871174.555 6  92455353.718 9
                  22198358.863 9
  20293054.516 7                                 108363772.185 7  84282934.323 9
                  20293058.316 9
  19733947.125 8                                 105193039.645 8  81816806.451 9
                  19733953.082 9
  20734149.953 4                                 110913724.757 4  86266239.521 9
                  20734152.926 9
  21472795.922 6                                 114824948.916 6  89308131.711 9
                  21472800.742 9
 19  5 27  8 37  0.0000000  0 14G02G06G12G14G19G24G25G32R01R08R09R10
                                R19R20
  24454365.156 5                                 128508548.876 5 100136562.05447
                  24454367.19947
  23771438.914 5  23771444.508 9  23771446.547 9 124919706.046 5  97340089.474 9
  93284249.876 9  23771444.18447
  20090870.281 8  20090871.406 9                 105578234.191 8  82268757.569 9
                  20090871.53149
  24266334.875 4                                 127520328.600 4  99366581.24046
                  24266337.30546
  22699361.016 5                                 119285942.779 5  92950081.69547
                  22699361.73847
  20903945.789 7  20903950.176 9  20903951.266 9 109850952.703 7  85598179.633 9
  82031585.121 9  20903950.78149
  22031798.172 7  22031803.547 9  22031805.105 9 115777839.389 7  90216555.677 9
  86457529.424 9  22031802.92248
  22841936.766 6  22841941.988 9  22841941.707 9 120035150.349 6  93533933.803 9
  89636681.936 9  22841941.98448
  21909631.047 6                                 117119458.872 6  91092996.390 8
                  21909638.414 8
  22199944.602 6                                 118879688.495 6  92461975.675 9
                  22199949.344 9
  20293410.063 7                                 108365669.409 7  84284409.935 9
                  20293413.355 9
  19731530.656 8                                 105180160.290 8  81806789.177 9
                  19731537.156 9
  20733446.070 4                                 110909953.183 4  86263306.101 9
                  20733447.574 9
  21468052.461 6                                 114799585.861 6  89288404.895 9
                  21468057.586 9
 19  5 27  8 37  5.0000000  0 14G02G06G12G14G19G24G25G32R01R08R09R10
                                R19R20
  24450569.188 5                                 128488600.687 5 100121018.01547
                  24450570.85947
  23768520.930 6  23768526.426 9  23768528.992 9 124904372.705 6  97328141.443 9
  93272799.659 9  23768526.27747
  20089241.922 7  20089243.195 9                 105569677.582 7  82262090.078 9
                  20089243.37549
  24262322.781 4                                 127499242.600 4  99350150.59346
                  24262324.69946
  22700549.234 6                                 119292182.992 6  92954944.19047
                  22700549.55547
  20904303.891 7  20904307.660 9  20904309.027 9 109852833.815 7  85599645.429 9
  82032989.838 9  20904308.19149
  22028035.773 7  22028040.238 9  22028041.879 9 115758064.877 7  90201146.977 9
  86442762.748 9  22028039.75448
  22838889.344 6  22838893.816 9  22838893.441 9 120019133.645 6  93521453.252 9
  89624721.400 9  22838893.60248
  21908528.836 6                                 117113568.176 6  91088414.735 8
                  21908535.945 8
  22201536.727 6                                 118888212.977 6  92468605.797 9
                  22201540.895 9
  20293766.102 7                                 108367573.386 7  84285890.799 9
                  20293769.758 9
  19729115.773 8                                 105167288.024 8  81796777.413 9
                  19729122.785 9
  20732744.023 4                                 110906202.255 4  86260388.706 9
                  20732745.648 9
  21463310.172 6                                 114774233.674 6  89268686.533 9
                  21463317.012 9
 19  5 27  8 37 10.0000000  0 14G02G06G12G14G19G24G25G32R01R08R09R10
                                R19R20
  24446774.453 5                                 128468656.683 5 100105477.23947
                  24446775.12547
  23765605.664 5  23765610.891 9  23765613.184 9 124889051.392 5  97316202.777 9
  93261358.439 9  23765610.53147
  20087615.945 7  20087617.020 9                 105561132.187 7  82255431.326 9
                  20087617.32849
  24258313.070 4                                 127478164.576 4  99333726.17546
                  24258314.01246
  22701739.148 6                                 119298434.909 6  92959815.81647
                  22701739.09047
  20904663.281 7  20904667.941 9  20904669.242 9 109854725.217 7  85601119.249 9
  82034402.243 9  20904668.23049
  22024274.148 7  22024279.422 9  22024281.098 9 115738297.465 7  90185743.792 9
  86428001.370 9  22024278.97348
  22835843.680 6  22835848.402 9  22835847.938 9 120003130.311 6  93508983.125 9
  89612770.867 9  22835848.68448
  21907431.914 6                                 117107698.844 6  91083849.691 8
                  21907437.227 8
  22203131.742 6                                 118896749.993 6  92475245.697 9
                  22203135.406 9
  20294124.211 7                                 108369485.989 7  84287378.398 9
                  20294127.582 9
  19726703.133 8                                 105154424.961 8  81786772.801 9
                  19726709.691 9
  20732045.695 4                                 110902473.864 4  86257488.850 9
                  20732048.625 9
  21458573.727 6                                 114748894.436 6  89248978.236 9
                  21458578.469 9
 19  5 27  8 37 15.0000000  0 14G02G06G12G14G19G24G25G32R01R08R09R10
                                R19R20
  24442979.617 5                                 128448717.286 5 100089940.05547
                  24442980.57847
  23762691.750 5  23762697.582 9  23762699.301 9 124873742.499 5  97304273.771 9
  93249926.477 9  23762696.94147
  20085991.758 7  20085993.215 9                 105552598.287 7  82248781.530 9
                  20085993.13349
  24254302.781 4                                 127457094.825 4  99317308.17746
                  24254304.54346
  22702931.383 5                                 119304698.842 5  92964696.79147
                  22702930.84047
  20905025.188 7  20905029.590 9  20905030.938 9 109856627.257 7  85602601.355 9
  82035822.591 9  20905029.39849
  22020513.555 7  22020518.867 9  22020520.879 9 115718537.519 7  90170346.433 9
  86413245.572 9  22020518.39848
  22832800.867 6  22832805.980 9  22832805.695 9 119987140.711 6  93496523.688 9
  89600830.583 9  22832806.50048
  21906337.961 5                                 117101851.071 5  91079301.415 8
                  21906343.492 8
  22204728.227 6                                 118905299.863 6  92481895.584 9
                  22204731.875 9
  20294484.602 7                                 108371407.570 7  84288872.957 9
                  20294487.488 9
  19724291.500 8                                 105141571.487 8  81776775.653 9
                  19724298.512 9
  20731355.305 4                                 110898768.310 4  86254606.764 9
                  20731356.645 9
  21453836.461 6                                 114723568.304 6  89229280.147 9
                  21453842.094 9
 19  5 27  8 37 20.0000000  0 14G02G06G12G14G19G24G25G32R01R08R09R10
                                R19R20
  24439187.484 5                                 128428783.305 5 100074407.08047
                  24439186.89147
  23759780.539 5  23759786.867 9  23759788.594 9 124858446.909 5  97292355.159 9
  93238504.468 9  23759785.99647
  20084370.305 8  20084371.461 9                 105544076.867 8  82242141.464 9
                  20084371.19949
  24250296.063 4                                 127436034.347 4  99300897.43746
                  24250296.77346
  22704124.547 6                                 119310975.708 6  92969587.86147
                  22704125.72347
  20905389.492 7  20905394.320 9  20905395.363 9 109858540.958 7  85604092.550 9
  82037251.655 9  20905394.11349
  22016755.250 7  22016759.820 9  22016762.152 9 115698785.984 7  90154955.620 9
  86398496.040 9  22016759.73048
  22829760.977 6  22829765.723 9  22829765.227 9 119971165.784 6  93484075.703 9
  89588901.254 9  22829766.32047
  21905246.500 6                                 117096025.767 6  91074770.637 8
                  21905253.715 8
  22206328.203 6                                 118913863.490 6  92488556.155 9
                  22206331.125 9
  20294845.578 7                                 108373339.188 7  84290375.323 9
                  20294849.477 9
  19721882.531 8                                 105128728.428 8  81766786.611 9
                  19721888.996 9
  20730665.508 4                                 110895086.627 4  86251743.244 9
                  20730668.730 9
  21449102.891 6                                 114698256.319 6  89209593.056 9
                  21449108.867 9
 19  5 27  8 37 25.0000000  0 14G02G06G12G14G19G24G25G32R01R08R09R10
                                R19R20
  24435393.945 5                                 128408853.356 5 100058877.27947
                  24435394.39547
  23756872.086 5  23756878.465 9  23756880.277 9 124843163.196 5  97280445.752 9
  93227091.314 9  23756877.50847
  20082750.766 8  20082752.086 9                 105535566.431 8  82235509.945 9
                  20082751.80549
  24246288.844 3                                 127414981.641 3  99284492.72945
                  24246290.73445
  22705321.789 5                                 119317264.101 5  92974487.90747
                  22705322.23847
  20905755.602 7  20905759.766 9  20905761.414 9 109860464.814 7  85605591.657 9
  82038688.298 9  20905759.75449
  22012997.766 7  22013003.156 9  22013005.113 9 115679041.377 7  90139570.231 9
  86383751.707 9  22013002.81348
  22826723.664 6  22826728.086 9  22826727.008 9 119955204.082 6  93471638.021 9
  89576981.812 9  22826728.28148
  21904161.500 6                                 117090221.614 6  91070256.289 8
                  21904168.074 8
  22207929.469 6                                 118922439.458 6  92495226.363 9
                  22207932.492 9
  20295209.867 8                                 108375279.247 8  84291884.254 9
                  20295213.352 9
  19719474.508 8                                 105115894.332 8  81756804.538 9
                  19719481.301 9
  20729982.875 4                                 110891427.236 4  86248897.032 9
                  20729984.352 9
  21444371.461 5                                 114672956.979 5  89189915.799 9
                  21444377.820 9
 19  5 27  8 37 30.0000000  0 15G02G06G12G14G19G24G25G32R01R08R09R10
                                R11R19R20
  24431602.836 5                                 128388927.461 5 100043350.63347
                  24431602.76647
  23753966.203 5  23753973.164 9  23753974.285 9 124827891.508 5  97268545.751 9
  93215687.149 9  23753971.98047
  20081133.461 8  20081134.961 9                 105527067.034 8  82228887.038 9
                  20081134.61349
  24242282.563 3                                 127393936.897 3  99268094.20345
                  24242286.02045
  22706520.039 5                                 119323564.042 5  92979396.96047
                  22706521.10947
  20906123.727 7  20906128.012 9  20906129.875 9 109862398.870 7  85607098.723 9
  82040132.562 9  20906128.04349
  22009241.547 7  22009246.707 9  22009248.605 9 115659303.762 7  90124190.271 9
  86369012.579 9  22009246.30548
  22823689.125 6  22823693.520 9  22823692.988 9 119939255.670 6  93459210.699 9
  89565072.291 9  22823693.96548
  21903079.578 6                                 117084438.479 6  91065758.309 8
                  21903086.234 8
  22209532.898 6                                 118931027.716 6  92501906.108 9
                  22209536.750 9
  20295574.805 7                                 108377227.829 7  84293399.809 9
                  20295577.824 9
  19717068.609 8                                 105103069.273 8  81746829.504 9
                  19717075.523 9
  23223008.531 5                                 124096741.76915  96519660.25818
                  23223013.254 8
  20729302.813 4                                 110887790.287 4  86246068.314 9
                  20729304.945 9
  21439642.648 6                                 114647670.344 6  89170248.423 9
                  21439649.113 9
 19  5 27  8 37 35.0000000  0 15G02G06G12G14G19G24G25G32R01R08R09R10
                                R11R19R20
  24427811.680 5                                 128369006.346 5 100027827.68447
                  24427812.29747
  23751062.352 5  23751069.125 9  23751070.414 9 124812632.345 5  97256655.500 9
  93204292.310 9  23751068.52347
  20079518.234 7  20079519.980 9                 105518579.329 7  82222273.250 9
                  20079519.55549
  24238280.148 2                                 127372900.590 2  99251702.32845
                  24238282.81345
  22707721.000 5                                 119329876.165 5  92984315.47447
                  22707722.25047
  20906493.633 7  20906498.211 9  20906500.328 9 109864343.781 7  85608614.244 9
  82041584.933 9  20906498.49649
  22005487.094 7  22005492.102 9  22005494.434 9 115639573.817 7  90108816.281 9
  86354279.182 9  22005492.01248
  22820656.703 6  22820661.043 9  22820660.574 9 119923321.217 6  93446794.243 9
  89553173.184 9  22820661.32047
  21902002.383 6                                 117078677.083 6  91061277.218 8
                  21902008.457 8
  22211140.031 6                                 118939629.009 6  92508596.002 9
                  22211143.480 9
  20295940.984 7                                 108379185.583 7  84294922.500 9
                  20295944.082 9
  19714664.219 8                                 105090254.004 8  81736862.068 9
                  19714671.676 9
  23218498.227 5                                 124072636.965 5  96500912.049 8
                  23218502.066 8
  20728625.813 4                                 110884176.338 4  86243257.471 9
                  20728630.105 9
  21434916.531 6                                 114622397.200 6  89150591.565 9
                  21434923.500 9
 19  5 27  8 37 40.0000000  0 15G02G06G12G14G19G24G25G32R01R08R09R10
                                R11R19R20
  24424020.313 5                                 128349088.656 5 100012307.41547
                  24424021.84447
  23748160.172 5  23748167.695 9  23748168.945 9 124797384.532 5  97244774.100 9
  93192905.948 9  23748167.05147
  20077905.352 8  20077906.281 9                 105510101.994 8  82215667.532 9
                  20077905.87949
  24234278.750 3                                 127351871.544 3  99235316.03345
                  24234281.16445
  22708924.367 5                                 119336199.118 5  92989242.43347
                  22708925.15647
  20906865.406 7  20906870.109 9  20906871.891 9 109866298.186 7  85610137.142 9
  82043044.381 9  20906870.41049
  22001733.953 7  22001738.387 9  22001740.680 9 115619850.174 7  90093447.207 9
  86339550.492 9  22001738.37548
  22817627.258 6  22817631.043 9  22817630.941 9 119907399.368 6  93434387.601 9
  89541283.492 9  22817631.15647
  21900927.484 6                                 117072936.227 6  91056812.105 8
                  21900935.082 8
  22212748.719 6                                 118948241.769 6  92515294.783 9
                  22212751.711 9
  20296309.273 7                                 108381151.228 7  84296451.339 9
                  20296312.152 9
  19712262.719 8                                 105077447.141 8  81726901.177 9
                  19712269.434 9
  23213985.945 5                                 124048531.624 5  96482163.445 8
                  23213990.770 8
  20727954.586 4                                 110880584.092 4  86240463.495 9
                  20727957.836 9
  21430191.398 6                                 114597136.283 6  89130944.199 9
                  21430199.574 9
 19  5 27  8 37 45.0000000  0 15G02G06G12G14G19G24G25G32R01R08R09R10
                                R11R19R20
  24420231.727 5                                 128329175.435 5  99996790.62247
                  24420232.46147
  23745260.531 4  23745268.770 9  23745270.004 9 124782149.027 4  97232902.292 9
  93181528.780 9  23745268.17247
  20076294.180 7  20076295.363 9                 105501636.059 7  82209070.702 9
                  20076294.95749
  24230277.688 3                                 127330850.717 3  99218936.21545
                  24230280.89545
  22710129.359 5                                 119342533.903 5  92994178.61947
                  22710130.56347
  20907239.570 7  20907244.473 9  20907245.945 9 109868263.184 7  85611668.295 9
  82044511.742 9  20907244.40649
  21997981.711 7  21997987.070 9  21997988.832 9 115600133.896 7  90078083.872 9
  86324827.306 9  21997986.76248
  22814599.719 6  22814603.813 9  22814603.609 9 119891491.194 6  93421991.604 9
  89529404.002 9  22814603.76647
  21899857.469 6                                 117067216.745 6  91052363.629 8
                  21899864.941 8
  22214359.148 6                                 118956867.150 6  92522003.409 9
                  22214362.949 9
  20296678.719 7                                 108383125.574 7  84297986.928 9
                  20296681.945 9
  19709861.211 8                                 105064649.544 8  81716947.488 9
                  19709868.348 9
  23209475.664 5                                 124024426.880 5  96463415.300 8
                  23209480.055 8
  20727287.953 3                                 110877014.548 3  86237687.162 9
                  20727290.422 9
  21425469.453 5                                 114571888.399 5  89111306.961 9
                  21425478.410 9
 19  5 27  8 37 50.0000000  0 15G02G06G12G14G19G24G25G32R01R08R09R10
                                R11R19R20
  24416443.383 5                                 128309266.818 5  99981277.43747
                  24416444.53147
  23742364.359 4  23742371.711 9  23742373.125 9 124766925.947 4  97221040.166 9
  93170160.904 9  23742371.82047
  20074685.789 7  20074686.805 9                 105493181.657 7  82202482.857 9
                  20074686.41049
  24226279.227 3                                 127309838.284 3  99202562.85445
                  24226282.62945
  22711337.742 5                                 119348880.611 5  92999124.08047
                  22711338.18447
  20907615.523 7  20907620.164 9  20907621.762 9 109870238.791 7  85613207.717 9
  82045987.022 9  20907620.33649
  21994231.555 7  21994236.297 9  21994237.695 9 115580425.080 7  90062726.349 9
  86310109.682 9  21994236.03548
  22811574.984 6  22811579.277 9  22811579.094 9 119875596.791 6  93409606.326 9
  89517534.797 9  22811578.89847
  21898792.773 6                                 117061518.723 6  91047931.814 8
                  21898799.121 8
  22215972.266 6                                 118965505.189 6  92528721.876 9
                  22215975.715 9
  20297050.594 7                                 108385108.929 7  84299529.549 9
                  20297053.148 9
  19707462.328 8                                 105051861.509 8  81707001.229 9
                  19707468.750 9
  23204963.898 5                                 124000322.766 5  96444667.677 8
                  23204969.266 8
  20726624.344 4                                 110873467.840 4  86234928.607 9
                  20726627.703 9
  21420752.555 5                                 114546653.902 5  89091680.131 9
                  21420758.984 9
 19  5 27  8 37 55.0000000  0 15G02G06G12G14G19G24G25G32R01R08R09R10
                                R11R19R20
  24412655.063 5                                 128289363.265 5  99965768.18246
                  24412657.28146
  23739469.914 5  23739476.992 9  23739479.070 9 124751715.813 5  97209188.113 9
  93158802.691 9  23739476.88747
  20073078.453 7  20073080.145 9                 105484739.177 7  82195904.312 9
                  20073079.68849
  24222283.461 3                                 127288834.675 3  99186196.42646
                  24222285.21946
  22712547.781 5                                 119355239.737 5  93004079.24047
                  22712547.84447
  20907993.508 7  20907998.324 9  20907999.906 9 109872225.300 7  85614755.634 9
  82047470.447 9  20907998.25049
  21990483.391 7  21990487.559 9  21990488.684 9 115560724.197 7  90047375.007 9
  86295397.979 9  21990487.37948
  22808553.148 6  22808557.199 9  22808557.059 9 119859716.652 6  93397232.192 9
  89505676.263 9  22808557.21947
  21897731.211 6                                 117055842.799 6  91043517.204 8
                  21897737.125 8
  22217587.672 6                                 118974156.330 6  92535450.538 9
                  22217590.723 9
  20297423.656 8                                 108387101.700 8  84301079.480 9
                  20297426.602 9
  19705064.898 8                                 105039083.590 8  81697062.859 9
                  19705072.070 9
  23200453.961 5                                 123976219.859 5  96425920.995 8
                  23200458.289 8
  20725965.031 4                                 110869944.303 4  86232188.074 9
                  20725969.324 9
  21416036.328 6                                 114521433.224 6  89072064.057 9
                  21416041.738 9
 19  5 27  8 38  0.0000000  0 15G02G06G12G14G19G24G25G32R01R08R09R10
                                R11R19R20
  24408868.859 5                                 128269463.953 5  99950262.25647
                  24408871.22347
  23736577.813 5  23736584.836 9  23736586.660 9 124736517.762 5  97197345.453 9
  93147453.486 9  23736584.64847
  20071474.172 7  20071475.840 9                 105476307.812 7  82189334.415 9
                  20071475.71949
  24218288.297 3                                 127267839.113 3  99169836.24145
                  24218290.18445
  22713760.375 6                                 119361610.385 6  93009043.38347
                  22713760.41047
  20908373.531 7  20908377.996 9  20908379.172 9 109874222.022 7  85616311.530 9
  82048961.501 9  20908377.75049
  21986735.398 7  21986739.809 9  21986740.957 9 115541030.444 7  90032029.228 9
  86280691.604 9  21986739.88348
  22805534.023 6  22805537.965 9  22805537.852 9 119843849.916 6  93384868.508 9
  89493827.728 9  22805537.54347
  21896674.445 6                                 117050188.062 6  91039119.069 8
                  21896679.824 8
  22219205.359 6                                 118982819.802 6  92542188.782 9
                  22219208.059 9
  20297798.117 7                                 108389103.107 7  84302636.118 9
                  20297801.055 9
  19702669.383 8                                 105026314.972 8  81687131.718 9
                  19702676.391 9
  23195943.641 5                                 123952117.258 5  96407174.512 8
                  23195947.500 8
  20725310.828 4                                 110866443.379 4  86229465.133 9
                  20725314.363 9
  21411322.094 6                                 114496225.512 6  89052458.051 9
                  21411327.945 9
 19  5 27  8 38  5.0000000  0 15G02G06G12G14G19G24G25G32R01R08R09R10
                                R11R19R20
  24405082.922 5                                 128249568.746 5  99934759.51547
                  24405085.07847
  23733688.414 5  23733694.793 9  23733696.500 9 124721331.688 5  97185512.135 9
  93136113.240 9  23733694.07847
  20069872.023 7  20069873.270 9                 105467887.438 7  82182773.081 9
                  20069873.07849
  24214293.625 3                                 127246851.464 3  99153482.18845
                  24214296.76245
  22714975.219 5                                 119367992.408 5  93014016.38347
                  22714975.39147
  20908755.102 7  20908759.953 9  20908760.984 9 109876228.885 7  85617875.316 9
  82050460.132 9  20908759.38349
  21982988.555 7  21982993.410 9  21982994.438 9 115521343.661 7  90016688.886 9
  86265990.440 9  21982993.36348
  22802517.109 6  22802521.262 9  22802521.031 9 119827996.477 6  93372515.171 9
  89481989.114 9  22802520.43047
  21895619.555 6                                 117044554.327 6  91034737.273 8
                  21895625.195 8
  22220824.984 6                                 118991495.324 6  92548936.381 9
                  22220828.816 9
  20298175.234 7                                 108391112.948 7  84304199.317 9
                  20298177.910 9
  19700275.859 8                                 105013555.352 8  81677207.572 9
                  19700282.125 9
  23191432.984 5                                 123928014.800 5  96388428.172 8
                  23191437.258 8
  20724660.844 4                                 110862964.702 4  86226759.498 9
                  20724663.922 9
  21406611.688 6                                 114471030.697 6  89032862.095 9
                  21406616.102 9
 19  5 27  8 38 10.0000000  0 15G02G06G12G14G19G24G25G32R01R08R09R10
                                R11R19R20
  24401297.742 5                                 128229677.692 5  99919260.01946
                  24401299.77346
  23730800.609 5  23730807.320 9  23730809.391 9 124706157.618 5  97173688.171 9
  93124781.953 9  23730806.91447
  20068271.766 7  20068273.215 9                 105459478.088 7  82176220.342 9
                  20068273.26649
  24210301.445 3                                 127225871.711 3  99137134.35645
                  24210304.00845
  22716191.352 6                                 119374385.850 6  93018998.28547
                  22716191.61347
  20909139.102 7  20909144.043 9  20909144.797 9 109878246.074 7  85619447.149 9
  82051966.474 9  20909143.54749
  21979243.555 7  21979248.973 9  21979250.238 9 115501663.883 7  90001353.997 9
  86251294.501 9  21979249.16848
  22799501.719 6  22799506.758 9  22799507.203 9 119812156.388 6  93360172.240 9
  89470160.482 9  22799506.18847
  21894567.883 6                                 117038941.633 6  91030371.848 8
                  21894575.066 8
  22222447.711 6                                 119000182.955 6  92555693.428 9
                  22222451.215 9
  20298553.023 8                                 108393131.313 8  84305769.157 9
                  20298556.730 9
  19697884.047 8                                 105000804.797 8  81667290.472 9
                  19697890.496 9
  23186922.563 5                                 123903912.633 5  96369682.034 8
                  23186926.367 8
  20724014.914 4                                 110859508.266 4  86224071.157 9
                  20724017.750 9
  21401901.758 6                                 114445848.743 6  89013276.139 9
                  21401906.824 9
 19  5 27  8 38 15.0000000  0 15G02G06G12G14G19G24G25G32R01R08R09R10
                                R11R19R20
  24397513.648 5                                 128209791.431 5  99903764.25147
                  24397514.92647
  23727916.039 5  23727921.406 9  23727923.105 9 124690996.229 5  97161874.098 9
  93113460.133 9  23727920.57047
  20066673.766 8  20066674.496 9                 105451080.357 8  82169676.658 9
                  20066674.46549
  24206310.633 4                                 127204900.506 4  99120793.11946
                  24206313.93446
  22717410.125 6                                 119380791.206 6  93023989.49147
                  22717410.72347
  20909525.078 7  20909529.402 9  20909530.566 9 109880274.060 7  85621027.394 9
  82053480.878 9  20909528.84849
  21975500.523 7  21975505.277 9  21975506.609 9 115481991.719 7  89986025.041 9
  86236604.258 9  21975505.12948
  22796491.195 6  22796495.465 9  22796495.453 9 119796330.242 6  93347840.177 9
  89458342.259 9  22796494.55547
  21893522.352 5                                 117033350.561 5  91026023.218 8
                  21893529.301 8
  22224072.953 6                                 119008883.391 6  92562460.420 9
                  22224075.094 9
  20298933.078 7                                 108395158.745 7  84307346.052 9
                  20298936.289 9
  19695494.625 8                                 104988063.953 8  81657380.929 9
                  19695500.012 9
  23182411.977 5                                 123879811.258 5  96350936.523 8
                  23182417.258 8
  20723373.055 4                                 110856074.844 4  86221400.720 9
                  20723375.941 9
  21397194.781 6                                 114420680.301 6  88993700.700 9
                  21397200.879 9
 19  5 27  8 38 20.0000000  0 15G02G06G12G14G19G24G25G32R01R08R09R10
                                R11R19R20
  24393730.133 5                                 128189909.804 5  99888272.07247
                  24393731.95747
  23725033.383 5  23725039.578 9  23725040.332 9 124675847.178 5  97150069.640 9
  93102147.532 9  23725038.14847
  20065077.930 8  20065078.914 9                 105442694.031 8  82163141.861 9
                  20065078.76649
  24202321.383 4                                 127183937.673 4  99104458.44645
                  24202324.58245
  22718631.664 5                                 119387208.472 5  93028989.95047
                  22718632.40647
  20909913.172 7  20909917.719 9  20909918.785 9 109882312.364 7  85622615.692 9
  82055002.993 9  20909917.18449
  21971758.578 7  21971763.023 9  21971764.480 9 115462326.940 7  89970701.839 9
  86221919.525 9  21971763.35248
  22793481.711 6  22793486.801 9  22793486.137 9 119780517.798 6  93335518.807 9
  89446534.283 9  22793486.00447
  21892480.633 5                                 117027780.924 5  91021691.274 8
                  21892487.543 8
  22225700.039 6                                 119017596.073 6  92569236.966 9
                  22225702.387 9
  20299313.719 7                                 108397195.021 7  84308929.824 9
                  20299317.453 9
  19693105.773 8                                 104975332.625 8  81647478.764 8
                  19693111.719 8
  23177902.141 5                                 123855710.507 5  96332191.496 8
                  23177906.398 8
  20722735.977 4                                 110852664.012 4  86218747.843 9
                  20722738.703 9
  21392491.141 6                                 114395525.251 6  88974135.658 9
                  21392496.238 9
 19  5 27  8 38 25.0000000  0 15G02G06G12G14G19G24G25G32R01R08R09R10
                                R11R19R20
  24389948.234 5                                 128170032.252 5  99872783.10146
                  24389949.27346
  23722154.180 5  23722158.980 9  23722160.324 9 124660710.100 5  97138274.551 9
  93090843.898 9  23722158.02347
  20063483.945 7  20063485.508 9                 105434318.614 7  82156615.552 9
                  20063485.08249
  24198334.563 3                                 127162982.720 3  99088129.90345
                  24198337.85945
  22719855.352 5                                 119393637.024 5  93033999.20447
                  22719855.31347
  20910302.695 7  20910307.605 9  20910309.285 9 109884360.697 7  85624211.800 9
  82056532.596 9  20910307.57049
  21968017.883 7  21968022.402 9  21968023.906 9 115442669.103 7  89955384.042 9
  86207239.975 9  21968022.48448
  22790475.383 6  22790479.969 9  22790479.789 9 119764718.668 6  93323207.799 9
  89434736.228 9  22790480.35947
  21891443.430 6                                 117022232.272 6  91017375.661 8
                  21891449.164 8
  22227328.172 6                                 119026320.909 6  92576022.949 9
                  22227331.109 9
  20299696.406 8                                 108399239.686 8  84310520.115 9
                  20299700.105 9
  19690719.422 8                                 104962610.295 8  81637583.624 9
                  19690724.758 9
  23173391.516 5                                 123831609.920 5  96313446.620 8
                  23173396.480 8
  20722102.094 4                                 110849275.428 4  86216112.281 9
                  20722105.367 9
  21387787.719 5                                 114370383.037 5  88954580.614 9
                  21387794.582 9
 19  5 27  8 38 30.0000000  0 15G02G06G12G14G19G24G25G32R01R08R09R10
                                R11R19R20
  24386166.633 5                                 128150159.279 5  99857297.69147
                  24386167.30947
  23719275.664 6  23719280.637 9  23719281.836 9 124645585.438 6  97126489.118 9
  93079549.522 9  23719279.71147
  20061892.453 7  20061893.598 9                 105425954.543 7  82150098.101 9
                  20061893.29749
  24194348.250 4                                 127142036.151 4  99071807.93945
                  24194351.03145
  22721080.938 6                                 119400077.294 6  93039017.58747
                  22721081.53547
  20910694.969 7  20910699.477 9  20910700.988 9 109886419.572 7  85625816.109 9
  82058070.059 9  20910699.44549
  21964278.172 7  21964283.234 9  21964284.324 9 115423018.682 7  89940072.036 9
  86192565.958 9  21964283.13748
  22787471.742 6  22787476.563 9  22787475.555 9 119748933.281 6  93310907.508 9
  89422948.440 9  22787476.18447
  21890408.375 5                                 117016705.004 5  91013076.676 8
                  21890415.918 8
  22228960.898 6                                 119035058.132 6  92582818.561 9
                  22228963.848 9
  20300081.047 8                                 108401293.166 8  84312117.254 9
                  20300084.984 9
  19688334.008 8                                 104949897.414 8  81627695.829 9
                  19688339.613 9
  23168883.500 5                                 123807509.937 5  96294702.201 8
                  23168887.180 8
  20721472.094 4                                 110845909.541 4  86213494.362 9
                  20721475.750 9
  21383089.828 6                                 114345254.257 6  88935036.015 9
                  21383095.508 9
 19  5 27  8 38 35.0000000  0 15G02G06G12G14G19G24G25G32R01R08R09R10
                                R11R19R20
  24382385.422 6                                 128130290.254 6  99841815.34647
                  24382385.97747
  23716399.422 5  23716404.965 9  23716406.539 9 124630472.604 5  97114712.905 9
  93068263.952 9  23716404.76247
  20060302.805 7  20060304.234 9                 105417601.155 7  82143588.963 9
                  20060304.10949
  24190364.711 4                                 127121097.225 4  99055491.89145
                  24190365.79745
  22722307.781 5                                 119406528.557 5  93044044.53647
                  22722309.16047
  20911088.258 7  20911092.977 9  20911094.773 9 109888488.230 7  85627428.041 9
  82059614.832 9  20911092.99649
  21960540.234 7  21960545.477 9  21960546.391 9 115403374.996 7  89924765.277 9
  86177896.967 9  21960545.72748
  22784470.313 6  22784475.145 9  22784474.949 9 119733160.949 6  93298617.375 9
  89411170.400 9  22784475.16847
  21889377.961 5                                 117011198.501 5  91008793.839 8
                  21889385.996 8
  22230594.117 6                                 119043807.072 6  92589623.275 9
                  22230597.633 9
  20300466.992 7                                 108403354.802 7  84313720.746 9
                  20300470.441 9
  19685950.711 8                                 104937193.485 8  81617814.990 8
                  19685957.055 8
  23164372.234 5                                 123783409.941 5  96275957.780 8
                  23164377.254 8
  20720846.531 4                                 110842565.627 4  86210893.544 9
                  20720851.367 9
  21378393.969 5                                 114320138.067 5  88915501.199 9
                  21378398.563 9
 19  5 27  8 38 40.0000000  0 15G02G06G12G14G19G24G25G32R01R08R09R10
                                R11R19R20
  24378605.391 6                                 128110424.808 6  99826335.78247
                  24378605.73447
  23713524.922 5  23713531.582 9  23713532.688 9 124615371.184 5  97102945.581 9
  93056986.925 9  23713531.14847
  20058715.273 7  20058716.633 9                 105409258.154 7  82137087.925 9
                  20058716.49249
  24186381.250 4                                 127100165.702 4  99039181.61445
                  24186383.02045
  22723537.727 5                                 119412990.480 5  93049079.80247
                  22723538.64847
  20911483.258 7  20911488.660 9  20911490.531 9 109890566.352 7  85629047.349 9
  82061166.667 9  20911489.05149
  21956803.023 7  21956808.590 9  21956808.711 9 115383737.702 7  89909463.509 9
  86163232.767 9  21956808.57848
  22781471.109 6  22781475.664 9  22781475.574 9 119717401.417 6  93286337.245 9
  89399401.927 9  22781476.20347
  21888353.164 5                                 117005712.355 5  91004526.850 8
                  21888359.473 8
  22232230.063 6                                 119052567.444 6  92596436.902 9
                  22232233.285 9
  20300854.070 7                                 108405424.300 7  84315330.341 9
                  20300857.648 9
  19683569.023 8                                 104924498.068 8  81607940.772 9
                  19683575.852 9
  23159861.227 4                                 123759309.476 4  96257212.947 8
                  23159867.219 8
  20720226.117 4                                 110839243.309 4  86208309.511 9
                  20720230.426 9
  21373698.391 6                                 114295034.336 6  88895976.091 9
                  21373704.484 9
 19  5 27  8 38 45.0000000  0 15G02G06G12G14G19G24G25G32R01R08R09R10
                                R11R19R20
  24374825.039 5                                 128090564.404 5  99810860.13347
                  24374826.60947
  23710653.828 5  23710660.027 9  23710661.762 9 124600282.602 5  97091188.259 9
  93045719.490 9  23710659.81347
  20057129.930 8  20057131.109 9                 105400926.956 8  82130596.075 9
                  20057130.78149
  24182399.977 4                                 127079243.026 4  99022878.22845
                  24182401.57445
  22724769.539 5                                 119419464.504 5  93054124.49047
                  22724770.50447
  20911881.039 7  20911886.008 9  20911887.742 9 109892655.446 7  85630675.203 9
  82062726.691 9  20911886.43849
  21953068.664 7  21953073.387 9  21953073.605 9 115364108.216 7  89894167.812 9
  86148574.392 9  21953073.46948
  22778474.563 6  22778479.891 9  22778479.594 9 119701656.003 6  93274068.105 9
  89387643.993 9  22778480.04747
  21887331.531 5                                 117000248.104 5  91000276.869 8
                  21887336.445 8
  22233867.117 5                                 119061340.499 5  92603260.365 9
                  22233871.426 9
  20301243.875 7                                 108407502.984 7  84316947.104 9
                  20301246.891 9
  19681189.281 8                                 104911812.409 8  81598074.150 9
                  19681195.621 9
  23155352.266 4                                 123735209.993 4  96238468.936 8
                  23155356.758 8
  20719609.172 4                                 110835944.132 4  86205743.471 9
                  20719613.719 9
  21369006.531 6                                 114269944.471 6  88876461.764 9
                  21369012.773 9
 19  5 27  8 38 50.0000000  0 15G02G06G12G14G19G24G25G32R01R08R09R10
                                R11R19R20
  24371047.484 5                                 128070709.033 5  99795388.41446
                  24371048.48446
  23707785.359 5  23707791.066 9  23707793.379 9 124585206.894 5  97079440.955 9
  93034461.681 9  23707790.60947
  20055546.734 8  20055547.781 9                 105392607.478 8  82124113.372 9
                  20055547.82449
  24178419.867 4                                 127058329.015 4  99006581.62245
                  24178421.80945
  22726004.406 5                                 119425950.548 5  93059178.55247
                  22726005.38747
  20912281.031 7  20912285.848 9  20912287.270 9 109894755.561 7  85632311.662 9
  82064294.955 9  20912286.14149
  21949334.570 7  21949338.949 9  21949339.801 9 115344486.516 7  89878878.179 9
  86133921.831 9  21949338.96548
  22775481.625 6  22775486.902 9  22775486.594 9 119685924.790 6  93261810.010 9
  89375896.657 9  22775487.16448
  21886311.789 5                                 116994805.565 5  90996043.785 8
                  21886318.488 8
  22235508.859 5                                 119070126.300 5  92610093.753 9
                  22235512.441 9
  20301635.352 7                                 108409590.863 7  84318571.020 9
                  20301638.152 9
  19678811.352 8                                 104899136.595 8  81588215.177 9
                  19678818.246 9
  23150841.391 3                                 123711111.656 3  96219725.758 8
                  23150847.574 8
  20718997.305 4                                 110832667.895 4  86203195.290 9
                  20719001.168 9
  21364317.172 6                                 114244868.425 6  88856958.181 9
                  21364323.238 9
 19  5 27  8 38 55.0000000  0 15G02G06G12G14G19G24G25G32R01R08R09R10
                                R11R19R20
  24367270.477 5                                 128050859.689 5  99779921.37746
                  24367270.62546
  23704918.563 5  23704925.336 9  23704927.148 9 124570145.029 5  97067704.446 9
  93023214.177 9  23704924.84447
  20053965.969 7  20053966.953 9                 105384300.754 7  82117640.589 9
                  20053966.99249
  24174441.648 4                                 127037424.813 4  98990292.61146
                  24174443.96146
  22727240.781 5                                 119432449.631 5  93064242.77147
                  22727242.28547
  20912682.789 7  20912687.504 9  20912688.258 9 109896867.365 7  85633957.219 9
  82065871.943 9  20912687.48049
  21945601.867 7  21945606.594 9  21945607.598 9 115324873.615 7  89863595.410 9
  86119275.849 9  21945606.46948
  22772491.922 6  22772495.652 9  22772495.004 9 119670208.707 6  93249563.728 9
  89364160.632 9  22772495.86748
  21885299.039 6                                 116989385.921 6  90991828.502 8
                  21885305.320 8
  22237151.531 6                                 119078925.804 6  92616937.794 9
                  22237155.672 9
  20302028.203 7                                 108411689.098 7  84320202.981 9
                  20302031.113 9
  19676435.406 8                                 104886471.776 8  81578364.761 9
                  19676441.648 9
  23146332.742 4                                 123687015.300 4  96200984.168 8
                  23146338.031 8
  20718388.484 4                                 110829415.827 4  86200665.892 9
                  20718392.582 9
  21359629.172 5                                 114219807.251 5  88837466.175 9
                  21359637.039 9
 19  5 27  8 39  0.0000000  0 15G02G06G12G14G19G24G25G32R01R08R09R10
                                R11R19R20
  24363493.086 5                                 128031012.315 5  99764455.93447
                  24363493.72347
  23702054.344 5  23702060.598 9  23702063.133 9 124555093.056 5  97055975.608 9
  93011974.081 9  23702060.18447
  20052387.031 8  20052388.105 9                 105376002.731 8  82111174.604 9
                  20052387.79349
  24170464.227 4                                 127016526.411 4  98974008.15345
                  24170466.95345
  22728478.820 5                                 119438957.721 5  93069313.98347
                  22728480.31347
  20913086.117 7  20913090.645 9  20913091.453 9 109898986.985 7  85635608.869 9
  82067454.774 9  20913090.73449
  21941870.563 7  21941875.652 9  21941876.457 9 115305265.482 7  89848316.336 9
  86104633.412 9  21941875.32848
  22769502.805 6  22769506.875 9  22769506.465 9 119654503.797 6  93237326.144 9
  89352432.943 9  22769507.21147
  21884287.938 5                                 116983984.904 5  90987627.702 8
                  21884294.391 8
  22238796.688 5                                 119087734.917 5  92623789.307 9
                  22238801.230 9
  20302421.641 7                                 108413793.427 7  84321839.683 9
                  20302425.730 9
  19674060.250 8                                 104873813.655 8  81568519.561 9
                  19674067.203 9
  23141823.211 4                                 123662916.829 4  96182240.929 8
                  23141828.543 8
  20717785.492 4                                 110826183.587 4  86198151.925 9
                  20717787.852 9
  21354944.727 6                                 114194756.858 6  88817982.545 9
                  21354952.297 9
 19  5 27  8 39  5.0000000  0 15G02G06G12G14G19G24G25G32R01R08R09R10
                                R11R19R20
  24359716.547 5                                 128011170.098 5  99748994.45046
                  24359718.08646
  23699193.117 5  23699199.328 9  23699201.133 9 124540053.976 5  97044256.843 9
  93000743.598 9  23699198.30547
  20050810.555 8  20050810.934 9                 105367716.527 8  82104717.823 9
                  20050810.95749
  24166488.617 3                                 126995636.926 3  98957730.65545
                  24166492.08645
  22729719.391 6                                 119445477.866 6  93074394.62347
                  22729721.10247
  20913491.883 7  20913496.336 9  20913496.813 9 109901117.632 7  85637269.118 9
  82069045.844 9  20913496.27049
  21938140.555 7  21938145.750 9  21938146.602 9 115285665.276 7  89833043.459 9
  86089996.902 9  21938145.29348
  22766516.914 6  22766521.172 9  22766519.988 9 119638813.150 6  93225099.636 9
  89340715.881 9  22766521.67248
  21883281.789 5                                 116978605.709 5  90983443.875 8
                  21883287.805 8
  22240444.727 6                                 119096556.766 6  92630650.725 9
                  22240448.086 9
  20302817.852 7                                 108415907.121 7  84323483.662 9
                  20302820.910 9
  19671687.844 8                                 104861165.602 8  81558682.184 9
                  19671695.527 9
  23137313.930 4                                 123638819.604 4  96163498.633 8
                  23137318.230 8
  20717185.219 4                                 110822974.517 4  86195655.994 9
                  20717187.527 9
  21350262.945 6                                 114169720.584 6  88798509.881 9
                  21350270.160 9
 19  5 27  8 39 10.0000000  0 15G02G06G12G14G19G24G25G32R01R08R09R10
                                R11R19R20
  24355941.695 5                                 127991332.444 5  99733536.56146
                  24355943.44146
  23696334.297 5  23696339.500 9  23696341.738 9 124525027.341 5  97032547.782 9
  92989522.401 9  23696338.85247
  20049235.688 8  20049236.824 9                 105359441.560 8  82098269.790 9
                  20049236.68449
  24162515.883 3                                 126974755.710 3  98941459.56246
                  24162518.54346
  22730962.906 5                                 119452009.501 5  93079484.21747
                  22730963.99647
  20913899.438 7  20913903.563 9  20913904.133 9 109903258.657 7  85638937.458 9
  82070644.663 9  20913903.76649
  21934412.922 7  21934417.207 9  21934418.383 9 115266072.343 7  89817776.233 9
  86075365.821 9  21934416.90248
  22763533.258 6  22763537.727 9  22763537.430 9 119623136.205 6  93212883.832 9
  89329009.073 9  22763537.94148
  21882280.555 6                                 116973247.793 6  90979276.625 8
                  21882285.816 8
  22242094.844 6                                 119105390.734 6  92637521.587 9
                  22242098.219 9
  20303215.922 7                                 108418029.467 7  84325134.362 9
                  20303218.805 9
  19669317.453 8                                 104848526.972 8  81548852.139 9
                  19669324.223 9
  23132805.078 5                                 123614722.881 5  96144756.754 8
                  23132809.152 8
  20716589.922 4                                 110819787.918 4  86193177.543 9
                  20716591.582 9
  21345584.695 5                                 114144697.542 5  88779047.537 9
                  21345590.480 9
 19  5 27  8 39 15.0000000  0 15G02G06G12G14G19G24G25G32R01R08R09R10
                                R11R19R20
  24352168.234 5                                 127971500.188 5  99718082.84546
                  24352169.58646
  23693476.133 5  23693482.578 9  23693484.754 9 124510013.938 5  97020849.011 9
  92978311.092 9  23693482.39147
  20047663.477 8  20047664.418 9                 105351178.682 8  82091831.195 9
                  20047663.97349
  24158544.492 4                                 126953883.725 4  98925195.68446
                  24158546.35246
  22732208.461 5                                 119458553.490 5  93084583.41647
                  22732209.39847
  20914308.844 7  20914313.391 9  20914313.664 9 109905410.956 7  85640614.568 9
  82072251.894 9  20914313.64549
  21930685.539 7  21930690.492 9  21930691.945 9 115246487.574 7  89802515.389 9
  86060740.834 9  21930690.05548
  22760552.648 6  22760557.117 9  22760556.555 9 119607473.788 6  93200679.355 9
  89317313.103 9  22760557.12548
  21881281.633 6                                 116967912.101 6  90975126.608 8
                  21881287.922 8
  22243745.859 6                                 119114237.659 6  92644402.530 9
                  22243749.918 9
  20303615.219 7                                 108420161.385 7  84326792.505 9
                  20303618.578 9
  19666948.063 8                                 104835898.602 8  81539030.081 9
                  19666954.758 9
  23128295.875 4                                 123590627.502 4  96126015.921 8
                  23128300.496 8
  20715998.922 4                                 110816624.646 4  86190717.220 9
                  20715999.895 9
  21340907.336 5                                 114119688.873 5  88759596.347 9
                  21340913.543 9
 19  5 27  8 39 20.0000000  0 15G02G06G12G14G19G24G25G32R01R08R09R10
                                R11R19R20
  24348395.391 5                                 127951672.383 5  99702632.63747
                  24348396.51647
  23690621.555 5  23690628.074 9  23690629.402 9 124495012.771 5  97009159.821 9
  92967108.938 9  23690627.97747
  20046093.281 7  20046093.805 9                 105342926.877 7  82085401.215 9
                  20046093.82849
  24154575.305 4                                 126933019.940 4  98908938.18446
                  24154576.73446
  22733455.625 5                                 119465108.765 5  93089691.40747
                  22733456.03547
  20914720.281 7  20914724.930 9  20914725.301 9 109907573.245 7  85642299.456 9
  82073866.582 9  20914725.16849
  21926960.242 7  21926964.223 9  21926965.840 9 115226909.981 7  89787260.119 9
  86046121.203 9  21926963.36348
  22757575.109 6  22757579.535 9  22757579.078 9 119591824.925 6  93188485.444 9
  89305627.275 9  22757579.00448
  21880286.945 6                                 116962597.392 6  90970992.961 8
                  21880293.805 8
  22245400.891 6                                 119123096.624 6  92651292.833 9
                  22245404.285 9
  20304015.578 8                                 108422301.857 8  84328457.317 9
                  20304019.055 9
  19664580.477 8                                 104823279.493 8  81529215.212 9
                  19664587.777 9
  23123786.352 4                                 123566532.463 4  96107275.371 8
                  23123791.766 8
  20715410.773 4                                 110813483.712 4  86188274.264 9
                  20715413.172 9
  21336234.125 6                                 114094693.472 6  88740155.474 9
                  21336239.195 9
 19  5 27  8 39 25.0000000  0 15G02G06G12G14G19G24G25G32R01R08R09R10
                                R11R19R20
  24344623.367 5                                 127931849.988 5  99687186.63846
                  24344624.30546
  23687769.859 5  23687776.609 9  23687777.789 9 124480024.883 5  96997480.917 9
  92955916.677 9  23687776.66047
  20044524.930 7  20044525.734 9                 105334687.165 7  82078980.651 9
                  20044525.63749
  24150605.953 5                                 126912165.303 5  98892687.80946
                  24150607.78546
  22734705.852 5                                 119471676.325 5  93094808.96247
                  22734706.38347
  20915134.086 7  20915138.102 9  20915139.152 9 109909746.822 7  85643993.143 9
  82075489.697 9  20915138.55149
  21923236.516 7  21923240.418 9  21923241.836 9 115207340.552 7  89772011.225 9
  86031507.681 9  21923239.76648
  22754599.727 6  22754604.371 9  22754604.070 9 119576190.614 6  93176302.854 9
  89293952.308 9  22754603.87947
  21879297.266 6                                 116957304.766 6  90966876.465 8
                  21879303.051 8
  22247056.359 6                                 119131968.324 6  92658193.029 9
                  22247060.496 9
  20304418.719 8                                 108424451.882 8  84330129.558 9
                  20304421.859 9
  19662214.953 8                                 104810670.534 8  81519408.236 9
                  19662221.910 9
  23119277.086 5                                 123542438.892 5  96088535.906 8
                  23119283.098 8
  20714828.430 4                                 110810366.150 4  86185849.509 9
                  20714830.797 9
  21331562.523 6                                 114069712.324 6  88720725.703 9
                  21331567.570 9
 19  5 27  8 39 30.0000000  0 15G02G06G12G14G19G24G25G32R01R08R09R10
                                R11R19R20
  24340852.156 5                                 127912033.684 5  99671745.39046
                  24340853.24646
  23684920.234 5  23684926.980 9  23684928.270 9 124465050.898 5  96985812.905 9
  92944734.819 9  23684927.55147
  20042959.406 7  20042960.688 9                 105326460.155 7  82072569.997 9
                  20042960.31649
  24146638.906 4                                 126891320.523 4  98876445.10946
                  24146641.36346
  22735957.352 5                                 119478256.870 5  93099936.65047
                  22735958.18847
  20915549.719 7  20915554.258 9  20915555.316 9 109911932.149 7  85645695.994 9
  82077121.597 9  20915554.30549
  21919514.313 7  21919518.012 9  21919519.672 9 115187779.896 7  89756769.157 9
  86016900.693 9  21919517.60248
  22751627.414 6  22751631.590 9  22751631.426 9 119560571.508 6  93164132.128 9
  89282288.688 9  22751631.28948
  21878310.602 6                                 116952034.949 6  90962777.742 8
                  21878318.344 8
  22248716.086 6                                 119140853.709 6  92665103.888 9
                  22248720.363 9
  20304823.109 8                                 108426612.105 8  84331809.726 9
                  20304826.063 9
  19659852.477 8                                 104798072.421 8  81509609.700 9
                  19659859.250 9
  23114767.719 4                                 123518347.335 4  96069798.021 8
                  23114774.172 8
  20714251.102 4                                 110807272.550 4  86183443.373 9
                  20714253.371 9
  21326894.914 6                                 114044746.241 6  88701307.645 9
                  21326899.066 9
 19  5 27  8 39 35.0000000  0 15G02G06G12G14G19G24G25G32R01R08R09R10
                                R11R19R20
  24337081.844 5                                 127892221.002 5  99656306.93847
                  24337082.93447
  23682073.000 5  23682079.441 9  23682081.008 9 124450088.347 5  96974153.786 9
  92933561.507 9  23682079.64147
  20041396.000 7  20041397.059 9                 105318243.330 7  82066167.284 9
                  20041396.69149
  24142673.977 5                                 126870483.090 5  98860208.16246
                  24142675.86746
  22737211.281 5                                 119484847.799 5  93105072.43947
                  22737212.26247
  20915967.438 7  20915972.000 9  20915973.188 9 109914126.901 7  85647406.178 9
  82078760.522 9  20915972.23449
  21915792.969 7  21915797.535 9  21915799.012 9 115168225.550 7  89741532.003 9
  86002298.424 9  21915796.70748
  22748658.273 6  22748662.359 9  22748662.465 9 119544965.115 6  93151971.305 9
  89270634.555 9  22748661.74648
  21877329.414 6                                 116946785.266 6  90958694.658 8
                  21877336.363 8
  22250378.102 6                                 119149750.063 6  92672023.262 9
                  22250381.836 9
  20305228.289 7                                 108428780.024 7  84333495.896 9
                  20305231.773 9
  19657489.570 8                                 104785482.769 8  81499817.770 9
                  19657496.484 9
  23110259.320 3                                 123494255.294 3  96051059.762 8
                  23110265.598 8
  20713676.344 4                                 110804200.325 4  86181053.867 9
                  20713678.391 9
  21322226.773 6                                 114019792.589 6  88681899.260 9
                  21322232.410 9
 19  5 27  8 39 40.0000000  0 15G02G06G12G14G19G24G25G32R01R08R09R10
                                R11R19R20
  24333313.180 5                                 127872412.704 5  99640871.92947
                  24333314.00847
  23679228.508 5  23679233.902 9  23679235.453 9 124435137.962 5  96962504.121 9
  92922397.267 9  23679234.20747
  20039834.328 8  20039835.785 9                 105310037.518 8  82059773.141 9
                  20039835.53549
  24138710.867 5                                 126849653.757 5  98843977.54646
                  24138711.94946
  22738468.406 5                                 119491449.851 5  93110216.87947
                  22738468.51247
  20916386.867 7  20916391.629 9  20916392.910 9 109916331.658 7  85649124.160 9
  82080406.928 9  20916391.72349
  21912073.586 7  21912077.430 9  21912078.656 9 115148678.302 7  89726300.388 9
  85987701.456 9  21912076.70348
  22745691.094 6  22745695.113 9  22745694.594 9 119529372.205 6  93139820.994 9
  89258990.509 9  22745694.63348
  21876351.133 6                                 116941556.623 6  90954627.923 8
                  21876358.348 8
  22252042.734 6                                 119158658.184 6  92678951.779 9
                  22252045.793 9
  20305636.383 7                                 108430956.319 7  84335188.581 9
                  20305640.227 9
  19655130.078 8                                 104772902.375 8  81490033.025 9
                  19655137.082 9
  23105750.953 4                                 123470163.582 4  96032321.754 8
                  23105756.996 8
  20713105.750 4                                 110801150.451 4  86178681.744 9
                  20713108.305 9
  21317562.984 6                                 113994852.249 6  88662501.228 9
                  21317567.984 9
 19  5 27  8 39 45.0000000  0 15G02G06G12G14G19G24G25G32R01R08R09R10
                                R11R19R20
  24329543.844 5                                 127852610.237 5  99625441.43946
                  24329545.94146
  23676385.414 6  23676391.590 9  23676393.508 9 124420201.189 6  96950865.070 9
  92911243.186 9  23676390.91447
  20038275.359 7  20038276.094 9                 105301844.064 7  82053388.629 9
                  20038275.87949
  24134748.797 4                                 126828834.148 4  98827754.46045
                  24134750.32845
  22739727.164 5                                 119498064.491 5  93115371.15247
                  22739726.86747
  20916808.859 7  20916812.934 9  20916814.340 9 109918547.905 7  85650851.100 9
  82082061.917 9  20916812.97349
  21908354.859 7  21908359.324 9  21908361.129 9 115129139.527 7  89711075.367 9
  85973110.815 9  21908358.88748
  22742726.539 6  22742730.676 9  22742730.777 9 119513794.172 6  93127682.265 9
  89247357.564 9  22742730.05947
  21875376.172 6                                 116936350.446 6  90950578.685 8
                  21875383.582 8
  22253708.094 6                                 119167579.367 6  92685890.449 9
                  22253710.949 9
  20306046.086 7                                 108433142.523 7  84336888.939 9
                  20306048.758 9
  19652771.617 8                                 104760332.722 8  81480256.616 9
                  19652779.086 9
  23101243.531 5                                 123446073.552 5  96013585.063 8
                  23101249.051 8
  20712538.945 4                                 110798124.122 4  86176327.919 9
                  20712542.453 9
  21312901.969 6                                 113969926.490 6  88643114.531 9
                  21312906.789 9
 19  5 27  8 39 50.0000000  0 15G02G06G12G14G19G24G25G32R01R08R09R10
                                R11R19R20
  24325777.148 5                                 127832810.969 5  99610013.46446
                  24325778.44946
  23673544.219 5  23673551.262 9  23673552.613 9 124405275.470 5  96939234.621 9
  92900097.354 9  23673550.54747
  20036717.766 7  20036718.836 9                 105293660.447 7  82047011.778 9
                  20036718.85549
  24130787.523 4                                 126808021.454 4  98811536.77546
                  24130789.00846
  22740987.680 5                                 119504689.066 5  93120533.14647
                  22740987.50847
  20917232.164 7  20917236.965 9  20917238.172 9 109920772.892 7  85652584.863 9
  82083723.433 9  20917236.69149
  21904637.797 7  21904642.422 9  21904644.031 9 115109606.632 7  89695854.938 9
  85958524.573 9  21904642.13748
  22739764.406 6  22739767.844 9  22739768.066 9 119498228.469 6  93115553.127 9
  89235733.821 9  22739767.34847
  21874406.180 6                                 116931163.906 6  90946544.708 8
                  21874413.105 8
  22255375.953 6                                 119176511.238 6  92692837.443 9
                  22255378.980 9
  20306456.531 7                                 108435335.916 7  84338594.907 9
                  20306459.770 9
  19650414.531 7                                 104747770.990 7  81470486.377 9
                  19650421.582 9
  23096737.242 5                                 123421982.700 5  95994847.748 8
                  23096740.238 8
  20711978.422 4                                 110795118.722 4  86173990.403 9
                  20711980.602 9
  21308241.906 6                                 113945012.898 6  88623737.317 9
                  21308247.590 9
 19  5 27  8 39 55.0000000  0 15G02G06G12G14G19G24G25G32R01R08R09R10
                                R11R19R20
  24322009.477 5                                 127813016.409 5  99594589.13346
                  24322011.89546
  23670707.758 5  23670713.977 9  23670715.402 9 124390362.256 5  96927613.932 9
  92888960.856 9  23670713.03947
  20035162.555 7  20035163.367 9                 105285488.073 7  82040643.696 9
                  20035163.22349
  24126828.906 4                                 126787217.151 4  98795325.63346
                  24126830.61346
  22742250.625 5                                 119511325.023 5  93125704.03447
                  22742251.11347
  20917657.281 7  20917661.785 9  20917663.328 9 109923008.219 7  85654326.681 9
  82085392.674 9  20917661.61349
  21900922.414 7  21900927.020 9  21900928.996 9 115090081.125 7  89680640.265 9
  85943943.834 9  21900927.04348
  22736804.719 6  22736809.039 9  22736808.996 9 119482676.539 6  93103434.759 9
  89224120.372 9  22736808.56647
  21873440.664 5                                 116925998.634 5  90942527.254 8
                  21873446.707 8
  22257046.523 6                                 119185454.908 6  92699793.646 9
                  22257048.770 9
  20306869.023 8                                 108437537.968 8  84340307.619 9
                  20306872.156 9
  19648060.742 8                                 104735218.641 8  81460723.440 9
                  19648066.961 9
  23092228.523 5                                 123397892.383 5  95976110.837 8
                  23092232.496 8
  20711421.281 4                                 110792135.799 4  86171670.352 9
                  20711422.672 9
  21303584.961 6                                 113920112.895 6  88604370.646 9
                  21303591.387 9
 19  5 27  8 40  0.0000000  0 15G02G06G12G14G19G24G25G32R01R08R09R10
                                R11R19R20
  24318244.797 5                                 127793227.717 5  99579169.38346
                  24318246.06646
  23667872.211 5  23667877.996 9  23667879.336 9 124375462.710 5  96916003.900 9
  92877834.573 9  23667877.15247
  20033609.781 8  20033610.758 9                 105277328.028 8  82034285.231 9
                  20033610.87549
  24122871.102 4                                 126766422.500 4  98779122.01146
                  24122873.47346
  22743516.258 5                                 119517973.550 5  93130884.70147
                  22743516.14847
  20918084.508 7  20918089.711 9  20918090.770 9 109925255.110 7  85656077.499 9
  82087070.536 9  20918089.58249
  21897208.680 7  21897213.273 9  21897215.020 9 115070564.114 7  89665432.188 9
  85929369.451 9  21897213.47748
  22733848.164 6  22733852.500 9  22733852.801 9 119467139.559 6  93091328.000 9
  89212518.062 9  22733852.37547
  21872478.086 6                                 116920855.745 6  90938527.221 8
                  21872484.340 8
  22258718.516 6                                 119194411.737 6  92706760.053 9
                  22258721.875 9
  20307282.781 8                                 108439749.936 8  84342028.027 9
                  20307286.715 9
  19645706.844 8                                 104722676.985 8  81450968.809 9
                  19645714.152 9
  23087720.352 5                                 123373803.811 5  95957375.299 8
                  23087724.227 8
  20710869.039 4                                 110789176.487 4  86169368.673 9
                  20710869.648 9
  21298932.063 6                                 113895227.683 6  88585015.494 9
                  21298938.027 9
 19  5 27  8 40  5.0000000  0 15G02G06G12G14G19G24G25G32R01R08R09R10
                                R11R19R20
  24314480.148 5                                 127773443.250 5  99563752.91046
                  24314481.39146
  23665038.727 5  23665045.176 9  23665046.465 9 124360575.193 5  96904403.235 9
  92866717.261 9  23665044.63347
  20032058.789 7  20032060.164 9                 105269178.735 7  82027935.129 9
                  20032060.14149
  24118915.484 4                                 126745635.827 4  98762924.56546
                  24118918.22346
  22744782.883 6                                 119524632.908 6  93136073.78647
                  22744783.45347
  20918514.586 7  20918519.090 9  20918520.309 9 109927511.910 7  85657836.044 9
  82088755.805 9  20918518.70749
  21893495.359 7  21893500.836 9  21893502.387 9 115051053.973 7  89650229.491 9
  85914800.188 9  21893500.96548
  22730894.109 6  22730898.781 9  22730898.879 9 119451615.882 6  93079231.635 9
  89200925.721 9  22730898.16047
  21871520.813 6                                 116915733.698 6  90934543.402 8
                  21871526.750 8
  22260393.609 6                                 119203380.021 6  92713735.362 9
                  22260396.543 9
  20307698.734 7                                 108441970.130 7  84343754.851 9
                  20307702.043 9
  19643357.391 7                                 104710144.245 7  81441221.124 9
                  19643363.008 9
  23083213.148 5                                 123349715.388 5  95938639.853 8
                  23083217.004 8
  20710318.438 4                                 110786239.133 4  86167084.064 9
                  20710320.848 9
  21294280.875 6                                 113870355.611 6  88565670.562 9
                  21294287.160 9
 19  5 27  8 40 10.0000000  0 15G02G06G12G14G19G24G25G32R01R08R09R10
                                R11R19R20
  24310715.883 5                                 127753664.502 5  99548340.91946
                  24310717.84446
  23662208.148 4  23662214.813 9  23662216.426 9 124345701.117 4  96892813.086 9
  92855610.021 9  23662214.64847
  20030510.500 7  20030511.449 9                 105261041.595 7  82021594.495 9
                  20030511.63749
  24114962.688 4                                 126724858.486 4  98746734.48946
                  24114964.62546
  22746052.773 6                                 119531304.613 6  93141272.51347
                  22746053.16847
  20918945.836 7  20918950.359 9  20918951.395 9 109929779.908 7  85659603.305 9
  82090449.432 9  20918950.20749
  21889785.008 7  21889789.480 9  21889790.973 9 115031552.190 7  89635033.298 9
  85900237.174 9  21889790.01648
  22727942.719 6  22727946.621 9  22727946.922 9 119436106.975 6  93067146.768 9
  89189344.387 9  22727946.66848
  21870567.188 6                                 116910633.767 6  90930576.768 8
                  21870572.207 8
  22262071.734 6                                 119212361.158 6  92720720.693 9
                  22262074.238 9
  20308116.125 7                                 108444199.993 7  84345489.190 9
                  20308119.363 9
  19641007.648 8                                 104697622.061 8  81431481.641 9
                  19641014.301 9
  23078703.734 5                                 123325628.427 5  95919905.550 8
                  23078708.973 8
  20709774.172 4                                 110783325.218 4  86164817.672 9
                  20709776.379 9
  21289632.523 6                                 113845498.211 6  88546337.032 9
                  21289638.797 9
 19  5 27  8 40 15.0000000  0 15G02G06G12G14G19G24G25G32R01R08R09R10
                                R11R19R20
  24306952.367 5                                 127733890.264 5  99532932.42146
                  24306954.66046
  23659380.922 5  23659386.313 9  23659388.578 9 124330839.342 5  96881232.492 9
  92844511.964 9  23659386.27747
  20028964.078 7  20028965.105 9                 105252915.369 7  82015262.377 9
                  20028965.24649
  24111009.742 5                                 126704089.393 5  98730550.75446
                  24111012.84046
  22747323.672 5                                 119537987.306 5  93146479.81847
                  22747325.00047
  20919379.227 7  20919384.191 9  20919384.891 9 109932057.936 7  85661378.390 9
  82092150.555 9  20919383.93449
  21886074.711 7  21886080.051 9  21886081.387 9 115012057.489 7  89619842.622 9
  85885679.441 9  21886080.37548
  22724993.953 6  22724998.277 9  22724998.461 9 119420611.604 6  93055072.445 9
  89177773.160 9  22724998.85247
  21869616.477 5                                 116905554.777 5  90926626.456 8
                  21869623.176 8
  22263750.234 6                                 119221353.923 6  92727715.060 9
                  22263753.387 9
  20308535.414 7                                 108446438.246 7  84347230.043 9
                  20308538.539 9
  19638660.664 8                                 104685109.070 8  81421749.311 9
                  19638667.184 9
  23074197.008 5                                 123301541.904 5  95901171.586 8
                  23074201.734 8
  20709233.664 4                                 110780433.461 4  86162568.527 9
                  20709235.910 9
  21284986.523 6                                 113820654.206 6  88527013.945 9
                  21284993.273 9
 19  5 27  8 40 20.0000000  0 15G02G06G12G14G19G24G25G32R01R08R09R10
                                R11R19R20
  24303189.477 5                                 127714121.146 5  99517527.93546
                  24303192.81646
  23656555.492 5  23656560.148 9  23656562.520 9 124315990.494 5  96869661.938 9
  92833423.503 9  23656560.39147
  20027419.734 8  20027421.285 9                 105244800.760 8  82008939.305 9
                  20027421.68849
  24107059.469 4                                 126683329.087 4  98714373.90546
                  24107062.07846
  22748597.828 5                                 119544681.665 5  93151696.17047
                  22748598.77047
  20919814.633 7  20919819.453 9  20919820.289 9 109934346.557 7  85663161.707 9
  82093859.582 9  20919819.15649
  21882366.594 7  21882371.488 9  21882372.840 9 114992570.542 7  89604657.985 9
  85871127.499 9  21882371.53148
  22722047.500 6  22722052.676 9  22722052.590 9 119405130.412 6  93043009.171 9
  89166212.533 9  22722052.74647
  21868670.516 6                                 116900497.388 6  90922692.923 8
                  21868677.348 8
  22265430.984 6                                 119230358.931 6  92734718.960 9
                  22265434.465 9
  20308956.328 7                                 108448685.649 7  84348978.010 9
                  20308959.711 9
  19636314.258 8                                 104672605.827 8  81412024.579 9
                  19636321.594 9
  23069690.000 6                                 123277456.324 6  95882438.354 8
                  23069694.855 8
  20708697.070 4                                 110777564.488 4  86160337.108 9
                  20708699.430 9
  21280343.586 6                                 113795824.271 6  88507701.777 9
                  21280349.828 9
 19  5 27  8 40 25.0000000  0 15G02G06G12G14G19G24G25G32R01R08R09R10
                                R11R19R20
  24299428.492 4                                 127694357.229 4  99502127.46346
                  24299431.93446
  23653732.406 6  23653737.078 9  23653739.199 9 124301154.666 6  96858101.558 9
  92822344.788 9  23653737.07047
  20025877.531 7  20025879.652 9                 105236697.826 7  82002625.322 9
                  20025879.52049
  24103109.922 4                                 126662577.794 4  98698204.08545
                  24103112.95745
  22749875.688 5                                 119551387.813 5  93156921.73347
                  22749875.31647
  20920252.391 7  20920257.156 9  20920257.988 9 109936646.056 7  85664953.525 9
  82095576.739 9  20920256.80149
  21878659.664 7  21878664.691 9  21878666.344 9 114973091.395 7  89589479.434 9
  85856581.392 9  21878664.68448
  22719104.453 6  22719109.563 9  22719109.492 9 119389663.517 6  93030957.052 9
  89154662.594 9  22719109.41447
  21867729.148 6                                 116895461.641 6  90918776.212 8
                  21867735.184 8
  22267114.375 6                                 119239376.159 6  92741732.359 9
                  22267118.688 9
  20309379.641 7                                 108450942.082 7  84350733.019 9
                  20309382.238 9
  19633971.617 8                                 104660112.438 8  81402307.492 9
                  19633977.383 9
  23065182.398 6                                 123253371.787 6  95863705.982 8
                  23065188.563 8
  20708164.055 4                                 110774718.403 4  86158123.503 9
                  20708166.820 9
  21275702.375 6                                 113771008.416 6  88488400.560 9
                  21275709.410 9
 19  5 27  8 40 30.0000000  0 15G02G06G12G14G19G24G25G32R01R08R09R10
                                R11R19R20
  24295668.805 5                                 127674597.637 5  99486730.36946
                  24295671.14546
  23650911.648 6  23650915.871 8  23650918.504 9 124286330.918 6  96846550.588 8
  92811275.122 9  23650915.78946
  20024337.945 7  20024339.629 9                 105228605.648 7  81996319.720 9
                  20024339.56649
  24099163.320 4                                 126641834.584 4  98682040.52146
                  24099165.92246
  22751153.266 6                                 119558104.849 6  93162155.77847
                  22751153.55147
  20920691.586 7  20920696.648 9  20920697.668 9 109938955.517 7  85666753.093 9
  82097301.331 9  20920696.18449
  21874954.438 7  21874959.156 9  21874960.746 9 114953619.214 7  89574306.323 9
  85842040.485 9  21874959.26648
  22716164.266 6  22716168.711 9  22716168.719 9 119374209.973 6  93018915.328 9
  89143122.615 9  22716168.82047
  21866790.523 6                                 116890446.620 6  90914875.653 8
                  21866796.695 8
  22268800.742 6                                 119248404.931 6  92748754.723 9
                  22268804.668 9
  20309803.141 7                                 108453206.801 7  84352494.487 9
                  20309806.012 9
  19631629.578 8                                 104647628.146 8  81392597.482 9
                  19631636.254 9
  23060674.539 5                                 123229287.434 5  95844973.690 8
                  23060681.383 8
  20707637.305 4                                 110771894.290 4  86155926.952 9
                  20707639.355 9
  21271064.234 6                                 113746205.948 6  88469109.750 9
                  21271070.645 9
 19  5 27  8 40 35.0000000  0 15G02G06G12G14G19G24G25G32R01R08R09R10
                                R11R19R20
  24291909.188 4                                 127654842.796 4  99471337.01246
                  24291911.53946
  23648092.891 6  23648097.320 8  23648099.762 9 124271519.726 6  96835009.400 8
  92800214.795 9  23648096.87547
  20022800.320 7  20022801.586 9                 105220524.656 7  81990022.852 9
                  20022801.88749
  24095217.641 4                                 126621099.829 4  98665883.58146
                  24095220.57446
  22752432.984 6                                 119564833.168 6  93167398.61247
                  22752433.71547
  20921133.266 7  20921138.004 9  20921138.844 9 109941275.065 7  85668560.536 9
  82099033.455 9  20921137.71549
  21871250.930 7  21871255.129 9  21871256.848 9 114934154.353 7  89559138.895 9
  85827505.043 9  21871255.12948
  22713226.102 6  22713230.410 9  22713230.633 9 119358770.255 6  93006884.384 9
  89131592.958 9  22713230.78947
  21865856.102 5                                 116885452.843 5  90910991.605 8
                  21865862.586 8
  22270489.359 6                                 119257445.302 6  92755786.094 9
                  22270492.699 9
  20310228.555 7                                 108455480.184 7  84354262.683 9
                  20310231.305 9
  19629288.391 8                                 104635153.275 8  81382894.807 9
                  19629295.617 9
  23056167.664 5                                 123205203.563 5  95826241.818 8
                  23056174.207 8
  20707112.781 4                                 110769092.521 4  86153747.799 9
                  20707115.313 9
  21266429.031 6                                 113721417.191 6  88449829.610 9
                  21266434.746 9
 19  5 27  8 40 40.0000000  0 15G02G06G12G14G19G24G25G32R01R08R09R10
                                R11R19R20
  24288151.805 5                                 127635093.249 5  99455947.75546
                  24288153.68846
  23645276.391 5  23645281.898 8  23645283.832 9 124256721.683 5  96823478.483 8
  92789164.324 9  23645281.29347
  20021264.828 7  20021266.465 9                 105212455.397 7  81983735.117 9
                  20021266.49649
  24091272.852 3                                 126600374.218 3  98649733.73046
                  24091276.33646
  22753715.805 5                                 119571573.326 5  93172650.65547
                  22753716.43047
  20921576.711 7  20921581.500 9  20921582.656 9 109943605.604 7  85670376.539 9
  82100773.783 9  20921581.35249
  21867547.844 7  21867552.613 9  21867554.191 9 114914697.483 7  89543977.719 9
  85812975.573 9  21867552.47748
  22710290.352 6  22710295.191 9  22710295.332 9 119343344.971 6  92994864.705 9
  89120074.087 9  22710295.02347
  21864924.273 5                                 116880480.764 5  90907124.443 8
                  21864932.242 8
  22272180.398 6                                 119266498.112 6  92762827.146 9
                  22272183.680 9
  20310656.570 7                                 108457762.827 7  84356038.046 9
                  20310659.324 9
  19626950.281 8                                 104622688.460 8  81373199.952 9
                  19626957.383 9
  23051660.609 5                                 123181121.097 5  95807511.010 8
                  23051667.121 8
  20706594.383 4                                 110766313.753 4  86151586.534 9
                  20706596.336 9
  21261796.133 6                                 113696642.790 6  88430560.624 9
                  21261801.848 9
 19  5 27  8 40 45.0000000  0 15G02G06G12G14G19G24G25G32R01R08R09R10
                                R11R19R20
  24284394.414 5                                 127615349.740 5  99440563.20746
                  24284396.18446
  23642463.523 5  23642468.555 8  23642470.391 9 124241937.372 5  96811958.214 8
  92778124.096 9  23642467.38347
  20019731.625 7  20019732.754 9                 105204398.508 7  81977457.016 9
                  20019732.95349
  24087332.023 4                                 126579658.235 4  98633591.42346
                  24087334.64546
  22755000.477 5                                 119578325.899 5  93177912.41247
                  22755001.03547
  20922022.469 7  20922027.250 9  20922028.137 9 109945947.415 7  85672201.334 9
  82102522.545 9  20922027.30149
  21863847.469 7  21863851.398 9  21863852.918 9 114895249.156 7  89528823.171 9
  85798452.464 9  21863850.96948
  22707358.141 6  22707362.902 9  22707362.043 9 119327934.660 6  92982856.656 9
  89108566.382 9  22707363.13747
  21863998.969 5                                 116875531.056 5  90903274.663 8
                  21864006.195 8
  22273873.719 6                                 119275563.849 6  92769878.253 9
                  22273876.207 9
  20311085.320 7                                 108460055.284 7  84357821.054 9
                  20311088.484 9
  19624614.063 8                                 104610234.370 8  81363513.437 9
                  19624621.176 9
  23047155.188 5                                 123157040.308 5  95788781.495 8
                  23047160.426 8
  20706076.883 4                                 110763558.505 4  86149443.546 9
                  20706081.570 9
  21257165.555 6                                 113671883.247 6  88411303.209 9
                  21257172.211 9
 19  5 27  8 40 50.0000000  0 15G02G06G12G14G19G24G25G32R01R08R09R10
                                R11R19R20
  24280638.898 5                                 127595611.472 5  99425182.77046
                  24280640.34846
  23639652.773 5  23639658.332 8  23639660.234 9 124227166.133 5  96800448.181 8
  92767093.646 9  23639657.34847
  20018200.742 7  20018201.953 9                 105196353.270 7  81971187.989 9
                  20018202.03549
  24083390.930 4                                 126558951.247 4  98617456.13946
                  24083394.74646
  22756287.367 5                                 119585090.188 5  93183183.30347
                  22756288.10247
  20922470.438 7  20922475.090 9  20922476.488 9 109948299.985 7  85674034.496 9
  82104279.331 9  20922475.12549
  21860148.055 7  21860152.328 9  21860153.781 9 114875808.663 7  89513674.729 9
  85783935.212 9  21860151.89148
  22704428.797 6  22704432.891 9  22704432.844 9 119312538.672 6  92970859.813 9
  89097069.394 9  22704432.94547
  21863078.234 5                                 116870602.994 5  90899441.714 8
                  21863084.207 8
  22275569.633 6                                 119284641.836 6  92776938.916 9
                  22275572.340 9
  20311515.797 7                                 108462356.904 7  84359611.199 9
                  20311519.504 9
  19622279.453 8                                 104597790.198 8  81353834.636 9
                  19622286.578 9
  23042648.602 5                                 123132960.573 5  95770052.825 8
                  23042654.023 8
  20705565.703 4                                 110760826.153 4  86147318.409 9
                  20705570.590 9
  21252537.594 6                                 113647138.001 6  88392056.924 9
                  21252544.414 9
 19  5 27  8 40 55.0000000  0 15G02G06G12G14G19G24G25G32R01R08R09R10
                                R11R19R20
  24276884.688 5                                 127575878.044 5  99409806.06446
                  24276884.61746
  23636843.375 5  23636849.766 9  23636851.492 9 124212407.489 5  96788947.923 9
  92756072.583 9  23636849.48447
  20016672.156 8  20016673.250 9                 105188319.208 8  81964927.694 9
                  20016673.07849
  24079452.336 4                                 126538252.838 4  98601327.46746
                  24079455.62946
  22757576.656 5                                 119591865.693 5  93188462.90247
                  22757577.05147
  20922919.336 7  20922925.012 9  20922926.355 9 109950662.940 7  85675875.756 9
  82106043.873 9  20922924.98849
  21856449.789 7  21856453.992 9  21856455.949 9 114856375.529 7  89498532.023 9
  85769423.460 9  21856453.59048
  22701501.742 6  22701505.969 9  22701505.684 9 119297156.579 6  92958873.738 9
  89085582.759 9  22701505.90247
  21862160.508 6                                 116865696.061 6  90895625.214 8
                  21862166.156 8
  22277268.375 6                                 119293731.452 6  92784008.623 9
                  22277269.098 9
  20311949.000 8                                 108464667.205 8  84361408.087 9
                  20311952.555 9
  19619947.297 8                                 104585355.565 8  81344163.245 9
                  19619953.449 9
  23038142.180 5                                 123108881.572 5  95751324.700 8
                  23038148.051 8
  20705059.758 4                                 110758116.094 4  86145210.572 9
                  20705063.555 9
  21247913.414 6                                 113622406.680 6  88372821.450 9
                  21247919.160 9
 19  5 27  8 41  0.0000000  0 15G02G06G12G14G19G24G25G32R01R08R09R10
                                R11R19R20
  24273129.086 4                                 127556149.872 4  99394433.48146
                  24273130.19146
  23634038.055 6  23634043.066 9  23634045.395 9 124197661.880 6  96777457.828 9
  92745061.229 9  23634043.21147
  20015145.258 8  20015146.465 9                 105180296.769 8  81958676.438 9
                  20015146.41449
  24075515.719 4                                 126517563.449 4  98585205.89146
                  24075518.50846
  22758868.109 5                                 119598652.813 5  93193751.56747
                  22758868.32447
  20923371.195 7  20923376.125 9  20923377.543 9 109953036.454 7  85677725.235 9
  82107816.291 9  20923376.35549
  21852752.617 7  21852757.781 9  21852758.793 9 114836950.219 7  89483395.433 9
  85754917.561 9  21852757.07848
  22698577.563 6  22698581.156 9  22698580.711 9 119281788.771 6  92946898.801 9
  89074106.783 9  22698581.22347
  21861246.703 5                                 116860810.722 5  90891825.487 8
                  21861252.750 8
  22278966.281 6                                 119302833.220 6  92791087.756 9
                  22278969.246 9
  20312383.547 7                                 108466986.521 7  84363211.993 9
                  20312386.219 9
  19617616.148 8                                 104572930.912 8  81334499.633 9
                  19617623.141 9
  23033637.430 6                                 123084803.521 6  95732597.320 8
                  23033642.484 8
  20704559.336 4                                 110755428.848 4  86143120.483 9
                  20704561.176 9
  21243290.438 6                                 113597689.529 6  88353596.989 9
                  21243296.188 9
 19  5 27  8 41  5.0000000  0 15G02G06G12G14G19G24G25G32R01R08R09R10
                                R11R19R20
  24269376.484 4                                 127536427.925 4  99379065.76746
                  24269377.15646
  23631234.789 5  23631239.914 9  23631243.059 9 124182930.260 5  96765978.626 9
  92734060.343 9  23631240.22747
  20013621.289 7  20013622.207 9                 105172286.850 7  81952434.950 9
                  20013622.27049
  24071580.695 5                                 126496883.953 5  98569092.01946
                  24071583.32046
  22760162.641 5                                 119605452.459 5  93199049.98547
                  22760162.53947
  20923825.266 7  20923829.992 9  20923831.594 9 109955421.567 7  85679583.766 9
  82109597.372 9  20923830.23049
  21849058.102 7  21849063.027 9  21849064.516 9 114817533.653 7  89468265.652 9
  85740418.194 9  21849062.39148
  22695655.852 6  22695660.332 9  22695659.910 9 119266436.126 6  92934935.711 9
  89062642.157 9  22695660.12947
  21860335.266 5                                 116855947.910 5  90888043.318 8
                  21860342.551 8
  22280666.945 6                                 119311948.057 6  92798177.079 9
                  22280671.332 9
  20312819.633 7                                 108469315.911 7  84365023.746 9
                  20312822.973 9
  19615287.273 8                                 104560517.203 8  81324844.521 9
                  19615293.676 9
  23029132.211 6                                 123060727.478 6  95713871.509 8
                  23029136.133 8
  20704059.672 4                                 110752765.280 4  86141048.819 9
                  20704063.551 9
  21238671.258 6                                 113572987.637 6  88334384.417 9
                  21238677.012 9
 19  5 27  8 41 10.0000000  0 15G02G06G12G14G19G24G25G32R01R08R09R10
                                R11R19R20
  24265623.750 5                                 127516711.194 5  99363702.07346
                  24265625.06346
  23628433.523 6  23628438.996 9  23628441.918 9 124168211.592 6  96754509.556 9
  92723069.157 9  23628439.26247
  20012099.133 7  20012100.266 9                 105164288.437 7  81946202.432 9
                  20012100.18849
  24067647.148 5                                 126476213.335 5  98552985.06246
                  24067649.63346
  22761458.828 6                                 119612263.584 6  93204357.34947
                  22761458.41047
  20924281.313 7  20924285.984 9  20924287.863 9 109957817.352 7  85681450.598 9
  82111386.428 9  20924286.32449
  21845364.977 7  21845369.695 9  21845371.574 9 114798124.870 7  89453141.925 9
  85725924.623 9  21845369.15648
  22692737.250 6  22692741.406 9  22692741.031 9 119251097.785 6  92922983.745 9
  89051188.196 9  22692741.42247
  21859430.070 5                                 116851106.628 5  90884277.852 8
                  21859437.105 8
  22282372.367 6                                 119321074.813 6  92805275.642 9
                  22282376.355 9
  20313257.211 7                                 108471654.262 7  84366842.463 9
                  20313260.656 9
  19612960.477 8                                 104548113.375 8  81315197.102 9
                  19612967.008 9
  23024626.711 6                                 123036652.447 6  95695146.495 8
                  23024630.402 8
  20703566.000 4                                 110750124.481 4  86138994.858 9
                  20703569.035 9
  21234054.453 6                                 113548299.993 6  88315182.936 9
                  21234060.352 9
 19  5 27  8 41 15.0000000  0 15G02G06G12G14G19G24G25G32R01R08R09R10
                                R11R19R20
  24261872.703 5                                 127496999.131 5  99348342.02946
                  24261874.10546
  23625634.164 5  23625641.008 9  23625643.121 9 124153505.378 5  96743050.176 9
  92712087.251 9  23625640.41047
  20010579.500 7  20010579.980 9                 105156301.053 7  81939978.495 9
                  20010580.08649
  24063716.047 5                                 126455551.144 5  98536884.64346
                  24063717.18046
  22762756.984 6                                 119619085.659 6  93209673.27347
                  22762756.51647
  20924738.992 7  20924744.117 9  20924745.195 9 109960223.237 7  85683325.325 9
  82113183.029 9  20924744.06649
  21841672.883 7  21841677.512 9  21841679.137 9 114778723.263 7  89438023.798 9
  85711436.414 9  21841677.18448
  22689820.711 6  22689824.594 9  22689824.598 9 119235773.089 6  92911042.427 9
  89039744.427 9  22689824.69948
  21858529.813 6                                 116846286.353 6  90880528.736 8
                  21858534.863 8
  22284077.336 6                                 119330212.915 6  92812383.063 9
                  22284082.305 9
  20313696.875 7                                 108474001.094 7  84368667.761 9
                  20313699.891 9
  19610635.508 8                                 104535718.858 8  81305556.922 9
                  19610641.988 9
  23020120.844 6                                 123012577.828 6  95676421.782 8
                  23020124.398 8
  20703078.047 4                                 110747505.803 4  86136958.122 9
                  20703080.008 9
  21229440.867 5                                 113523626.050 5  88295992.099 9
                  21229445.898 9
 19  5 27  8 41 20.0000000  0 15G02G06G12G14G19G24G25G32R01R08R09R10
                                R11R19R20
  24258123.742 5                                 127477291.466 5  99332985.42346
                  24258124.15646
  23622838.805 5  23622845.563 9  23622847.309 9 124138811.338 5  96731600.270 9
  92701114.416 9  23622844.53547
  20009061.313 8  20009062.070 9                 105148324.391 8  81933762.912 9
                  20009061.95349
  24059784.805 5                                 126434897.119 5  98520790.58946
                  24059786.80546
  22764057.344 6                                 119625918.442 6  93214997.51047
                  22764056.89547
  20925198.938 7  20925203.164 9  20925204.699 9 109962638.810 7  85685207.580 9
  82114986.858 9  20925203.50849
  21837981.867 7  21837986.617 9  21837988.371 9 114759328.597 7  89422911.065 9
  85696953.392 9  21837986.53948
  22686906.992 6  22686911.195 9  22686911.566 9 119220461.859 6  92899111.610 9
  89028310.722 9  22686911.31647
  21857631.242 6                                 116841486.696 6  90876795.685 8
                  21857637.313 8
  22285786.844 6                                 119339362.170 6  92819499.123 9
                  22285790.078 9
  20314138.117 7                                 108476356.104 7  84370499.442 9
                  20314141.836 9
  19608311.727 8                                 104523333.362 8  81295923.758 9
                  19608318.469 9
  23015616.297 6                                 122988503.321 6  95657697.162 8
                  23015618.980 8
  20702591.281 4                                 110744908.888 4  86134938.307 9
                  20702594.125 9
  21224829.008 6                                 113498965.538 6  88276811.721 9
                  21224834.773 9
 19  5 27  8 41 25.0000000  0 15G02G06G12G14G19G24G25G32R01R08R09R10
                                R11R19R20
  24254373.898 5                                 127457588.483 5  99317632.45746
                  24254374.12146
  23620044.734 5  23620051.098 9  23620053.004 9 124124129.707 5  96720160.060 9
  92690150.876 9  23620050.46547
  20007545.422 7  20007546.742 9                 105140358.643 7  81927555.830 9
                  20007546.13349
  24055855.477 5                                 126414251.441 5  98504703.06646
                  24055857.91846
  22765359.305 6                                 119632762.087 6  93220330.20547
                  22765359.21547
  20925660.586 7  20925664.859 9  20925666.258 9 109965064.478 7  85687097.694 9
  82116798.228 9  20925665.01249
  21834292.789 7  21834297.586 9  21834299.305 9 114739941.104 7  89407803.944 9
  85682475.716 9  21834297.23848
  22683995.922 6  22684000.754 9  22684000.754 9 119205164.248 6  92887191.390 9
  89016887.174 9  22684000.32847
  21856737.656 6                                 116836707.869 6  90873078.802 8
                  21856743.348 8
  22287499.039 6                                 119348522.841 6  92826624.091 9
                  22287501.289 9
  20314581.180 7                                 108478719.513 7  84372337.651 9
                  20314584.770 9
  19605989.414 7                                 104510957.129 7  81286297.793 9
                  19605996.516 9
  23011110.234 6                                 122964429.266 6  95638972.903 8
                  23011114.535 8
  20702110.523 4                                 110742334.139 4  86132935.718 9
                  20702113.383 9
  21220219.695 6                                 113474318.669 6  88257641.947 9
                  21220225.684 9
 19  5 27  8 41 30.0000000  0 15G02G06G12G14G19G24G25G32R01R08R09R10
                                R11R19R20
  24250625.289 4                                 127437891.334 4  99302284.02746
                  24250626.07046
  23617254.281 5  23617259.977 9  23617261.977 9 124109461.685 5  96708730.448 9
  92679197.491 9  23617259.20347
  20006031.867 7  20006033.242 9                 105132405.003 7  81921358.181 9
                  20006032.60549
  24051928.445 5                                 126393615.301 5  98488622.96246
                  24051930.84846
  22766664.570 6                                 119639617.789 6  93225672.31847
                  22766664.35947
  20926124.797 7  20926129.020 9  20926130.070 9 109967501.306 7  85688996.518 9
  82118617.934 9  20926129.17649
  21830605.188 7  21830609.465 9  21830611.309 9 114720561.920 7  89392703.280 9
  85668004.253 9  21830609.18448
  22681087.422 6  22681092.492 9  22681092.559 9 119189881.497 6  92875282.762 9
  89005474.736 9  22681092.36747
  21855847.266 6                                 116831951.173 6  90869379.176 8
                  21855854.117 8
  22289210.641 6                                 119357696.004 6  92833758.747 9
                  22289215.082 9
  20315025.648 8                                 108481092.518 8  84374183.319 9
                  20315029.223 9
  19603669.969 7                                 104498591.312 7  81276679.935 9
                  19603677.141 9
  23006606.141 5                                 122940356.778 5  95620249.872 8
                  23006609.816 8
  20701635.477 4                                 110739782.649 4  86130951.226 9
                  20701636.648 9
  21215613.680 6                                 113449686.746 6  88238483.795 9
                  21215619.547 9
 19  5 27  8 41 35.0000000  0 15G02G06G12G14G19G24G25G32R01R08R09R10
                                R11R19R20
  24246878.961 5                                 127418198.740 5  99286939.16146
                  24246878.40246
  23614464.914 5  23614470.488 9  23614472.945 9 124094805.993 5  96697310.445 9
  92668253.293 9  23614469.99647
  20004520.414 7  20004521.305 9                 105124462.188 7  81915168.973 9
                  20004520.93449
  24048003.352 5                                 126372987.548 5  98472549.37046
                  24048005.69146
  22767970.766 6                                 119646484.267 6  93231022.80847
                  22767971.05147
  20926590.141 7  20926594.926 9  20926595.691 9 109969947.976 7  85690903.022 9
  82120444.993 9  20926594.91449
  21826918.297 7  21826923.426 9  21826925.102 9 114701189.830 7  89377608.146 9
  85653538.092 9  21826923.09048
  22678181.500 6  22678187.398 9  22678187.422 9 119174612.359 6  92863384.718 9
  88994072.457 9  22678187.11347
  21854961.531 5                                 116827215.279 5  90865695.687 8
                  21854968.188 8
  22290924.844 5                                 119366880.279 5  92840902.072 9
                  22290930.273 9
  20315471.336 7                                 108483473.822 7  84376035.438 9
                  20315475.223 9
  19601352.438 8                                 104486234.612 8  81267069.182 9
                  19601358.855 9
  23002101.000 6                                 122916284.638 6  95601527.107 8
                  23002104.949 8
  20701161.828 5                                 110737253.080 5  86128983.772 9
                  20701163.332 9
  21211009.031 6                                 113425068.444 6  88219336.231 9
                  21211014.758 9
 19  5 27  8 41 40.0000000  0 15G02G06G12G14G19G24G25G32R01R08R09R10
                                R11R19R20
  24243131.250 4                                 127398510.838 4  99271597.95346
                  24243132.72746
  23611678.305 5  23611684.355 9  23611686.684 9 124080162.822 5  96685900.146 9
  92657318.452 9  23611683.79347
  20003010.820 7  20003011.980 9                 105116530.319 7  81908988.288 9
                  20003011.62949
  24044080.164 5                                 126352368.178 5  98456482.31146
                  24044082.12546
  22769279.211 6                                 119653361.672 6  93236381.83947
                  22769279.66447
  20927057.195 7  20927062.578 9  20927063.137 9 109972404.578 7  85692817.255 9
  82122279.467 9  20927062.24249
  21823233.891 7  21823238.703 9  21823240.207 9 114681824.972 7  89362518.649 9
  85639077.319 9  21823238.43448
  22675278.922 6  22675284.215 9  22675284.441 9 119159356.935 6  92851497.371 9
  88982680.410 9  22675284.07448
  21854079.438 6                                 116822500.253 6  90862028.470 8
                  21854086.051 8
  22292643.781 6                                 119376075.964 6  92848054.224 9
                  22292647.117 9
  20315918.172 7                                 108485863.532 7  84377894.115 9
                  20315922.309 9
  19599035.789 8                                 104473887.323 8  81257465.732 9
                  19599042.047 9
  22997596.430 5                                 122892213.012 5  95582804.722 8
                  22997601.391 8
  20700692.961 4                                 110734745.580 4  86127033.493 9
                  20700695.297 9
  21206408.984 6                                 113400463.947 6  88200199.412 9
                  21206414.773 9
 19  5 27  8 41 45.0000000  0 15G02G06G12G14G19G24G25G32R01R08R09R10
                                R11R19R20
  24239385.547 3                                 127378829.048 3  99256261.51146
                  24239387.78146
  23608894.531 5  23608899.988 8  23608902.938 9 124065533.446 5  96674500.605 8
  92646393.908 9  23608899.52047
  20001503.500 7  20001505.035 9                 105108610.669 7  81902817.140 9
                  20001504.70349
  24040158.625 5                                 126331758.524 5  98440422.86346
                  24040160.28546
  22770590.531 6                                 119660251.199 6  93241750.28747
                  22770590.88347
  20927526.695 7  20927531.695 9  20927532.559 9 109974872.498 7  85694740.293 9
  82124122.382 9  20927531.83649
  21819550.219 7  21819554.563 9  21819556.051 9 114662468.590 7  89347435.753 9
  85624622.877 9  21819554.16048
  22672378.516 6  22672384.141 9  22672383.793 9 119144116.515 6  92839621.723 9
  88971299.584 9  22672384.24647
  21853201.594 6                                 116817807.350 6  90858378.412 8
                  21853207.465 8
  22294363.883 6                                 119385284.251 6  92855216.248 9
                  22294367.387 9
  20316367.320 7                                 108488262.940 7  84379760.292 9
                  20316371.574 9
  19596721.570 8                                 104461550.794 8  81247870.649 9
                  19596728.262 9
  22993093.406 6                                 122868143.081 6  95564083.671 8
                  22993096.801 8
  20700226.281 5                                 110732261.451 5  86125101.409 9
                  20700230.590 9
  21201809.414 6                                 113375874.590 6  88181074.349 9
                  21201816.012 9
 19  5 27  8 41 50.0000000  0 15G02G06G12G14G19G24G25G32R01R08R09R10
                                R11R19R20
  24235641.500 3                                 127359152.896 3  99240929.48946
                  24235642.95746
  23606112.125 5  23606119.008 8  23606121.574 9 124050917.530 5  96663111.555 8
  92635479.427 9  23606118.21947
  19999998.938 7  20000000.480 9                 105100702.977 7  81896655.298 9
                  20000000.28149
  24036238.250 4                                 126311158.365 4  98424370.81346
                  24036240.42246
  22771903.836 6                                 119667152.559 6  93247127.97247
                  22771903.92247
  20927998.664 7  20928003.195 9  20928004.621 9 109977351.474 7  85696671.974 9
  82125973.566 9  20928003.60549
  21815868.336 7  21815873.180 9  21815874.719 9 114643120.399 7  89332359.251 9
  85610174.559 9  21815873.23848
  22669481.828 6  22669486.516 9  22669485.715 9 119128890.805 6  92827757.532 9
  88959929.737 9  22669486.75448
  21852329.469 6                                 116813136.449 6  90854745.499 8
                  21852333.867 8
  22296084.781 6                                 119394504.861 6  92862387.816 9
                  22296088.402 9
  20316818.875 7                                 108490671.813 7  84381633.847 9
                  20316821.668 9
  19594408.398 8                                 104449224.567 8  81238283.598 9
                  19594415.516 9
  22988588.156 6                                 122844074.606 6  95545363.714 8
                  22988593.781 8
  20699767.289 5                                 110729800.338 5  86123187.213 9
                  20699770.629 9
  21197216.172 6                                 113351300.074 6  88161960.849 9
                  21197220.504 9
 19  5 27  8 41 55.0000000  0 15G02G06G12G14G19G24G25G32R01R08R09R10
                                R11R19R20
  24231897.992 3                                 127339480.414 3  99225600.30746
                  24231899.57046
  23603333.789 5  23603339.832 9  23603342.059 9 124036313.021 5  96651731.427 9
  92624573.465 9  23603339.28547
  19998496.141 7  19998497.305 9                 105092805.141 7  81890501.144 9
                  19998497.27749
  24032319.383 3                                 126290565.662 3  98408324.52946
                  24032322.10946
  22773219.336 6                                 119674063.683 6  93252513.26647
                  22773219.19947
  20928472.414 7  20928477.137 9  20928477.918 9 109979839.421 7  85698610.621 9
  82127831.435 9  20928477.08249
  21812187.688 7  21812192.238 9  21812193.723 9 114623778.351 7  89317287.534 9
  85595730.829 9  21812192.47348
  22666586.734 6  22666591.285 9  22666590.957 9 119113677.749 6  92815903.209 9
  88948569.351 9  22666591.87548
  21851458.375 6                                 116808485.335 6  90851127.963 8
                  21851463.871 8
  22297808.422 5                                 119403735.409 5  92869567.104 9
                  22297812.418 9
  20317271.492 7                                 108493088.000 7  84383513.123 9
                  20317274.656 9
  19592098.172 8                                 104436906.634 8  81228702.989 9
                  19592104.516 9
  22984083.859 6                                 122820005.409 6  95526643.248 8
                  22984090.141 8
  20699311.031 4                                 110727360.348 4  86121289.431 9
                  20699314.664 9
  21192621.477 6                                 113326738.188 6  88142857.169 9
                  21192628.379 9
 19  5 27  8 42  0.0000000  0 15G02G06G12G14G19G24G25G32R01R08R09R10
                                R11R19R20
  24228156.438 4                                 127319812.974 4  99210275.03346
                  24228157.19146
  23600556.836 5  23600563.250 9  23600564.828 9 124021721.239 5  96640361.200 9
  92613677.002 9  23600562.23447
  19996995.594 7  19996996.199 9                 105084918.473 7  81884355.692 9
                  19996996.42249
  24028401.992 4                                 126269981.601 4  98392285.00846
                  24028404.44946
  22774536.063 5                                 119680985.838 5  93257907.16347
                  22774536.93447
  20928947.648 7  20928952.438 9  20928953.660 9 109982337.620 7  85700557.263 9
  82129696.970 9  20928952.46949
  21808508.469 7  21808513.582 9  21808514.773 9 114604443.782 7  89302221.630 9
  85581292.674 9  21808513.58248
  22663695.195 6  22663698.836 9  22663698.156 9 119098478.685 6  92804059.773 9
  88937219.390 9  22663699.25448
  21850590.883 6                                 116803855.202 6  90847526.759 8
                  21850596.758 8
  22299534.469 5                                 119412977.646 5  92876755.500 9
                  22299537.734 9
  20317725.750 7                                 108495512.854 7  84385399.120 9
                  20317728.957 9
  19589789.102 8                                 104424598.197 8  81219129.758 9
                  19589795.805 9
  22979579.477 6                                 122795936.979 6  95507923.369 8
                  22979585.676 8
  20698858.836 5                                 110724942.507 5  86119408.874 9
                  20698862.313 9
  21188031.852 6                                 113302190.347 6  88123764.398 9
                  21188037.219 9
 19  5 27  8 42  5.0000000  0 15G02G06G12G14G19G24G25G32R01R08R09R10
                                R11R19R20
  24224414.047 4                                 127300151.385 4  99194954.32546
                  24224416.26646
  23597783.266 5  23597789.156 9  23597790.426 9 124007143.098 5  96629001.637 9
  92602790.751 9  23597788.53547
  19995497.242 8  19995498.586 9                 105077043.840 8  81878219.608 9
                  19995498.78549
  24024487.641 4                                 126249407.194 4  98376252.96246
                  24024489.11346
  22775856.359 6                                 119687919.910 6  93263310.33347
                  22775855.82847
  20929424.750 7  20929429.957 9  20929431.227 9 109984846.883 7  85702512.518 9
  82131570.760 9  20929429.80549
  21804830.750 7  21804836.020 9  21804837.414 9 114585117.512 7  89287162.197 9
  85566860.716 9  21804836.10948
  22660805.680 6  22660809.035 9  22660808.891 9 119083294.482 6  92792227.937 9
  88925880.527 9  22660809.16847
  21849728.164 5                                 116799247.201 5  90843942.747 8
                  21849735.383 8
  22301260.086 5                                 119422232.186 5  92883953.453 9
                  22301266.625 9
  20318181.023 7                                 108497947.229 7  84387292.538 9
                  20318184.871 9
  19587481.844 8                                 104412300.247 8  81209564.679 9
                  19587488.797 9
  22975075.797 6                                 122771870.147 6  95489204.719 8
                  22975081.773 8
  20698411.945 4                                 110722547.883 4  86117546.386 9
                  20698414.547 9
  21183443.352 6                                 113277657.516 6  88104683.337 9
                  21183448.934 9
 19  5 27  8 42 10.0000000  0 15G02G06G12G14G19G24G25G32R01R08R09R10
                                R11R19R20
  24220673.148 4                                 127280495.251 4  99179637.86346
                  24220675.99646
  23595012.266 6  23595017.629 9  23595019.066 9 123992578.099 6  96617652.306 9
  92591914.268 9  23595016.99647
  19994000.828 7  19994001.813 9                 105069180.769 7  81872092.537 9
                  19994002.00049
  24020573.602 4                                 126228841.885 4  98360228.05746
                  24020575.37946
  22777177.344 6                                 119694865.424 6  93268722.41747
                  22777177.41047
  20929904.531 7  20929909.008 9  20929910.582 9 109987366.733 7  85704476.034 9
  82133452.454 9  20929908.98449
  21801154.953 7  21801158.879 9  21801161.086 9 114565799.064 7  89272108.861 9
  85552434.604 9  21801159.07848
  22657917.836 6  22657922.695 9  22657922.547 9 119068124.632 6  92780407.285 9
  88914552.404 9  22657922.18047
  21848871.094 5                                 116794660.591 5  90840375.388 8
                  21848877.797 8
  22302992.383 5                                 119431498.399 5  92891160.529 9
                  22302996.828 9
  20318638.688 7                                 108500390.648 7  84389192.967 9
                  20318642.551 9
  19585176.805 7                                 104400012.191 7  81200007.305 9
                  19585184.031 9
  22970573.008 6                                 122747804.457 6  95470486.958 8
                  22970577.609 8
  20697968.203 4                                 110720175.938 4  86115701.540 9
                  20697971.227 9
  21178858.859 6                                 113253139.207 6  88085613.550 9
                  21178863.664 9
 19  5 27  8 42 15.0000000  0 15G02G06G12G14G19G24G25G32R01R08R09R10
                                R11R19R20
  24216934.234 4                                 127260844.851 4  99164325.88046
                  24216936.39846
  23592242.984 6  23592248.035 8  23592249.773 9 123978026.611 6  96606313.479 8
  92581047.883 9  23592247.41447
  19992506.391 7  19992508.004 9                 105061329.619 7  81865974.758 9
                  19992508.12149
  24016662.188 4                                 126208286.000 4  98344210.52246
                  24016663.78546
  22778501.289 6                                 119701822.685 6  93274143.65547
                  22778501.57847
  20930385.930 7  20930390.605 9  20930391.918 9 109989897.685 7  85706448.210 9
  82135342.449 9  20930390.61349
  21797480.125 7  21797484.848 9  21797486.750 9 114546488.839 7  89257061.941 9
  85538014.638 9  21797484.50448
  22655035.188 6  22655038.359 9  22655038.031 9 119052969.507 6  92768598.122 9
  88903235.271 9  22655037.48847
  21848017.484 6                                 116790095.813 6  90836824.989 8
                  21848024.035 8
  22304725.258 5                                 119440776.787 5  92898376.995 9
                  22304728.719 9
  20319098.359 7                                 108502843.449 7  84391100.697 9
                  20319101.180 9
  19582873.336 8                                 104387734.542 8  81190458.012 9
                  19582879.691 9
  22966069.453 6                                 122723740.143 6  95451770.285 8
                  22966074.766 8
  20697527.344 4                                 110717827.009 4  86113874.598 9
                  20697531.582 9
  21174275.742 6                                 113228635.801 6  88066555.349 9
                  21174280.832 9
 19  5 27  8 42 20.0000000  0 15G02G06G12G14G19G24G25G32R01R08R09R10
                                R11R19R20
  24213195.984 5                                 127241198.503 5  99149016.99546
                  24213197.93046
  23589475.961 6  23589481.637 9  23589482.832 9 123963486.885 6  96594983.822 9
  92570190.306 9  23589480.58647
  19991014.625 7  19991015.797 9                 105053488.662 7  81859864.914 9
                  19991015.96149
  24012750.852 3                                 126187737.879 3  98328198.99646
                  24012753.52746
  22779826.938 5                                 119708789.934 5  93279572.66447
                  22779827.77047
  20930869.398 7  20930874.336 9  20930876.113 9 109992437.614 7  85708427.373 9
  82137239.143 9  20930874.16449
  21793806.953 7  21793811.359 9  21793813.078 9 114527184.971 7  89242019.967 9
  85523599.420 9  21793811.12948
  22652152.656 6  22652157.262 9  22652156.211 9 119037827.350 6  92756799.048 9
  88891927.817 9  22652155.84447
  21847167.727 6                                 116785551.209 6  90833290.278 8
                  21847173.449 8
  22306460.672 5                                 119450065.419 5  92905601.498 9
                  22306463.422 9
  20319559.672 8                                 108505303.842 8  84393014.328 9
                  20319562.281 9
  19580572.039 8                                 104375465.488 8  81180915.420 9
                  19580578.102 9
  22961565.320 6                                 122699675.469 6  95433053.333 8
                  22961569.301 8
  20697094.242 4                                 110715499.208 4  86112064.099 9
                  20697096.383 9
  21169696.305 6                                 113204145.551 6  88047507.384 9
                  21169701.906 9
 19  5 27  8 42 25.0000000  0 15G02G06G12G14G19G24G25G32R01R08R09R10
                                R11R19R20
  24209459.234 4                                 127221557.850 4  99133712.61946
                  24209459.71546
  23586711.648 6  23586717.270 9  23586718.547 9 123948960.583 6  96583664.621 9
  92559342.737 9  23586716.65647
  19989524.797 7  19989525.781 9                 105045659.558 7  81853764.322 9
                  19989525.83249
  24008843.141 3                                 126167199.132 3  98312194.77446
                  24008845.09046
  22781154.773 6                                 119715768.778 6  93285010.71147
                  22781155.28947
  20931354.531 7  20931359.266 9  20931360.363 9 109994988.437 7  85710415.022 9
  82139143.979 9  20931359.34849
  21790134.867 7  21790139.645 9  21790141.563 9 114507889.235 7  89226984.318 9
  85509190.269 9  21790139.49248
  22649273.984 6  22649278.219 9  22649278.125 9 119022699.837 6  92745011.360 9
  88880631.287 9  22649277.22747
  21846319.867 5                                 116781028.250 5  90829772.429 8
                  21846327.434 8
  22308196.516 6                                 119459366.175 6  92912835.391 9
                  22308201.551 9
  20320021.734 7                                 108507773.443 7  84394935.119 9
                  20320024.668 9
  19578271.758 8                                 104363206.703 8  81171380.805 9
                  19578278.297 9
  22957061.484 5                                 122675612.101 5  95414337.373 8
                  22957067.348 8
  20696661.594 4                                 110713194.349 4  86110271.422 9
                  20696665.484 9
  21165119.313 6                                 113179670.017 6  88028470.864 9
                  21165124.898 9
 19  5 27  8 42 30.0000000  0 15G02G06G12G14G19G24G25G32R01R08R09R10
                                R11R19R20
  24205722.297 3                                 127201922.887 3  99118412.64846
                  24205723.26646
  23583949.633 6  23583955.668 9  23583956.441 9 123934447.705 6  96572355.881 9
  92548505.194 9  23583954.89847
  19988037.102 7  19988038.355 9                 105037842.204 7  81847672.866 9
                  19988038.49249
  24004935.445 3                                 126146670.019 3  98296198.03346
                  24004938.02046
  22782485.055 5                                 119722759.286 5  93290457.86447
                  22782486.24647
  20931842.359 7  20931847.145 9  20931847.625 9 109997550.166 7  85712411.188 9
  82141056.966 9  20931846.84849
  21786464.688 7  21786469.195 9  21786470.887 9 114488601.634 7  89211955.031 9
  85494787.197 9  21786469.22748
  22646398.195 6  22646402.098 9  22646402.621 9 119007587.016 6  92733235.137 9
  88869345.751 9  22646401.31647
  21845478.766 5                                 116776526.973 5  90826271.446 8
                  21845485.543 8
  22309936.063 6                                 119468678.810 6  92920078.526 9
                  22309939.422 9
  20320485.992 7                                 108510252.298 7  84396863.107 9
                  20320489.586 9
  19575973.922 8                                 104350957.991 8  81161854.034 9
                  19575980.379 9
  22952558.672 5                                 122651550.141 5  95395622.523 8
                  22952564.563 8
  20696235.477 4                                 110710912.296 4  86108496.500 9
                  20696238.742 9
  21160545.242 6                                 113155209.331 6  88009445.899 9
                  21160550.656 9
 19  5 27  8 42 35.0000000  0 15G02G06G12G14G19G24G25G32R01R08R09R10
                                R11R19R20
  24201986.984 4                                 127182293.742 4  99103117.22946
                  24201988.23446
  23581189.656 5  23581196.441 9  23581197.324 9 123919948.323 5  96561057.684 9
  92537677.750 9  23581195.55147
  19986551.664 7  19986553.098 9                 105030036.697 7  81841590.664 9
                  19986553.23049
  24001031.063 3                                 126126150.277 3  98280208.64646
                  24001033.31646
  22783817.477 5                                 119729761.434 5  93295914.07547
                  22783819.25847
  20932331.695 7  20932336.859 9  20932337.684 9 110000122.789 7  85714415.825 9
  82142978.074 9  20932336.90249
  21782795.875 7  21782800.664 9  21782802.215 9 114469322.190 7  89196932.100 9
  85480390.210 9  21782800.43848
  22643525.047 6  22643528.848 9  22643528.824 9 118992488.915 6  92721470.395 9
  88858071.186 9  22643528.16448
  21844641.945 5                                 116772047.540 5  90822787.415 8
                  21844647.477 8
  22311678.477 6                                 119478003.493 6  92927331.059 9
                  22311681.590 9
  20320952.164 8                                 108512740.512 8  84398798.383 9
                  20320954.695 9
  19573678.195 8                                 104338719.460 8  81152335.180 9
                  19573684.820 9
  22948056.328 6                                 122627489.607 6  95376908.803 8
                  22948061.234 8
  20695814.594 4                                 110708653.309 4  86106739.489 9
                  20695816.578 9
  21155973.445 6                                 113130763.629 6  87990432.581 9
                  21155979.332 9
 19  5 27  8 42 40.0000000  0 15G02G06G12G14G19G24G25G32R01R08R09R10
                                R11R19R20
  24198252.258 3                                 127162669.557 3  99087825.64746
                  24198253.73846
  23578434.219 5  23578440.199 9  23578441.508 9 123905461.633 5  96549769.347 9
  92526859.787 9  23578440.14547
  19985068.555 8  19985069.895 9                 105022242.193 8  81835517.021 9
                  19985070.00849
  23997128.328 4                                 126105639.244 4  98264226.00346
                  23997130.06346
  22785152.320 6                                 119736774.360 6  93301378.67947
                  22785153.19547
  20932823.383 7  20932828.254 9  20932828.820 9 110002705.373 7  85716428.211 9
  82144906.626 9  20932828.51249
  21779128.719 7  21779132.984 9  21779135.102 9 114450050.088 7  89181914.878 9
  85465998.718 9  21779132.80148
  22640654.953 6  22640659.160 9  22640659.438 9 118977404.731 6  92709716.456 9
  88846807.008 9  22640658.48047
  21843804.727 5                                 116767588.948 5  90819319.615 8
                  21843813.602 8
  22313421.992 6                                 119487339.241 6  92934592.207 9
                  22313425.051 9
  20321418.852 7                                 108515237.263 7  84400740.289 9
                  20321421.543 9
  19571384.195 8                                 104326490.473 8  81142823.736 9
                  19571390.984 9
  22943553.484 6                                 122603429.756 6  95358195.584 8
                  22943559.074 8
  20695394.922 4                                 110706416.236 4  86104999.558 9
                  20695398.742 9
  21151404.523 6                                 113106331.965 6  87971430.174 9
                  21151410.203 9
 19  5 27  8 42 45.0000000  0 15G02G06G12G14G19G24G25G32R01R08R09R10
                                R11R19R20
  24194518.508 3                                 127143050.200 3  99072537.84846
                  24194519.98446
  23575679.711 5  23575685.227 9  23575687.293 9 123890987.564 5  96538490.849 9
  92516051.231 9  23575685.34047
  19983587.203 7  19983588.578 9                 105014458.583 7  81829451.880 9
                  19983588.52749
  23993227.156 4                                 126085136.792 4  98248250.08046
                  23993228.73046
  22786488.578 6                                 119743798.016 6  93306851.65647
                  22786489.48847
  20933316.453 7  20933321.344 9  20933321.813 9 110005297.941 7  85718448.368 9
  82146842.622 9  20933321.50449
  21775462.148 7  21775466.980 9  21775469.133 9 114430785.243 7  89166903.334 9
  85451612.627 9  21775466.94948
  22637787.492 6  22637791.527 9  22637791.508 9 118962334.342 6  92697973.313 9
  88835553.155 9  22637791.43447
  21842976.719 5                                 116763151.288 5  90815868.100 8
                  21842983.328 8
  22315166.875 6                                 119496686.100 6  92941861.989 9
                  22315169.988 9
  20321887.742 7                                 108517742.372 7  84402688.714 9
                  20321891.645 9
  19569092.000 8                                 104314271.063 8  81133319.743 9
                  19569098.875 9
  22939051.953 6                                 122579370.355 6  95339482.729 8
                  22939057.238 8
  20694981.313 4                                 110704201.185 4  86103276.720 9
                  20694984.336 9
  21146839.016 6                                 113081914.337 6  87952438.689 9
                  21146844.652 9
 19  5 27  8 42 50.0000000  0 15G02G06G12G14G19G24G25G32R01R08R09R10
                                R11R19R20
  24190786.477 4                                 127123435.079 4  99057253.36346
                  24190787.43046
  23572928.156 6  23572933.516 9  23572934.801 9 123876525.409 6  96527221.630 9
  92505251.563 9  23572933.20347
  19982107.750 7  19982109.207 9                 105006685.194 7  81823394.682 9
                  19982109.24649
  23989326.891 4                                 126064642.157 4  98232280.26946
                  23989329.39546
  22787827.523 5                                 119750831.671 5  93312332.41447
                  22787828.27747
  20933811.875 7  20933816.590 9  20933817.543 9 110007899.882 7  85720475.848 9
  82148785.620 9  20933816.29749
  21771797.531 7  21771802.078 9  21771803.863 9 114411526.908 7  89151896.832 9
  85437231.410 9  21771801.56348
  22634921.977 6  22634926.250 9  22634926.688 9 118947277.058 6  92686240.335 9
  88824309.069 9  22634926.26248
  21842149.852 5                                 116758733.675 5  90812432.147 8
                  21842156.961 8
  22316913.711 6                                 119506043.144 6  92949139.697 9
                  22316917.258 9
  20322358.469 7                                 108520255.143 7  84404643.055 9
                  20322362.051 9
  19566800.719 8                                 104302060.284 8  81123822.479 9
                  19566807.785 9
  22934550.094 6                                 122555310.744 6  95320769.661 8
                  22934554.418 8
  20694571.391 3                                 110702007.480 3  86101570.529 9
                  20694574.289 9
  21142275.383 6                                 113057510.097 6  87933457.616 9
                  21142280.887 9
 19  5 27  8 42 55.0000000  0 15G02G06G12G14G19G24G25G32R01R08R09R10
                                R11R19R20
  24187055.320 4                                 127103825.801 4  99041973.43746
                  24187055.83646
  23570177.836 5  23570183.969 9  23570186.754 9 123862076.815 5  96515962.995 9
  92494462.047 9  23570183.86747
  19980631.102 7  19980632.469 9                 104998923.699 7  81817346.760 9
                  19980632.76249
  23985430.266 4                                 126044157.094 4  98216317.86646
                  23985431.26646
  22789168.391 6                                 119757876.992 6  93317822.27047
                  22789168.70747
  20934308.953 7  20934313.875 9  20934315.043 9 110010512.678 7  85722511.792 9
  82150736.731 9  20934313.67649
  21768134.867 7  21768139.059 9  21768140.512 9 114392276.842 7  89136896.789 9
  85422856.380 9  21768138.32848
  22632058.883 6  22632063.078 9  22632063.703 9 118932234.580 6  92674518.931 9
  88813076.050 9  22632063.57048
  21841327.625 5                                 116754337.907 5  90809013.237 8
                  21841334.477 8
  22318663.563 6                                 119515412.230 6  92956426.754 9
                  22318666.773 9
  20322831.633 7                                 108522777.323 7  84406604.765 9
                  20322834.434 9
  19564512.609 8                                 104289859.896 8  81114333.286 9
                  19564519.656 9
  22930047.922 6                                 122531252.645 6  95302057.833 8
                  22930052.500 8
  20694164.727 4                                 110699836.687 4  86099882.146 9
                  20694169.012 9
  21137714.492 6                                 113033120.854 6  87914488.211 9
                  21137719.578 9
 19  5 27  8 43  0.0000000  0 15G02G06G12G14G19G24G25G32R01R08R09R10
                                R11R19R20
  24183324.727 4                                 127084223.203 4  99026698.68646
                  24183325.67246
  23567431.633 6  23567437.301 9  23567439.555 9 123847642.611 6  96504715.585 9
  92483683.259 9  23567436.96147
  19979156.906 7  19979158.102 9                 104991174.845 7  81811308.686 9
                  19979158.03149
  23981534.055 4                                 126023682.389 4  98200363.56846
                  23981535.08246
  22790511.570 6                                 119764934.759 6  93323321.83347
                  22790511.96147
  20934808.469 7  20934813.512 9  20934814.703 9 110013137.127 7  85724556.818 9
  82152696.539 9  20934813.04749
  21764473.578 7  21764477.629 9  21764479.512 9 114373035.756 7  89121903.729 9
  85408488.035 9  21764477.15248
  22629199.953 6  22629203.605 9  22629204.090 9 118917207.694 6  92662809.666 9
  88801854.688 9  22629204.25047
  21840509.133 6                                 116749964.723 6  90805611.858 8
                  21840516.273 8
  22320416.180 6                                 119524794.104 6  92963723.762 9
                  22320419.117 9
  20323305.555 7                                 108525309.659 7  84408574.351 9
                  20323309.223 9
  19562225.750 8                                 104277670.595 8  81104852.719 9
                  19562232.422 9
  22925546.352 6                                 122507196.821 6  95283347.757 8
                  22925550.531 8
  20693765.258 4                                 110697689.667 4  86098212.209 9
                  20693768.000 9
  21133155.680 6                                 113008747.452 6  87895531.136 9
                  21133161.945 9
 19  5 27  8 43  5.0000000  0 15G02G06G12G14G19G24G25G32R01R08R09R10
                                R11R19R20
  24179595.219 4                                 127064623.833 4  99011426.44346
                  24179596.46946
  23564687.633 6  23564692.469 9  23564694.563 9 123833219.359 6  96493476.693 9
  92472912.659 9  23564691.90647
  19977684.148 8  19977685.074 9                 104983435.229 8  81805277.817 9
                  19977685.32449
  23977638.156 4                                 126003214.620 4  98184414.65646
                  23977639.94146
  22791855.773 5                                 119772001.464 5  93328828.33847
                  22791856.32047
  20935309.578 7  20935314.020 9  20935315.344 9 110015769.779 7  85726608.245 9
  82154662.478 9  20935313.51249
  21760812.531 7  21760816.504 9  21760818.699 9 114353800.279 7  89106915.063 9
  85394123.887 9  21760816.10548
  22626342.609 6  22626346.391 9  22626346.930 9 118902192.965 6  92651109.886 9
  88790642.393 9  22626346.96948
  21839694.961 5                                 116745610.586 5  90802225.302 8
                  21839701.723 8
  22322170.273 6                                 119534185.235 6  92971027.949 9
                  22322173.082 9
  20323781.531 7                                 108527848.677 7  84410549.157 9
                  20323783.996 9
  19559940.125 8                                 104265489.005 8  81095378.154 9
                  19559947.289 9
  22921043.125 6                                 122483139.790 6  95264636.726 8
                  22921048.117 8
  20693367.742 4                                 110695562.847 4  86096558.031 9
                  20693370.664 9
  21128599.977 6                                 112984386.441 6  87876583.711 9
                  21128607.348 9
 19  5 27  8 43 10.0000000  0 15G02G06G12G14G19G24G25G32R01R08R09R10
                                R11R19R20
  24175866.484 3                                 127045031.414 3  98996159.69546
                  24175867.93446
  23561945.266 6  23561950.277 9  23561953.051 9 123818810.838 6  96482249.266 9
  92462153.030 9  23561950.10547
  19976213.352 7  19976214.527 9                 104975708.654 7  81799257.111 9
                  19976214.67649
  23973744.945 4                                 125982757.595 4  98168474.08646
                  23973746.77746
  22793203.164 5                                 119779080.881 5  93334344.77047
                  22793203.84447
  20935812.875 7  20935817.207 9  20935818.824 9 110018414.396 7  85728668.985 9
  82156637.356 9  20935816.87549
  21757154.172 7  21757158.160 9  21757160.488 9 114334574.145 7  89091933.631 9
  85379766.709 9  21757157.54348
  22623488.859 7  22623492.730 9  22623492.695 9 118887194.184 7  92639422.513 9
  88779442.010 9  22623493.03148
  21838885.148 6                                 116741279.354 6  90798856.562 8
                  21838891.293 8
  22323925.297 5                                 119543589.371 5  92978342.276 9
                  22323928.895 9
  20324259.156 7                                 108530398.164 7  84412532.095 9
                  20324261.277 9
  19557656.891 8                                 104253318.982 8  81085912.577 9
                  19557664.477 9
  22916542.508 6                                 122459085.402 6  95245927.776 8
                  22916546.285 8
  20692973.547 4                                 110693460.047 4  86094922.532 9
                  20692976.973 9
  21124048.086 6                                 112960041.755 6  87857648.950 9
                  21124054.207 9
 19  5 27  8 43 15.0000000  0 15G02G06G12G14G19G24G25G32R01R08R09R10
                                R11R19R20
  24172139.656 4                                 127025445.197 4  98980897.68946
                  24172141.02746
  23559205.906 6  23559211.262 9  23559213.797 9 123804416.223 6  96471032.675 9
  92451403.822 9  23559211.14147
  19974745.266 7  19974746.934 9                 104967994.187 7  81793245.832 9
                  19974746.85949
  23969853.813 4                                 125962310.330 4  98152541.18346
                  23969855.98446
  22794552.078 5                                 119786172.146 5  93339870.42047
                  22794552.80947
  20936318.281 7  20936322.660 9  20936324.379 9 110021070.168 7  85730738.412 9
  82158620.559 9  20936322.48449
  21753497.609 7  21753501.063 9  21753503.160 9 114315356.475 7  89076958.838 9
  85365415.865 9  21753500.62548
  22620637.234 7  22620640.820 9  22620640.973 9 118872210.469 7  92627746.882 9
  88768252.862 9  22620641.36748
  21838078.695 6                                 116736970.207 6  90795504.982 8
                  21838085.191 8
  22325685.203 5                                 119553005.687 5  92985666.063 9
                  22325687.754 9
  20324737.914 7                                 108532957.194 7  84414522.444 9
                  20324740.582 9
  19555376.141 8                                 104241159.605 8  81076455.287 8
                  19555383.266 8
  22912042.344 6                                 122435032.744 6  95227220.152 8
                  22912045.402 8
  20692585.602 4                                 110691380.493 4  86093305.093 9
                  20692588.230 9
  21119496.477 6                                 112935712.438 6  87838726.171 9
                  21119504.262 9
 19  5 27  8 43 20.0000000  0 15G02G06G12G14G19G24G25G32R01R08R09R10
                                R11R19R20
  24168412.820 4                                 127005864.519 4  98965640.04146
                  24168414.80146
  23556469.039 6  23556474.824 9  23556476.867 9 123790034.728 6  96459826.310 9
  92440664.373 9  23556474.21147
  19973279.453 7  19973280.723 9                 104960291.079 7  81787243.424 9
                  19973280.85549
  23965965.508 4                                 125941872.264 4  98136615.40846
                  23965966.42646
  22795903.234 5                                 119793274.479 5  93345404.69347
                  22795904.30947
  20936825.328 7  20936829.621 9  20936831.508 9 110023736.444 7  85732816.028 9
  82160611.606 9  20936829.73049
  21749841.492 7  21749846.055 9  21749847.980 9 114296146.586 7  89061990.099 9
  85351070.820 9  21749846.03148
  22617788.891 7  22617792.777 9  22617792.523 9 118857241.094 7  92616082.450 9
  88757074.432 9  22617792.73848
  21837277.391 6                                 116732682.333 6  90792169.975 8
                  21837282.832 8
  22327445.258 6                                 119562433.322 6  92992998.649 9
                  22327449.004 9
  20325218.680 7                                 108535525.195 7  84416519.761 9
                  20325222.164 9
  19553096.781 7                                 104229010.159 7  81067005.708 9
                  19553104.188 9
  22907540.273 6                                 122410981.158 6  95208513.390 8
                  22907544.254 8
  20692200.461 4                                 110689323.335 4  86091705.073 9
                  20692203.367 9
  21114950.977 6                                 112911397.681 6  87819814.688 9
                  21114956.852 9
