     3.03           OBSERVATION DATA    M: Mixed            RINEX VERSION / TYPE
Geo++ RINEX Logger  Geo++               20180704 140906 UTC PGM / RUN BY / DATE
************************************************************COMMENT
This file was generated by the Geo++ RINEX Logger App       COMMENT
for Android devices (Version 1.2.4). If you encounter       COMMENT
any issues, please send an email to android@geopp.de        COMMENT
Note: Tracking signals and phase shifts by best knowledge   COMMENT
************************************************************COMMENT
Geo++                                                       MARKER NAME
GEODETIC                                                    MARKER TYPE
RINEX Logger user   Geo++                                   OBSERVER / AGENCY
21f9f770130b7ece    samsung             SM-G965F            REC # / TYPE / VERS
21f9f770130b7ece    SM-G965F                                ANT # / TYPE
  4146276.7063   611656.7169  4791930.4543                  APPROX POSITION XYZ
        0.0000        0.0000        0.0000                  ANTENNA: DELTA H/E/N
G    4 C1C L1C D1C S1C                                      SYS / # / OBS TYPES
R    4 C1C L1C D1C S1C                                      SYS / # / OBS TYPES
E    4 C1B L1B D1B S1B                                      SYS / # / OBS TYPES
C    4 C2I L2I D2I S2I                                      SYS / # / OBS TYPES
J    4 C1C L1C D1C S1C                                      SYS / # / OBS TYPES
  2018     7     4    14     9   24.0002898     GPS         TIME OF FIRST OBS
G                                                           SYS / PHASE SHIFTS
R                                                           SYS / PHASE SHIFTS
E                                                           SYS / PHASE SHIFTS
C                                                           SYS / PHASE SHIFTS
J                                                           SYS / PHASE SHIFTS
                                                            END OF HEADER
> 2018  7  4 14  9 24.0002898  0 18
G07  24432886.864       51587.0421       -686.551          15.374  
G08  22514157.873     -171904.4691       2205.479          18.849  
G10  21356888.234     -121020.7400       1431.490          28.850  
G13  25307351.785       82101.3060      -1010.404          23.936  
G15  24436390.239       18283.2821       -243.195          26.877  
G16  21308797.327      243249.1580      -2942.309          23.418  
G20  20842168.267       50620.6971       -633.720          28.186  
G21  22786454.566      240212.9990      -2890.135          29.234  
G26  23098381.423      341082.3640      -4102.551          28.044  
G27  20268163.143      -32971.3861        381.680          18.122  
R15  21906396.417      -93885.5961       1111.684          20.521  
R01  22774163.675     -304498.4651       3713.241          23.191  
R23  19642004.923      130165.2070      -1580.984          27.287  
R07  21889375.701      198859.5090      -2424.494          32.543  
R08  20893750.258     -117224.4701       1377.713          27.356  
C06  39626208.846         942.6051        -18.721          22.353  
C09  39325075.117      -63132.6751        796.247          18.785  
C14  26946169.955     1453957.0871      -3394.991          19.740  
> 2018  7  4 14  9 25.0002895  0 19
G07  24432906.950       52273.2461       -687.222          14.753  
G08  22513626.940     -174110.3961       2203.670          20.220  
G10  21356503.300     -122452.2890       1431.383          28.928  
G13  25307431.530       83111.2910      -1010.397          23.547  
G15  24436320.987       18527.4711       -244.062          25.743  
G16  21309243.718      246191.1550      -2942.420          23.646  
G18  24750567.639     -245136.1281       3100.129           9.340  
G20  20842178.160       51254.4460       -634.181          29.784  
G21  22786893.762      243103.6250      -2890.622          29.652  
G26  23099052.659      345184.5030      -4102.813          26.867  
G27  20267979.370      -33349.1661        381.109          14.953  
R15  21906078.637      -95001.5531       1109.462          20.751  
R01  22773348.239     -308213.8280       3715.047          24.355  
R23  19642180.901      131746.0200      -1581.385          29.180  
R07  21889705.772      201284.5630      -2425.633          32.687  
R08  20893370.121     -118602.1670       1377.325          28.945  
C06  39626097.923         962.4401        -23.250          21.316  
C09  39324811.000      -63927.8811        795.151          18.235  
C14  26946711.380     1457353.7631      -3395.731          18.883  
> 2018  7  4 14  9 26.0002891  0 19
G07  24432925.538       52961.6571       -687.069          17.783  
G08  22513099.306     -176320.6771       2202.630          21.075  
G10  21356122.264     -123883.1860       1430.575          29.349  
G13  25307510.375       84122.0410      -1011.101          23.710  
G15  24436261.928       18772.2021       -244.958          25.805  
G16  21309696.104      249134.3131      -2937.756          21.468  
G18  24749871.520     -248208.7251       3103.881           9.890  
G20  20842185.355       51888.8670       -634.443          30.662  
G21  22787332.658      245994.2560      -2890.367          29.976  
G26  23099718.498      349286.9300      -4102.805          27.328  
G27  20267796.197      -33731.6931        380.862          10.883  
R15  21905803.128      -96104.1131       1102.493          23.323  
R01  22772531.005     -311928.8611       3716.147          22.317  
R23  19642360.777      133327.3360      -1581.548          29.085  
R07  21890050.234      203710.3740      -2426.403          32.607  
R08  20893002.275     -119978.9410       1376.543          29.491  
C06  39625989.099         982.1411        -18.694          21.882  
C09  39324548.681      -64722.8121        794.444          18.899  
C14  26947253.105     1460750.6311      -3396.556          18.341  
> 2018  7  4 14  9 27.0002887  0 18
G07  24432945.924       53655.1261       -687.751          17.347  
G08  22512565.675     -178525.4241       2198.973          21.976  
G10  21355739.429     -125313.5690       1429.796          30.005  
G13  25307595.216       85133.2930      -1011.480          24.930  
G15  24436193.575       19017.4930       -245.517          25.992  
G16  21310144.894      252075.3061      -2942.903          20.287  
G18  24749166.708     -251312.4751       3103.415          10.228  
G20  20842197.047       52524.0490       -635.698          30.174  
G21  22787773.053      248885.0290      -2890.655          29.852  
G26  23100388.834      353389.5790      -4103.304          26.647  
R15  21905493.742      -97198.3041       1100.444          23.964  
R01  22771760.838     -315644.8411       3714.750          21.834  
R23  19642546.348      134909.0100      -1581.890          29.534  
R07  21890401.590      206136.9150      -2426.875          32.097  
R08  20892639.826     -121354.8850       1375.589          29.862  
C06  39625885.670        1001.9901        -17.442          22.472  
C09  39324285.763      -65517.6871        794.705          19.492  
C14  26947795.130     1464147.2911      -3395.852          17.990  
> 2018  7  4 14  9 28.0002884  0 18
G07  24432967.808       54347.6211       -686.509          16.321  
G08  22512052.730     -180723.0461       2195.055          21.003  
G10  21355352.097     -126743.5690       1429.516          29.901  
G13  25307673.162       86145.0870      -1011.738          25.924  
G15  24436133.017       19263.3150       -245.725          25.462  
G16  21310585.589      255023.1661      -2943.098          19.630  
G18  24748465.494     -254415.1501       3104.032          10.407  
G20  20842208.739       53159.6870       -636.118          30.669  
G21  22788212.249      251775.8440      -2890.961          29.821  
G26  23101060.069      357492.3270      -4103.302          27.905  
R15  21905161.272      -98296.8451       1104.433          22.635  
R01  22770949.899     -319365.3601       3720.192          19.636  
R23  19642743.612      136491.0260      -1582.087          29.573  
R07  21890751.148      208564.1730      -2427.770          32.306  
R08  20892278.577     -122730.0920       1374.333          29.308  
C06  39625780.443        1020.4201        -22.174          22.399  
C09  39324022.845      -66312.4391        795.055          17.885  
C14  26948335.655     1467544.3961      -3394.625          19.575  
> 2018  7  4 14  9 29.0002880  0 18
G07  24432989.094       55035.8531       -688.166          17.360  
G08  22511522.098     -182920.1161       2197.143          19.871  
G10  21354972.560     -128172.9010       1428.908          29.432  
G13  25307758.004       87157.6720      -1012.996          26.314  
G15  24436063.465       19509.8551       -243.190          22.867  
G16  21311038.875      257966.9981      -2946.968          18.219  
G18  24747819.441     -257518.2941       3102.630          10.560  
G20  20842221.630       53796.1490       -637.107          31.647  
G21  22788653.843      254666.9110      -2891.125          28.914  
G26  23101728.906      361595.4330      -4103.339          28.039  
R15  21904861.480      -99394.0801       1104.887          21.780  
R01  22770137.162     -323083.8781       3719.005          18.237  
R23  19642924.686      138073.5340      -1582.590          29.353  
R07  21891105.803      210992.3880      -2428.644          33.145  
R08  20891905.035     -124104.5030       1374.099          27.772  
C06  39625673.717        1042.0001        -26.184          20.377  
C09  39323759.328      -67106.9001        795.048          16.813  
C14  26948875.881     1470941.9031      -3396.145          20.541  
> 2018  7  4 14  9 30.0002876  0 18
G07  24433010.679       55724.6931       -690.025          19.576  
G08  22510989.366     -185113.7281       2199.350          16.967  
G10  21354593.023     -129601.8010       1429.154          29.967  
G13  25307841.646       88170.7520      -1013.278          27.082  
G15  24435999.909       19756.5201       -246.835          21.783  
G16  21311493.960      260911.5731      -2945.271          22.085  
G18  24747133.816     -260622.4371       3104.545          11.583  
G20  20842230.924       54433.2060       -637.661          32.062  
G21  22789092.739      257558.0840      -2891.300          28.160  
G26  23102398.642      365698.7530      -4103.288          28.114  
R15  21904570.981     -100497.0781       1098.145          19.921  
R01  22769334.018     -326800.4581       3716.865          21.194  
R23  19643107.560      139656.4490      -1583.352          29.783  
R07  21891422.983      213421.3320      -2429.471          32.173  
R08  20891531.793     -125478.1910       1373.592          27.105  
C06  39625566.991        1068.2541        -25.689          18.904  
C09  39323494.611      -67900.6571        795.701          18.960  
C14  26949417.007     1474339.4761      -3396.964          20.683  
> 2018  7  4 14  9 31.0002872  0 18
G07  24433033.763       56413.8701       -690.010          21.457  
G08  22510462.331     -187305.3421       2198.839          12.455  
G10  21354209.289     -131030.1180       1428.273          29.242  
G13  25307923.489       89184.3670      -1013.646          26.613  
G15  24435946.846       20004.2181       -249.049          22.558  
G16  21311941.850      263856.6091      -2945.352          24.494  
G18  24746442.794     -263725.2691       3103.476          12.029  
G20  20842240.217       55070.8110       -638.062          31.717  
G21  22789530.436      260449.2920      -2891.584          27.901  
G26  23103071.676      369802.2130      -4103.601          28.562  
R15  21904198.639     -101593.4391       1100.967          19.607  
R01  22768510.488     -330509.8421       3714.638          21.753  
R23  19643294.630      141239.5450      -1583.273          30.048  
R07  21891773.141      215850.9600      -2429.766          32.560  
R08  20891174.141     -126851.0240       1372.382          27.458  
C06  39625462.963        1100.9911        -23.892          19.317  
C09  39323232.293      -68695.1231        795.149          19.255  
C14  26949957.832     1477737.3371      -3397.669          21.356  
> 2018  7  4 14  9 32.0002869  0 18
G07  24433054.448       57103.7621       -687.637          21.251  
G08  22509930.499     -189504.0451       2197.910          13.583  
G10  21353824.655     -132458.0430       1427.549          28.852  
G13  25308008.031       90198.5250      -1014.178          26.949  
G15  24435873.097       20252.2210       -248.244          23.228  
G16  21312393.637      266801.9911      -2946.102          24.757  
G18  24745765.563     -266829.6221       3102.993          12.097  
G20  20842250.710       55708.9720       -638.416          31.490  
G21  22789968.433      263340.4700      -2890.858          28.034  
G26  23103742.312      373905.7870      -4103.794          29.180  
R15  21903882.358     -102698.0721       1101.489          18.915  
R01  22767705.246     -334216.1951       3710.083          22.881  
R23  19643474.805      142823.0120      -1583.910          30.172  
R07  21892109.508      218281.3340      -2430.803          32.434  
R08  20890812.292     -128223.2640       1371.720          27.557  
C06  39625357.136        1127.1681        -23.455          19.122  
C09  39322969.075      -69489.4271        795.244          19.372  
C14  26950498.958     1481135.3191      -3398.122          21.138  
> 2018  7  4 14  9 33.0002865  0 18
G07  24433079.931       57794.1941       -685.797          21.164  
G08  22509374.684     -191699.7801       2194.911          13.711  
G10  21353440.321     -133885.3420       1426.884          29.076  
G13  25308085.077       91213.4020      -1015.422          26.098  
G15  24435812.539       20501.1720       -249.807          23.204  
G16  21312852.020      269747.9070      -2946.247          25.017  
G18  24745048.759     -269931.8091       3103.187          12.868  
G20  20842262.102       56347.8980       -639.428          31.299  
G21  22790406.730      266232.0030      -2891.725          28.075  
G26  23104415.046      378009.6230      -4104.159          29.420  
R15  21903567.276     -103805.6101       1100.903          19.315  
R01  22766915.293     -337927.2091       3714.848          23.818  
R23  19643655.880      144406.9300      -1584.405          30.052  
R07  21892456.368      220712.6030      -2431.817          32.357  
R08  20890444.146     -129594.6860       1371.164          27.773  
C06  39625250.710        1148.0091        -22.125          18.668  
C09  39322704.958      -70283.4221        795.379          19.307  
C14  26951039.783     1484533.5131      -3398.050          21.468  
> 2018  7  4 14  9 34.0002861  0 18
G07  24433095.520       58485.8331       -693.204          21.512  
G08  22508844.052     -193873.3241       2196.689          13.866  
G10  21353058.085     -135311.8700       1426.064          28.703  
G13  25308166.021       92229.1180      -1016.245          26.256  
G15  24435757.677       20750.8500       -250.406          24.184  
G16  21313298.111      272694.6950      -2947.026          24.191  
G18  24744346.645     -273037.1151       3102.851          13.213  
G20  20842274.094       56987.7300       -640.073          31.393  
G21  22790850.722      269123.9020      -2892.106          28.338  
G26  23105082.085      382113.9460      -4104.144          29.390  
R15  21903247.397     -104910.1491       1098.774          18.885  
R01  22766118.444     -341640.5591       3713.987          23.775  
R23  19643855.842      145991.5370      -1585.054          30.170  
R07  21892789.437      223144.9270      -2432.924          32.182  
R08  20890078.100     -130964.9080       1369.613          27.535  
C06  39625143.984        1169.4761        -20.901          19.181  
C09  39322441.740      -71076.9901        796.010          18.968  
C14  26951580.309     1487932.3201      -3399.144          21.566  
> 2018  7  4 14  9 35.0002858  0 18
G07  24433114.107       59177.5831       -694.062          21.002  
G08  22508326.910     -196069.3891       2197.346          13.884  
G10  21352679.747     -136737.9010       1425.809          28.652  
G13  25308247.265       93245.3360      -1016.438          26.398  
G15  24435696.819       21001.1190       -250.481          24.172  
G16  21313741.504      275641.8340      -2947.042          24.972  
G18  24743639.435     -276139.6531       3102.352          13.098  
G20  20842284.886       57628.2050       -640.790          31.150  
G21  22791290.218      272015.8480      -2892.116          28.139  
G26  23105754.219      386218.5370      -4104.545          29.516  
R15  21902933.515     -106011.5321       1099.002          17.651  
R01  22765306.906     -345353.7161       3711.991          23.674  
R23  19644035.117      147576.4650      -1585.212          30.299  
R07  21893146.490      225577.9710      -2433.323          32.277  
R08  20889694.066     -132334.5430       1369.400          27.959  
C06  39625037.557        1190.7101        -21.670          17.739  
C09  39322179.721      -71870.5001        795.418          18.564  
C14  26952117.837     1491331.2601      -3397.247          21.508  
> 2018  7  4 14  9 36.0002854  0 18
G07  24433133.893       59870.5221       -694.395          20.418  
G08  22507807.369     -198268.0011       2197.155          13.984  
G10  21352297.812     -138163.2910       1425.087          28.768  
G13  25308333.006       94262.3190      -1016.938          26.695  
G15  24435625.768       21252.0770       -250.809          23.506  
G16  21314195.390      278589.7300      -2947.922          23.851  
G18  24742930.126     -279246.2121       3102.946          13.272  
G20  20842294.480       58269.4340       -641.660          30.911  
G21  22791732.712      274908.0530      -2892.384          28.165  
G26  23106425.455      390323.3960      -4105.178          29.319  
R15  21902615.435     -107111.4611       1097.011          17.552  
R01  22764496.567     -349066.6821       3713.838          23.905  
R23  19644217.991      149161.9300      -1585.725          30.578  
R07  21893495.748      228011.9720      -2434.201          32.261  
R08  20889348.705     -133703.1700       1368.409          27.852  
C06  39624930.531        1212.4981        -21.725          18.848  
C09  39321916.504      -72663.8201        795.018          19.758  
C14  26952659.262     1494730.5991      -3400.917          21.001  
> 2018  7  4 14  9 37.0002850  0 18
G07  24433168.070       60564.3601       -694.951          21.076  
G08  22507291.426     -200467.2261       2197.234          14.004  
G10  21351914.077     -139588.0930       1424.241          29.124  
G13  25308417.847       95279.9710      -1018.407          26.414  
G15  24435555.317       21503.7320       -252.166          23.472  
G16  21314647.477      281538.1080      -2948.757          23.961  
G18  24742225.913     -282348.0191       3104.012          13.861  
G20  20842307.671       58911.2940       -642.346          31.218  
G21  22792169.210      277800.4310      -2892.573          28.058  
G26  23107093.392      394428.4850      -4105.403          29.132  
R15  21902303.651     -108207.2171       1096.045          17.407  
R01  22763681.131     -352779.2161       3710.414          23.825  
R23  19644405.961      150747.7750      -1586.033          30.903  
R07  21893828.818      230446.8060      -2435.660          32.385  
R08  20888970.067     -135070.9520       1367.163          27.749  
C06  39624822.306        1234.2371        -21.059          19.130  
C09  39321652.087      -73457.6611        795.145          19.338  
C14  26953199.188     1498130.1591      -3403.053          20.856  
> 2018  7  4 14  9 38.0002847  0 18
G07  24433169.868       61258.0051       -693.111          19.701  
G08  22506763.792     -202662.9571       2197.428          14.682  
G10  21351531.542     -141012.4650       1423.944          28.790  
G13  25308502.089       96298.0190      -1018.041          26.874  
G15  24435494.759       21755.9450       -252.937          23.842  
G16  21315099.863      284486.8450      -2949.066          23.589  
G18  24741519.602     -285450.5271       3104.979          13.776  
G20  20842319.662       59553.7110       -642.775          31.186  
G21  22792607.506      280692.8160      -2892.459          28.289  
G26  23107764.927      398533.6960      -4105.024          29.166  
R15  21901982.273     -109297.0801       1095.196          18.043  
R01  22762872.591     -356491.7711       3709.754          23.343  
R23  19644588.235      152334.0120      -1586.477          30.443  
R07  21894180.474      232882.2610      -2435.722          32.609  
R08  20888599.523     -136438.0280       1366.502          27.896  
C06  39624715.580        1255.6741        -20.294          18.429  
C09  39321389.768      -74257.4501        794.903          19.312  
C14  26953742.712     1501529.8221      -3403.394          21.301  
> 2018  7  4 14  9 39.0002843  0 18
G07  24433197.150       61952.4161       -694.510          20.044  
G08  22506235.857     -204857.1521       2196.655          15.280  
G10  21351151.106     -142436.2730       1423.442          28.866  
G13  25308589.328       97316.8790      -1019.336          26.578  
G15  24435434.501       22008.7720       -253.688          24.167  
G16  21315549.852      287436.1790      -2949.799          24.007  
G18  24740822.285     -288552.8411       3101.904          13.842  
G20  20842331.654       60196.8950       -643.723          31.032  
G21  22793051.799      283585.4880      -2892.962          28.411  
G26  23108433.165      402639.2710      -4105.561          28.953  
R15  21901662.095     -110390.3191       1095.184          16.752  
R01  22762068.848     -360204.0130       3712.137          24.119  
R23  19644775.305      153920.6270      -1587.042          30.408  
R07  21894522.238      235318.6370      -2436.714          32.537  
R08  20888251.165     -137804.3110       1365.772          27.878  
C06  39624607.055        1270.7011        -19.324          18.013  
C09  39321128.349      -75057.8421        794.719          19.721  
C14  26954289.534     1504929.5111      -3399.574          20.764  
> 2018  7  4 14  9 40.0002839  0 18
G07  24433214.538       62647.5471       -694.673          21.395  
G08  22505703.726     -207055.6311       2195.838          15.753  
G10  21350768.271     -143859.3380       1422.571          28.973  
G13  25308671.771       98336.4070      -1019.886          26.731  
G15  24435373.643       22262.2950       -254.013          24.748  
G16  21315998.641      290386.1690      -2949.940          23.757  
G18  24740124.968     -291656.9011       3102.166          13.771  
G20  20842340.948       60840.8820       -644.504          31.074  
G21  22793492.194      286478.3580      -2892.965          28.439  
G26  23109108.297      406745.1220      -4105.902          29.107  
R15  21901335.921     -111484.3491       1094.204          15.313  
R01  22761265.104     -363915.9571       3715.294          23.647  
R23  19644957.579      155507.7830      -1587.344          30.467  
R07  21894862.802      237755.9640      -2437.889          32.610  
R08  20887879.422     -139169.5540       1364.589          27.899  
C06  39624501.528        1292.0281        -19.613          19.149  
C09  39320863.932      -75859.5031        793.593          19.143  
C14  26954832.158     1508322.1301      -3397.777          20.613  
> 2018  7  4 14  9 41.0002835  0 18
G07  24433227.429       63344.8901       -693.623          21.642  
G08  22505176.391     -209249.3181       2194.815          15.858  
G10  21350381.838     -145281.9100       1422.686          28.766  
G13  25308753.914       99356.6040      -1020.278          26.547  
G15  24435310.986       22516.6170       -255.045          25.127  
G16  21316445.332      293336.7170      -2950.591          23.991  
G18  24739419.856     -294758.5661       3104.317          13.829  
G20  20842356.837       61485.5460       -645.013          30.909  
G21  22793929.291      289371.4710      -2893.156          28.285  
G26  23109777.734      410851.3400      -4106.413          29.208  
R15  21901018.740     -112579.9881       1094.965          16.477  
R01  22760462.260     -367627.6751       3713.019          23.100  
R23  19645144.350      157095.3900      -1587.718          30.420  
R07  21895208.463      240194.1360      -2438.303          32.525  
R08  20887520.870     -140534.0670       1363.867          27.995  
C06  39624395.102        1314.7801        -21.476          18.812  
C09  39320601.014      -76651.7481        792.220          19.950  
C14  26955372.384     1511723.0631      -3404.462          20.896  
> 2018  7  4 14  9 42.0002832  0 18
G07  24433247.815       64036.4801       -697.565          21.047  
G08  22504620.875     -211444.7921       2193.115          18.116  
G10  21350004.999     -146703.8970       1421.848          28.760  
G13  25308839.355      100377.4790      -1021.584          26.260  
G15  24435253.426       22771.3640       -255.127          25.211  
G16  21316895.021      296287.8470      -2951.640          23.807  
G18  24738727.335     -297860.3021       3103.456          13.545  
G20  20842364.032       62130.7750       -645.497          30.878  
G21  22794368.787      292264.6200      -2893.138          28.645  
G26  23110444.172      414957.6450      -4106.555          29.246  
R15  21900706.356     -113678.7301       1094.009          16.183  
R01  22759642.927     -371339.2171       3710.295          22.816  
R23  19645336.217      158683.3220      -1587.916          30.449  
R07  21895558.320      242633.1540      -2439.676          32.337  
R08  20887155.723     -141897.8040       1363.005          28.409  
C06  39624288.376        1337.6241        -21.165          18.561  
C09  39320337.497      -77444.0151        792.880          19.877  
C14  26955914.109     1515123.7891      -3400.348          20.883  
> 2018  7  4 14  9 43.0002828  0 18
G07  24433287.087       64733.4151       -699.444          21.722  
G08  22504092.941     -213639.8051       2193.443          16.426  
G10  21349626.061     -148125.3830       1421.170          28.988  
G13  25308920.299      101398.7760      -1021.966          26.041  
G15  24435190.470       23026.7490       -255.744          24.478  
G16  21317348.607      299239.3100      -2951.970          23.671  
G18  24738025.821     -300959.7841       3104.002          13.460  
G20  20842373.625       62776.6600       -645.987          30.719  
G21  22794805.584      295157.9250      -2893.298          28.679  
G26  23111117.206      419064.2100      -4106.870          29.368  
R15  21900393.673     -114773.0011       1094.666          15.670  
R01  22758844.580     -375050.5271       3712.672          22.675  
R23  19645521.189      160271.6740      -1588.605          30.611  
R07  21895900.983      245072.8200      -2439.859          32.738  
R08  20886782.781     -143260.8160       1362.630          28.363  
C06  39624182.249        1360.5951        -20.553          19.024  
C09  39320074.579      -78236.3081        790.832          19.456  
C14  26956454.335     1518524.7941      -3398.720          21.211  
> 2018  7  4 14  9 44.0002824  0 18
G07  24433306.274       65430.5251       -695.868          20.677  
G08  22503570.702     -215831.5071       2192.386          16.276  
G10  21349242.027     -149546.5630       1420.736          29.009  
G13  25309002.442      102420.4240      -1021.533          26.166  
G15  24435126.614       23282.6020       -256.667          24.250  
G16  21317802.792      302191.0470      -2952.185          23.536  
G18  24737318.910     -304061.2361       3103.928          13.953  
G20  20842388.615       63423.0900       -646.856          30.538  
G21  22795247.179      298051.1400      -2893.301          28.386  
G26  23111787.243      423170.7380      -4106.518          29.280  
R15  21900069.597     -115868.0911       1093.779          15.378  
R01  22758028.844     -378761.8721       3713.728          23.335  
R23  19645704.961      161860.1540      -1588.788          31.041  
R07  21896244.545      247513.1610      -2440.765          32.703  
R08  20886408.041     -144623.2270       1362.006          28.206  
C06  39624074.924        1383.6341        -22.043          20.202  
C09  39319811.061      -79028.4951        793.179          19.259  
C14  26956999.358     1521929.9311      -3398.862          20.416  
> 2018  7  4 14  9 45.0002821  0 18
G07  24433333.555       66128.3791       -693.451          21.363  
G08  22503047.564     -218018.3941       2190.746          16.084  
G10  21348862.790     -150967.1070       1420.203          28.812  
G13  25309084.585      103442.9990      -1023.022          26.122  
G15  24435063.657       23539.0220       -257.017          24.772  
G16  21318253.980      305143.5300      -2953.076          23.731  
G18  24736614.698     -307165.1081       3104.258          13.694  
G20  20842403.904       64070.1460       -647.557          30.615  
G21  22795681.878      300944.5830      -2893.322          28.190  
G26  23112455.780      427277.5730      -4106.955          29.358  
R15  21899772.503     -116965.9611       1091.916          14.323  
R01  22757239.791     -382472.9531       3709.951          23.148  
R23  19645899.827      163449.1430      -1589.314          31.290  
R07  21896589.007      249954.3630      -2441.831          32.681  
R08  20886036.598     -145984.6910       1360.867          28.405  
C06  39623969.097        1406.8891        -21.253          19.337  
C09  39319546.944      -79820.4301        792.794          19.092  
C14  26957543.181     1525331.4151      -3395.103          20.550  
> 2018  7  4 14  9 46.0002817  0 18
G07  24433363.534       66827.0611       -696.641          21.804  
G08  22502525.925     -220202.4211       2190.549          16.787  
G10  21348476.357     -152386.9150       1419.489          28.861  
G13  25309167.028      104466.2230      -1023.255          25.803  
G15  24435003.399       23796.2900       -257.194          24.718  
G16  21318699.172      308096.4981      -2954.238          22.994  
G18  24735908.687     -310268.6321       3102.622          14.004  
G20  20842413.797       64718.0830       -648.400          30.717  
G21  22796124.971      303838.4000      -2893.920          28.063  
G26  23113131.812      431384.8710      -4107.234          29.307  
R15  21899508.086     -118061.3361       1090.718          13.898  
R01  22756427.053     -386183.5101       3708.546          23.082  
R23  19646085.698      165038.6740      -1589.576          31.074  
R07  21896956.552      252396.5440      -2442.647          32.809  
R08  20885684.641     -147345.1240       1359.941          28.330  
C06  39623861.771        1430.5221        -20.393          18.998  
C09  39319285.225      -80612.0171        793.319          18.335  
C14  26958086.705     1528733.2901      -3404.307          20.685  
> 2018  7  4 14  9 47.0002813  0 18
G07  24433375.826       67526.3631       -702.164          22.128  
G08  22501996.492     -222394.4011       2193.095          17.621  
G10  21348100.717     -153806.3130       1418.998          29.108  
G13  25309250.371      105490.0360      -1024.304          25.681  
G15  24434944.040       24054.1230       -257.887          24.859  
G16  21319154.856      311050.1130      -2953.913          23.037  
G18  24735208.372     -313368.5731       3102.667          14.248  
G20  20842425.189       65366.5810       -648.828          30.961  
G21  22796567.165      306732.1940      -2893.564          27.983  
G26  23113800.649      435492.2340      -4107.300          28.773  
R15  21899128.249     -119164.8441       1088.084          13.982  
R01  22755617.614     -389894.0251       3709.024          22.700  
R23  19646265.873      166628.5500      -1590.092          30.851  
R07  21897286.324      254839.3810      -2443.145          32.711  
R08  20885320.693     -148704.9670       1359.526          28.109  
C06  39623755.045        1454.1361        -20.214          19.026  
C09  39319022.907      -81403.6201        791.928          19.196  
C14  26958625.432     1532140.8741      -3405.250          19.905  
> 2018  7  4 14  9 48.0002810  0 18
G07  24433401.608       68226.0991       -702.285          22.707  
G08  22501467.958     -224588.7521       2192.757          17.124  
G10  21347718.482     -155225.1630       1418.289          28.672  
G13  25309331.315      106514.3250      -1024.501          25.213  
G15  24434883.782       24312.5850       -259.014          24.729  
G16  21319600.947      314004.0731      -2954.374          22.480  
G18  24734505.958     -316473.7471       3101.038          14.267  
G20  20842439.280       66015.7630       -649.790          30.864  
G21  22797006.960      309626.2130      -2894.549          28.197  
G26  23114470.685      439599.9060      -4107.930          29.006  
R15  21898833.853     -120254.2561       1086.278          14.194  
R01  22754821.965     -393604.3401       3709.902          22.787  
R23  19646455.942      168218.8100      -1590.750          30.921  
R07  21897631.385      257283.1080      -2444.612          32.564  
R08  20884969.037     -150064.0150       1358.420          28.204  
C06  39623648.619        1478.0791        -21.126          19.338  
C09  39318759.389      -82195.0781        790.912          19.181  
C14  26959178.549     1535545.6031      -3405.888          18.392  
> 2018  7  4 14  9 49.0002806  0 18
G07  24433428.889       68926.7821       -702.708          22.673  
G08  22500943.321     -226778.6911       2192.347          17.460  
G10  21347336.846     -156643.1160       1417.401          29.035  
G13  25309416.456      107539.6800      -1025.735          25.873  
G15  24434818.727       24571.9030       -259.849          25.053  
G16  21320057.531      316958.9771      -2957.059          22.027  
G18  24733810.439     -319575.0441       3104.113          14.229  
G20  20842453.670       66665.8430       -650.454          30.802  
G21  22797449.154      312520.5700      -2894.384          28.320  
G26  23115138.323      443708.0410      -4108.229          28.762  
R15  21898516.672     -121340.7101       1089.332          13.556  
R01  22754025.416     -397314.2091       3712.184          22.321  
R23  19646643.012      169809.7590      -1591.281          31.057  
R07  21897967.153      259727.8930      -2445.051          32.672  
R08  20884592.497     -151421.9670       1357.741          28.485  
C06  39623542.193        1502.4461        -22.662          19.168  
C09  39318497.670      -82986.0421        790.541          19.441  
C14  26959722.373     1538948.2561      -3404.180          18.794  
> 2018  7  4 14  9 50.0002802  0 18
G07  24433447.776       69628.1651       -704.482          22.475  
G08  22500415.087     -228964.6881       2192.055          16.866  
G10  21346958.208     -158060.4680       1416.889          29.206  
G13  25309493.802      108565.7150      -1026.423          25.251  
G15  24434761.167       24831.9090       -260.166          24.385  
G16  21320500.625      319914.4111      -2956.253          22.757  
G18  24733105.327     -322674.9831       3102.233          14.325  
G20  20842466.860       67316.7020       -651.201          30.795  
G21  22797889.549      315415.2450      -2894.990          28.321  
G26  23115813.755      447816.5310      -4108.727          29.116  
R15  21898196.194     -122427.1451       1083.937          13.268  
R01  22753207.582     -401023.6821       3710.522          22.391  
R23  19646829.183      171401.2230      -1591.539          30.669  
R07  21898317.610      262173.5860      -2445.885          32.758  
R08  20884230.348     -152779.0290       1356.535          28.256  
C06  39623435.167        1527.0531        -22.890          18.903  
C09  39318234.153      -83776.8091        789.718          19.084  
C14  26960263.198     1542351.4061      -3402.812          18.989  
> 2018  7  4 14  9 51.0002798  0 18
G07  24433466.063       70329.9151       -699.403          21.574  
G08  22499885.054     -231152.4601       2190.726          14.227  
G10  21346575.673     -159477.4310       1416.459          28.855  
G13  25309584.339      109592.1700      -1026.913          24.892  
G15  24434698.210       25092.4940       -261.163          24.871  
G16  21320962.305      322870.1571      -2952.341          22.325  
G18  24732403.513     -325778.3001       3100.590          14.328  
G20  20842478.552       67968.1050       -652.041          30.923  
G21  22798328.446      318309.8710      -2894.900          28.708  
G26  23116481.993      451925.0650      -4108.657          29.232  
R15  21897896.402     -123509.0771       1086.444          13.178  
R01  22752381.954     -404733.2501       3709.779          22.068  
R23  19647016.254      172992.9460      -1591.993          30.774  
R07  21898658.474      264619.9980      -2446.800          32.616  
R08  20883859.805     -154135.4070       1356.084          28.262  
C06  39623329.040        1551.7741        -23.155          20.819  
C09  39317972.434      -84567.6001        789.281          20.434  
C14  26960805.523     1545754.7971      -3402.035          19.328  
> 2018  7  4 14  9 52.0002795  0 18
G07  24433498.441       71032.4061       -705.991          21.626  
G08  22499357.119     -233340.3921       2190.956          17.301  
G10  21346194.937     -160893.7530       1416.211          28.952  
G13  25309672.179      110619.3570      -1027.434          25.382  
G15  24434635.554       25353.6950       -261.624          24.984  
G16  21321413.193      325826.6991      -2953.407          21.764  
G18  24731701.699     -328879.3511       3101.256          13.915  
G20  20842490.844       68620.2510       -652.652          31.062  
G21  22798763.744      321204.7370      -2894.562          28.729  
G26  23117153.827      456034.0100      -4108.883          29.336  
R15  21897637.081     -124594.8031       1083.838          12.625  
R01  22751586.005     -408442.4731       3708.373          22.328  
R23  19647206.622      174585.1850      -1592.465          30.996  
R07  21899004.135      267067.2630      -2447.671          33.190  
R08  20883492.859     -155490.7990       1354.670          28.205  
C06  39623223.813        1576.6631        -24.357          19.958  
C09  39317709.516      -85358.0721        790.822          20.101  
C14  26961346.049     1549158.3411      -3399.980          19.081  
> 2018  7  4 14  9 53.0002791  0 18
G07  24433518.827       71735.4361       -702.044          20.667  
G08  22498826.786     -235538.7291       2191.234          17.962  
G10  21345816.299     -162309.5170       1415.282          29.037  
G13  25309753.422      111647.1340      -1028.188          25.469  
G15  24434566.901       25615.6110       -262.568          25.027  
G16  21321855.387      328783.6741      -2961.225          22.590  
G18  24730991.791     -331981.6401       3102.708          13.736  
G20  20842502.536       69272.9980       -653.068          30.578  
G21  22799201.141      324099.7590      -2894.712          28.727  
G26  23117825.662      460143.1030      -4109.583          29.215  
R15  21897249.749     -125677.6491       1082.731          12.322  
R01  22750783.760     -412150.1771       3711.019          22.181  
R23  19647383.200      176177.7430      -1592.621          30.801  
R07  21899362.687      269515.3220      -2448.600          33.304  
R08  20883125.913     -156845.5130       1354.227          27.904  
C06  39623117.986        1601.9231        -24.621          18.723  
C09  39317446.298      -86148.4171        790.836          20.247  
C14  26961887.474     1552562.2131      -3401.500          18.374  
> 2018  7  4 14  9 54.0002787  0 18
G07  24433533.817       72439.1401       -704.038          21.939  
G08  22498297.952     -237736.4141       2191.770          17.496  
G10  21345433.764     -163724.7340       1415.007          29.434  
G13  25309838.863      112675.6650      -1029.326          25.722  
G15  24434506.043       25878.0590       -262.743          24.740  
G16  21322309.872      331741.2461      -2961.541          22.111  
G18  24730304.966     -335078.6611       3104.083          13.993  
G20  20842517.525       69926.5030       -653.736          30.596  
G21  22799642.436      326995.0170      -2895.433          28.650  
G26  23118500.495      464252.4450      -4109.552          29.345  
R15  21896922.076     -126759.1521       1082.047          12.968  
R01  22749983.914     -415856.3501       3709.805          22.002  
R23  19647568.771      177770.8210      -1593.392          30.803  
R07  21899706.249      271964.2450      -2449.329          33.015  
R08  20882756.568     -158199.2970       1353.129          27.887  
C06  39623012.159        1627.2041        -23.937          19.230  
C09  39317183.980      -86938.5611        790.085          20.310  
C14  26962430.997     1555966.2131      -3402.502          18.959  
> 2018  7  4 14  9 55.0002784  0 18
G07  24433559.299       73143.4831       -704.073          21.107  
G08  22497767.620     -239935.4481       2191.905          16.938  
G10  21345054.826     -165139.3890       1414.199          29.215  
G13  25309927.902      113704.6810      -1029.589          25.340  
G15  24434449.982       26141.2380       -264.087          24.120  
G16  21322771.253      334699.1341      -2956.446          22.566  
G18  24729608.248     -338183.1951       3100.804          13.453  
G20  20842530.117       70580.6450       -654.590          31.025  
G21  22800084.930      329890.3150      -2895.318          28.485  
G26  23119171.730      468362.0280      -4109.906          29.472  
R15  21896678.945     -127843.2081       1080.138          12.550  
R01  22749162.782     -419557.2891       3706.776          21.486  
R23  19647757.640      179364.2430      -1593.748          30.731  
R07  21900045.614      274413.9080      -2450.293          33.044  
R08  20882392.620     -159552.3070       1352.304          27.782  
C06  39622905.733        1652.5841        -23.464          18.112  
C09  39316921.062      -87728.6661        789.973          19.717  
C14  26962973.922     1559370.5991      -3402.809          18.394  
> 2018  7  4 14  9 56.0002780  0 18
G07  24433582.683       73848.3231       -703.612          21.379  
G08  22497239.385     -242127.8431       2194.838          16.174  
G10  21344674.689     -166553.4340       1413.525          28.976  
G13  25310013.342      114734.3490      -1030.303          25.073  
G15  24434388.225       26404.9530       -264.170          24.597  
G16  21323215.245      337657.6860      -2958.789          23.019  
G18  24728916.028     -341283.0051       3101.471          13.183  
G20  20842544.207       71235.4580       -655.282          30.818  
G21  22800527.423      332785.8900      -2895.489          28.419  
G26  23119839.068      472471.8910      -4109.975          29.268  
R15  21896373.756     -128922.2521       1080.540          12.991  
R01  22748351.844     -423265.5611       3702.979          21.889  
R23  19647947.709      180958.0690      -1594.123          31.124  
R07  21900393.373      276864.5640      -2451.115          33.415  
R08  20882034.668     -160904.5380       1352.054          27.956  
C06  39622799.307        1678.3491        -24.017          19.135  
C09  39316658.744      -88518.4311        789.257          19.877  
C14  26963515.647     1562775.2861      -3403.092          18.421  
> 2018  7  4 14  9 57.0002776  0 18
G07  24433599.171       74553.9091       -710.726          21.046  
G08  22496713.549     -244324.2881       2193.134          16.651  
G10  21344293.353     -167966.9870       1413.164          28.892  
G13  25310094.886      115764.6500      -1030.896          24.869  
G15  24434328.566       26669.3780       -264.954          23.379  
G16  21323663.435      340616.7051      -2958.891          22.469  
G18  24728215.413     -344384.8751       3102.436          13.755  
G20  20842561.895       71890.9550       -656.020          30.421  
G21  22800964.521      335681.6200      -2895.926          28.660  
G26  23120509.404      476581.9580      -4110.121          28.694  
R15  21896051.779     -130003.3571       1079.691          12.845  
R01  22747547.501     -426974.0471       3708.139          21.334  
R23  19648141.974      182552.3690      -1594.709          31.092  
R07  21900753.424      279315.9770      -2451.967          33.321  
R08  20881667.123     -162255.9480       1350.995          28.180  
C06  39622693.780        1704.3121        -25.007          19.618  
C09  39316397.025      -89308.1011        789.545          18.937  
C14  26964058.571     1566180.0451      -3404.172          18.892  
> 2018  7  4 14  9 58.0002773  0 18
G07  24433627.652       75260.2671       -713.208          20.089  
G08  22496190.711     -246517.8981       2193.125          17.954  
G10  21343915.015     -169379.8780       1412.587          29.289  
G13  25310178.228      116795.6280      -1030.985          25.408  
G15  24434267.409       26934.4790       -265.691          24.097  
G16  21324117.021      343576.4761      -2961.502          21.979  
G18  24727503.406     -347486.2361       3102.453          14.251  
G20  20842575.685       72547.2380       -656.528          30.534  
G21  22801401.318      338577.5140      -2895.946          28.703  
G26  23121175.543      480692.3410      -4110.364          28.766  
R15  21895725.305     -131081.8521       1079.081          12.092  
R01  22746782.430     -430684.6801       3712.375          21.937  
R23  19648333.542      184147.0730      -1594.769          31.168  
R07  21901099.085      281768.1930      -2452.676          33.122  
R08  20881313.068     -163606.5120       1350.062          28.640  
C06  39622588.553        1730.5361        -26.081          19.117  
C09  39316135.306      -90097.5441        789.040          19.205  
C14  26964600.296     1569585.2921      -3403.806          18.653  
> 2018  7  4 14  9 59.0002769  0 18
G07  24433651.035       75966.8311       -707.846          20.968  
G08  22495659.479     -248707.9791       2193.392          16.806  
G10  21343537.876     -170792.3480       1412.237          29.359  
G13  25310262.470      117827.1230      -1031.427          25.269  
G15  24434203.553       27200.0770       -265.970          24.739  
G16  21324579.301      346536.5671      -2958.161          21.352  
G18  24726799.793     -350583.1491       3102.689          14.284  
G20  20842585.878       73203.9880       -657.054          30.572  
G21  22801846.210      341473.4610      -2895.946          28.866  
G26  23121849.477      484802.8620      -4110.442          29.015  
R15  21895439.303     -132160.3651       1078.777          12.701  
R01  22745965.196     -434400.5971       3708.609          20.831  
R23  19648513.717      185742.1490      -1595.074          31.273  
R07  21901428.257      284221.0670      -2453.273          32.748  
R08  20880959.313     -164956.2790       1349.246          28.720  
C06  39622483.026        1756.1051        -25.754          19.162  
C09  39315871.788      -90887.0761        790.022          19.831  
C14  26965142.021     1572990.5081      -3403.559          19.313  
> 2018  7  4 14 10  0.0002765  0 18
G07  24433678.316       76674.0771       -707.114          20.562  
G08  22495125.549     -250900.0891       2191.531          16.064  
G10  21343157.739     -172204.2510       1411.542          29.566  
G13  25310350.009      118859.2880      -1032.613          25.111  
G15  24434151.989       27466.2390       -266.473          23.668  
G16  21325026.891      349497.0831      -2960.596          21.441  
G18  24726095.880     -353687.3451       3099.957          14.621  
G20  20842599.369       73861.4360       -657.595          30.609  
G21  22802285.107      344369.5390      -2896.091          28.748  
G26  23122525.509      488913.5570      -4110.585          28.699  
R15  21895056.468     -133239.0161       1075.388          12.291  
R01  22745170.746     -438111.9181       3707.888          21.206  
R23  19648701.687      187337.5690      -1595.402          31.249  
R07  21901789.806      286674.7940      -2453.884          33.184  
R08  20880597.463     -166305.3600       1348.702          28.661  
C06  39622377.799        1781.8731        -27.342          20.075  
C09  39315608.571      -91676.2451        789.943          19.317  
C14  26965684.045     1576396.0771      -3402.347          19.623  
> 2018  7  4 14 10  1.0002761  0 18
G07  24433708.296       77381.7621       -709.375          19.894  
G08  22494601.212     -253091.0081       2192.328          16.607  
G10  21342776.403     -173615.8270       1411.276          29.527  
G13  25310438.748      119891.8190      -1032.332          25.569  
G15  24434087.533       27732.9220       -267.080          23.783  
G16  21325472.982      352457.9921      -2956.197          21.498  
G18  24725402.460     -356788.2371       3100.278          14.387  
G20  20842614.658       74519.4320       -658.547          30.840  
G21  22802724.602      347265.6030      -2896.298          28.880  
G26  23123197.344      493024.4010      -4110.950          29.195  
R15  21894783.956     -134314.1791       1077.433          11.636  
R01  22744357.409     -441819.4221       3704.467          21.658  
R23  19648894.453      188933.2940      -1595.938          31.394  
R07  21902135.467      289129.1840      -2454.940          33.149  
R08  20880230.217     -167653.7350       1348.180          28.217  
C06  39622273.771        1811.6661        -26.154          19.010  
C09  39315345.952      -92465.5411        789.449          19.588  
C14  26966227.569     1579801.5831      -3403.016          20.491  
> 2018  7  4 14 10  2.0002758  0 17
G07  24433710.394       78090.1691       -709.676          20.395  
G08  22494073.877     -255274.9191       2192.220          16.324  
G10  21342400.464     -175026.7490       1410.784          29.703  
G13  25310520.891      120925.2640      -1034.453          25.502  
G15  24434029.973       28000.2850       -267.783          23.963  
G16  21325927.168      355419.5041      -2960.525          21.331  
G18  24724707.241     -359885.1011       3100.782          14.365  
G20  20842629.948       75178.1180       -659.258          30.774  
G21  22803163.199      350161.8510      -2896.123          28.933  
G26  23123864.382      497135.5280      -4111.537          28.812  
R01  22743536.877     -445526.5821       3704.205          21.616  
R23  19649067.733      190529.4440      -1596.314          31.128  
R07  21902492.820      291584.4040      -2455.744          33.168  
R08  20879853.378     -169001.1340       1346.890          28.191  
C06  39622167.944        1838.4621        -27.391          19.046  
C09  39315084.234      -93254.5281        789.113          18.312  
C14  26966769.294     1583207.6931      -3402.655          20.749  
> 2018  7  4 14 10  3.0002754  0 18
G07  24433733.179       78799.2561       -706.961          19.832  
G08  22493540.846     -257465.3811       2189.892          16.520  
G10  21342027.222     -176436.9810       1409.965          29.821  
G13  25310605.732      121959.2030      -1034.527          25.535  
G15  24433971.214       28268.3250       -267.764          23.941  
G16  21326390.047      358381.4061      -2965.375          20.161  
G18  24723998.532     -362986.4941       3101.618          14.489  
G20  20842646.436       75837.4980       -659.614          30.985  
G21  22803605.392      353058.4340      -2896.511          28.915  
G26  23124537.116      501246.9470      -4111.580          28.833  
R15  21894219.447     -136464.3761       1073.748          11.719  
R01  22742716.945     -449233.3351       3711.482          20.166  
R23  19649255.104      192126.1920      -1596.890          30.949  
R07  21902832.784      294040.6800      -2456.607          33.006  
R08  20879500.822     -170347.7280       1346.236          27.944  
C06  39622063.316        1865.4401        -26.424          18.933  
C09  39314820.416      -94043.3591        791.636          18.477  
C14  26967311.619     1586614.0321      -3403.015          20.557  
> 2018  7  4 14 10  4.0002750  0 18
G07  24433776.049       79508.3681       -711.667          19.918  
G08  22493013.511     -259651.9451       2190.616          17.217  
G10  21341643.787     -177846.6720       1408.938          29.831  
G13  25310695.070      122993.7470      -1034.887          26.182  
G15  24433907.358       28537.0710       -269.206          24.145  
G16  21326843.334      361340.6781      -2959.066          20.868  
G18  24723280.529     -366083.6651       3100.845          14.858  
G20  20842659.927       76497.6650       -660.791          30.868  
G21  22804048.486      355955.0650      -2896.600          28.655  
G26  23125208.951      505358.5940      -4112.005          29.001  
R15  21893939.141     -137537.8211       1072.703          11.470  
R01  22741903.908     -452940.0731       3709.979          21.264  
R23  19649446.371      193723.2300      -1597.431          31.131  
R07  21903183.542      296497.7010      -2457.724          33.007  
R08  20879136.275     -171693.5840       1345.402          28.188  
C06  39621958.389        1892.6071        -25.821          19.677  
C09  39314557.498      -94831.9631        789.706          18.370  
C14  26967854.543     1590020.5571      -3404.076          20.213  
> 2018  7  4 14 10  5.0002747  0 18
G07  24433798.533       80213.3991       -709.714          19.393  
G08  22492490.073     -261842.4371       2189.903          16.936  
G10  21341263.950     -179255.8720       1409.052          30.004  
G13  25310780.511      124028.9690      -1035.532          25.841  
G15  24433850.997       28806.4080       -269.140          23.856  
G16  21327269.938      364302.1761      -2962.830          19.715  
G18  24722583.212     -369186.0631       3101.447          14.896  
G20  20842675.216       77158.4380       -660.968          30.640  
G21  22804489.780      358851.9270      -2896.713          28.623  
G26  23125883.784      509470.5120      -4112.136          28.885  
R15  21893559.304     -138610.5151       1073.578          11.133  
R01  22741133.441     -456648.0271       3702.889          21.642  
R23  19649632.842      195320.7040      -1597.583          31.049  
R07  21903531.001      298955.5500      -2458.237          32.826  
R08  20878770.528     -173038.5440       1344.641          27.960  
C06  39621852.262        1920.6991        -26.287          19.403  
C09  39314295.480      -95620.4491        789.786          18.904  
C14  26968399.266     1593427.4491      -3406.365          21.483  
> 2018  7  4 14 10  6.0002743  0 18
G07  24433824.016       80925.3641       -711.388          20.585  
G08  22491960.040     -264034.6261       2191.249          17.990  
G10  21340884.713     -180664.4940       1408.449          29.720  
G13  25310865.353      125064.7850      -1036.032          25.595  
G15  24433788.640       29076.2950       -269.908          23.809  
G16  21327738.514      367265.6301      -2968.472          20.150  
G18  24721877.800     -372287.1991       3100.830          14.878  
G20  20842687.508       77819.7860       -661.592          30.822  
G21  22804928.377      361748.8800      -2897.060          28.650  
G26  23126555.019      513582.6420      -4112.678          29.123  
R15  21893171.673     -139683.3621       1071.422          10.327  
R01  22740305.114     -460349.5101       3707.197          22.176  
R23  19649827.108      196918.5500      -1597.860          31.092  
R07  21903889.253      301414.1220      -2459.045          32.932  
R08  20878407.779     -174382.7880       1343.763          27.958  
C06  39621746.736        1948.0261        -26.445          19.608  
C09  39314032.861      -96408.5921        789.172          18.887  
C14  26968944.588     1596834.4171      -3406.544          21.548  
> 2018  7  4 14 10  7.0002739  0 18
G07  24433846.800       81636.8951       -714.356          21.607  
G08  22491426.110     -266225.5381       2190.988          17.911  
G10  21340502.777     -182072.6270       1407.349          30.076  
G13  25310949.294      126101.1010      -1036.247          25.602  
G15  24433732.279       29346.8090       -270.891          23.924  
G16  21328183.106      370229.8661      -2966.625          19.744  
G18  24721193.074     -375387.4231       3100.941          15.097  
G20  20842704.596       78481.8150       -662.303          30.467  
G21  22805368.172      364645.9070      -2897.070          28.787  
G26  23127225.055      517694.8730      -4112.648          28.992  
R15  21892804.727     -140755.5491       1070.877          10.439  
R01  22739505.868     -464061.4431       3704.068          22.695  
R23  19650013.279      198516.7610      -1598.380          31.052  
R07  21904222.322      303873.3400      -2459.589          33.278  
R08  20878041.133     -175726.2780       1343.027          27.814  
C06  39621640.909        1975.7291        -26.440          20.207  
C09  39313772.642      -97197.9451        788.556          18.385  
C14  26969492.609     1600241.7141      -3408.339          21.821  
> 2018  7  4 14 10  8.0002736  0 18
G07  24433867.486       82348.9161       -712.366          22.543  
G08  22490899.974     -268415.6141       2190.265          17.111  
G10  21340125.938     -183480.2310       1407.076          30.237  
G13  25311042.830      127138.1720      -1037.583          26.092  
G15  24433669.922       29617.9650       -271.426          24.023  
G16  21328645.686      373194.6951      -2969.102          19.546  
G18  24720495.457     -378488.9511       3100.440          15.449  
G20  20842717.787       79144.5540       -663.314          30.684  
G21  22805811.865      367543.1400      -2897.368          28.879  
G26  23127895.991      521807.4080      -4112.846          28.911  
R15  21892540.610     -141823.9191       1071.828          11.328  
R01  22738707.221     -467766.8691       3700.173          21.705  
R23  19650189.257      200115.3850      -1598.887          30.914  
R07  21904571.281      306333.5400      -2460.793          33.032  
R08  20877693.374     -177068.8790       1342.361          27.549  
C06  39621535.382        2003.4711        -25.855          19.665  
C09  39313510.323      -97985.9561        788.942          18.161  
C14  26970036.133     1603649.1801      -3404.753          20.998  
> 2018  7  4 14 10  9.0002732  0 18
G07  24433885.773       83061.4591       -711.085          22.041  
G08  22490368.742     -270605.5291       2189.983          17.391  
G10  21339746.401     -184887.2510       1406.408          30.046  
G13  25311129.170      128175.7740      -1037.839          25.875  
G15  24433606.966       29889.6510       -271.582          23.890  
G16  21329101.970      376159.7501      -2961.220          19.800  
G18  24719789.446     -381587.2081       3101.228          15.574  
G20  20842733.676       79807.9670       -663.761          30.520  
G21  22806254.958      370440.4760      -2897.327          29.014  
G26  23128568.725      525920.1540      -4113.100          28.774  
R15  21892312.767     -142893.7551       1069.060          11.862  
R01  22737914.270     -471469.8301       3702.846          20.281  
R23  19650382.323      201714.4270      -1599.339          31.046  
R07  21904928.633      308794.5120      -2461.734          32.919  
R08  20877323.130     -178410.6010       1341.268          28.177  
C06  39621428.656        2031.5641        -26.424          19.777  
C09  39313247.105      -98773.9491        787.165          19.685  
C14  26970575.459     1607056.8791      -3407.023          21.533  
> 2018  7  4 14 10 10.0002728  0 18
G07  24433910.356       83774.7041       -714.164          22.593  
G08  22489836.310     -272790.3271       2189.286          17.250  
G10  21339368.063     -186293.7390       1405.618          29.933  
G13  25311215.510      129214.0300      -1038.687          25.444  
G15  24433548.207       30162.1390       -273.152          24.508  
G16  21329554.057      379125.1111      -2971.444          18.956  
G18  24719074.741     -384686.6481       3099.584          15.495  
G20  20842750.464       80471.9470       -664.475          30.707  
G21  22806692.355      373337.9720      -2897.648          28.865  
G26  23129240.260      530033.1430      -4113.243          28.815  
R15  21892018.071     -143962.3051       1070.765          11.830  
R01  22737081.746     -475167.9861       3708.159          21.162  
R23  19650572.092      203313.8700      -1599.797          31.283  
R07  21905270.996      311256.3570      -2462.412          32.896  
R08  20876974.471     -179751.6160       1340.227          28.533  
C06  39621322.229        2059.9431        -26.981          19.454  
C09  39312985.087      -99561.7351        787.841          20.037  
C14  26971122.281     1610464.8041      -3411.570          20.095  
> 2018  7  4 14 10 11.0002725  0 18
G07  24433938.536       84488.4870       -714.479          23.011  
G08  22489316.770     -274979.5711       2188.752          17.398  
G10  21338989.125     -187699.7650       1405.689          30.209  
G13  25311303.649      130252.8750      -1039.354          25.524  
G15  24433496.642       30435.1040       -273.405          25.251  
G16  21330003.746      382091.1221      -2971.457          18.663  
G18  24718359.136     -387786.8351       3099.547          15.240  
G20  20842760.957       81136.6470       -664.832          30.638  
G21  22807130.052      376235.6260      -2897.726          29.025  
G26  23129910.896      534146.3140      -4113.353          28.754  
R15  21891719.778     -145032.2751       1066.928          12.189  
R01  22736266.610     -478875.2231       3706.546          21.108  
R23  19650758.863      204913.6900      -1600.158          31.126  
R07  21905622.053      313718.8840      -2462.945          33.473  
R08  20876605.727     -181091.9050       1339.914          28.831  
C06  39621217.902        2088.2851        -27.499          19.808  
C09  39312723.368     -100349.3161        787.650          19.822  
C14  26971664.006     1613872.9521      -3408.582          20.524  
> 2018  7  4 14 10 12.0002721  0 18
G07  24433971.813       85202.7840       -714.687          23.301  
G08  22488793.632     -277168.4211       2188.526          18.725  
G10  21338609.288     -189105.1530       1405.062          30.395  
G13  25311383.993      131292.3050      -1039.889          24.919  
G15  24433430.388       30708.6500       -273.953          24.617  
G16  21330459.430      385057.9741      -2970.705          19.942  
G18  24717648.628     -390886.7381       3099.969          15.312  
G20  20842780.743       81801.9560       -665.697          30.526  
G21  22807572.246      379133.4360      -2898.306          29.101  
G26  23130579.133      538259.7210      -4113.573          29.078  
R15  21891365.723     -146099.8731       1066.783          11.704  
R01  22735514.131     -482582.4651       3701.570          21.841  
R23  19650948.332      206513.8630      -1600.408          31.267  
R07  21905973.410      316182.2270      -2463.817          33.284  
R08  20876236.682     -182431.3060       1338.898          28.395  
C06  39621112.075        2116.8661        -28.809          19.024  
C09  39312460.750     -101136.7071        787.410          18.613  
C14  26972202.133     1617281.3241      -3407.516          19.572  
> 2018  7  4 14 10 13.0002717  0 18
G07  24433999.694       85917.6290       -714.155          23.213  
G08  22488268.396     -279352.6481       2189.245          18.902  
G10  21338232.749     -190509.9790       1404.527          30.342  
G13  25311474.231      132332.4190      -1040.488          25.169  
G15  24433372.528       30982.9110       -274.182          24.268  
G16  21330913.916      388026.2091      -2969.671          18.159  
G18  24716955.508     -393985.1691       3099.466          15.238  
G20  20842796.033       82467.9480       -666.242          30.639  
G21  22808009.643      382031.3450      -2898.301          29.126  
G26  23131255.765      542373.3570      -4113.627          28.884  
R15  21891017.964     -147167.1161       1064.942          12.162  
R01  22734705.291     -486279.0521       3702.460          22.256  
R23  19651140.499      208114.4450      -1600.747          31.290  
R07  21906304.381      318646.3560      -2464.121          33.412  
R08  20875873.933     -183769.9110       1338.281          28.459  
C06  39621006.248        2145.6031        -27.700          19.901  
C09  39312198.731     -101924.0341        787.918          18.555  
C14  26972747.455     1620690.0561      -3407.777          18.884  
> 2018  7  4 14 10 14.0002713  0 17
G07  24434024.877       86633.3731       -716.302          22.941  
G08  22487746.757     -281541.8631       2189.139          17.323  
G10  21337855.310     -191914.3500       1404.036          30.360  
G13  25311557.573      133373.0400      -1040.997          24.977  
G15  24433317.966       31257.6930       -274.777          24.173  
G16  21331366.302      390997.2531      -2970.028          18.012  
G18  24716271.381     -397084.9251       3099.213          15.226  
G20  20842812.221       83134.6170       -667.058          30.853  
G21  22808453.037      384929.3730      -2898.588          28.957  
G26  23131927.000      546487.1870      -4113.803          28.662  
R01  22733896.751     -489975.1411       3702.078          22.126  
R23  19651331.167      209715.4410      -1601.329          31.359  
R07  21906665.031      321111.3990      -2465.584          33.052  
R08  20875535.168     -185107.6960       1337.312          28.379  
C06  39620899.522        2174.5671        -27.450          19.460  
C09  39311935.214     -102711.2691        786.981          19.994  
C14  26973292.178     1624099.0101      -3409.243          17.989  
> 2018  7  4 14 10 15.0002710  0 18
G07  24434046.462       87349.3040       -716.311          23.112  
G08  22487219.122     -283730.8161       2189.568          20.409  
G10  21337474.874     -193318.2570       1403.507          30.181  
G13  25311643.614      134414.2120      -1041.460          24.388  
G15  24433258.307       31532.9950       -275.243          24.800  
G16  21331822.587      393967.0111      -2970.456          18.576  
G18  24715579.460     -400186.1861       3099.884          15.589  
G20  20842829.609       83801.7710       -667.534          30.635  
G21  22808892.832      387827.3630      -2897.910          29.195  
G26  23132597.936      550601.1780      -4114.235          28.653  
R15  21890368.613     -149296.9361       1063.961          12.911  
R01  22733065.426     -493679.6731       3703.320          23.036  
R23  19651524.832      211316.6710      -1601.448          31.220  
R07  21907023.283      323577.0750      -2466.177          33.472  
R08  20875174.517     -186444.8680       1336.611          28.517  
C06  39620794.595        2203.5161        -27.053          19.341  
C09  39311674.094     -103498.4161        786.109          20.382  
C14  26973836.002     1627508.1681      -3411.281          16.645  
> 2018  7  4 14 10 16.0002706  0 18
G07  24434071.944       88065.9140       -717.091          23.194  
G08  22486692.687     -285919.5571       2191.155          19.743  
G10  21337101.932     -194721.6170       1402.968          30.463  
G13  25311725.757      135455.9830      -1041.804          23.781  
G15  24433203.145       31808.9840       -276.400          25.421  
G16  21332277.671      396931.6031      -2969.177          18.615  
G18  24714895.634     -403283.8891       3100.494          15.473  
G20  20842845.798       84469.6560       -668.437          30.653  
G21  22809335.026      390725.6040      -2898.484          28.738  
G26  23133273.968      554715.3600      -4114.552          28.867  
R15  21890076.016     -150360.0501       1063.800          13.076  
R01  22732284.467     -497383.8651       3702.966          22.802  
R23  19651696.014      212918.3610      -1601.935          30.790  
R07  21907371.942      326043.5580      -2467.027          33.182  
R08  20874812.368     -187781.2750       1336.219          28.290  
C06  39620689.967        2232.7621        -27.040          19.141  
C09  39311413.575     -104285.3031        785.489          20.101  
C14  26974380.425     1630917.3041      -3410.512          18.164  
> 2018  7  4 14 10 17.0002702  0 18
G07  24434095.927       88783.1720       -717.537          23.094  
G08  22486164.752     -288107.6081       2191.033          19.542  
G10  21336719.397     -196124.4060       1402.710          30.787  
G13  25311821.391      136498.5130      -1042.813          23.512  
G15  24433146.485       32085.5810       -277.104          25.353  
G16  21332729.758      399900.7601      -2968.102          17.921  
G18  24714195.918     -406383.3021       3100.377          15.621  
G20  20842864.985       85138.1680       -668.655          30.660  
G21  22809779.019      393624.0180      -2898.608          28.942  
G26  23133941.006      558829.8420      -4114.755          28.560  
R15  21889806.802     -151424.3191       1061.655          13.812  
R01  22731492.715     -501087.9291       3701.100          22.959  
R23  19651882.785      214520.4460      -1602.266          30.952  
R07  21907707.710      328510.8590      -2467.808          33.160  
R08  20874443.024     -189116.7800       1335.057          28.069  
C06  39620584.440        2262.0951        -27.537          19.232  
C09  39311152.755     -105072.1941        786.120          19.407  
C14  26974925.747     1634326.8631      -3410.575          18.145  
> 2018  7  4 14 10 18.0002699  0 18
G07  24434120.510       89501.0211       -716.253          22.855  
G08  22485637.117     -290296.0261       2190.986          18.856  
G10  21336342.857     -197526.6470       1402.028          30.580  
G13  25311904.133      137541.5110      -1043.432          23.688  
G15  24433088.925       32362.7620       -277.603          24.724  
G16  21333189.640      402870.4241      -2969.505          17.115  
G18  24713497.702     -409479.1261       3099.080          15.536  
G20  20842880.574       85807.3180       -669.425          31.052  
G21  22810217.315      396522.4910      -2898.491          28.629  
G26  23134613.740      562944.4330      -4114.485          28.316  
R15  21889498.016     -152483.7801       1062.281          14.513  
R01  22730702.162     -504791.8421       3705.122          23.036  
R23  19652076.750      216122.9190      -1602.499          31.010  
R07  21908064.463      330978.9320      -2468.192          33.371  
R08  20874065.585     -190451.4850       1334.299          28.021  
C06  39620479.513        2291.7051        -27.819          19.414  
C09  39310890.737     -105858.9151        785.060          19.819  
C14  26975468.971     1637736.7251      -3409.797          19.361  
> 2018  7  4 14 10 19.0002695  0 18
G07  24434145.393       90219.2780       -718.854          23.022  
G08  22485107.084     -292484.4701       2190.104          16.852  
G10  21335968.716     -198928.4560       1401.556          31.003  
G13  25311992.272      138584.9170      -1043.184          23.654  
G15  24433029.865       32640.4300       -278.128          24.609  
G16  21333639.928      405839.7821      -2970.239          17.767  
G18  24712794.688     -412581.4411       3099.147          15.744  
G20  20842896.763       86477.0920       -670.173          30.966  
G21  22810656.511      399421.0150      -2898.569          28.534  
G26  23135286.175      567059.2150      -4114.746          28.060  
R15  21889175.139     -153546.7141       1060.142          14.750  
R01  22729905.614     -508495.5251       3705.107          23.123  
R23  19652267.119      217725.7350      -1603.090          31.100  
R07  21908415.220      333447.6910      -2469.122          33.249  
R08  20873717.226     -191785.5330       1333.525          27.912  
C06  39620373.986        2321.3311        -28.407          19.350  
C09  39310630.517     -106645.4391        785.885          20.455  
C14  26976012.495     1641146.5641      -3409.631          18.721  
> 2018  7  4 14 10 20.0002691  0 18
G07  24434178.370       90938.1521       -722.633          22.579  
G08  22484582.747     -294672.5651       2188.063          18.943  
G10  21335589.179     -200329.7800       1401.384          31.107  
G13  25312084.608      139629.1401      -1045.788          22.498  
G15  24432975.903       32918.7530       -278.946          24.557  
G16  21334093.514      408814.2601      -2971.142          16.819  
G18  24712084.180     -415680.7211       3099.933          15.808  
G20  20842913.551       87147.4130       -670.426          30.675  
G21  22811096.007      402319.7100      -2898.982          28.740  
G26  23135956.211      571174.1560      -4114.722          27.984  
R15  21888863.055     -154605.9861       1061.229          15.183  
R01  22729082.683     -512199.0141       3703.229          23.803  
R23  19652461.984      219328.8680      -1603.368          31.197  
R07  21908777.969      335917.2480      -2469.894          33.566  
R08  20873351.779     -193118.7220       1332.589          28.387  
C06  39620269.358        2351.2151        -28.068          19.168  
C09  39310370.297     -107431.9561        786.580          20.395  
C14  26976556.019     1644556.5011      -3411.657          17.712  
> 2018  7  4 14 10 21.0002688  0 18
G07  24434196.658       91657.6860       -720.114          23.036  
G08  22484056.612     -296860.2891       2187.682          18.530  
G10  21335211.740     -201730.5070       1400.646          31.332  
G13  25312174.546      140673.9110      -1045.388          23.422  
G15  24432918.343       33197.6630       -279.433          24.063  
G16  21334545.601      411793.8361      -2972.222          14.940  
G18  24711389.261     -418778.9251       3098.569          15.213  
G20  20842928.841       87818.5100       -671.212          30.864  
G21  22811539.999      405218.4900      -2898.773          28.902  
G26  23136629.545      575289.3960      -4115.060          28.439  
R15  21888525.189     -155663.7041       1058.857          15.390  
R01  22728260.952     -515902.4151       3702.354          23.765  
R23  19652644.557      220932.4060      -1603.576          31.176  
R07  21909127.527      338387.6430      -2470.821          33.255  
R08  20873001.322     -194451.1690       1332.188          28.506  
C06  39620163.232        2381.0491        -28.248          19.729  
C09  39310108.878     -108218.3531        786.427          20.018  
C14  26977099.842     1647967.0841      -3411.732          17.875  
> 2018  7  4 14 10 22.0002684  0 18
G07  24434229.935       92377.9050       -720.677          23.209  
G08  22483528.977     -299047.9281       2187.792          18.549  
G10  21334835.501     -203130.5310       1399.577          31.445  
G13  25312261.486      141719.4170      -1046.252          23.521  
G15  24432851.489       33477.3310       -280.285          23.263  
G16  21334999.487      414775.7601      -2973.318          16.812  
G18  24710684.449     -421879.5071       3097.168          15.198  
G20  20842946.828       88490.2950       -672.016          30.734  
G21  22811980.095      408117.5690      -2899.010          28.926  
G26  23137306.176      579404.9880      -4116.157          28.477  
R15  21888223.598     -156721.7441       1057.702          15.605  
R01  22727469.800     -519605.3851       3704.725          23.220  
R23  19652831.628      222536.5450      -1604.470          31.386  
R07  21909457.898      340859.0090      -2472.112          32.772  
R08  20872638.573     -195782.6730       1331.022          28.412  
C06  39620056.805        2411.4701        -28.245          18.996  
C09  39309846.859     -109004.3451        785.770          19.360  
C14  26977644.266     1651377.6431      -3410.648          18.424  
> 2018  7  4 14 10 23.0002680  0 18
G07  24434255.717       93098.7270       -721.377          23.274  
G08  22483000.443     -301235.2341       2186.760          19.267  
G10  21334456.863     -204529.9940       1399.142          31.428  
G13  25312352.923      142765.6361      -1048.015          22.858  
G15  24432800.524       33757.6760       -281.029          24.125  
G16  21335453.973      417748.3041      -2973.551          15.062  
G18  24709984.134     -424977.9251       3097.851          15.007  
G20  20842961.818       89162.9180       -673.040          30.478  
G21  22812422.289      411016.8600      -2899.270          28.961  
G26  23137979.210      583520.7760      -4115.750          28.419  
R15  21887967.875     -157779.3821       1058.562          16.110  
R01  22726663.958     -523308.1281       3701.492          22.987  
R23  19653025.593      224141.1010      -1604.902          31.371  
R07  21909822.745      343331.1050      -2472.558          33.015  
R08  20872287.216     -197113.2780       1329.928          28.393  
C06  39619953.077        2441.9881        -28.841          18.876  
C09  39309584.541     -109790.2741        785.086          20.081  
C14  26978188.089     1654788.8141      -3412.037          18.650  
> 2018  7  4 14 10 24.0002676  0 18
G07  24434286.296       93820.0591       -715.342          22.810  
G08  22482471.909     -303422.4661       2186.374          17.927  
G10  21334079.124     -205928.9840       1398.947          31.379  
G13  25312432.368      143812.3231      -1050.154          22.047  
G15  24432733.371       34038.5500       -280.915          23.811  
G16  21335928.244      420721.2681      -2974.824          14.964  
G18  24709284.418     -428073.9681       3100.249          15.209  
G20  20842981.604       89835.9780       -673.032          30.590  
G21  22812858.786      413916.2480      -2899.244          29.429  
G26  23138648.347      587636.8390      -4116.241          28.049  
R15  21887671.980     -158838.3071       1056.845          16.335  
R01  22725868.309     -527010.6051       3697.786          23.195  
R23  19653214.763      225745.9990      -1604.853          31.173  
R07  21910178.599      345804.0200      -2473.364          33.135  
R08  20871922.069     -198443.1450       1329.536          28.880  
C06  39619848.450        2472.7391        -29.874          19.467  
C09  39309322.222     -110575.9611        784.746          19.290  
C14  26978733.412     1658200.0701      -3411.085          18.945  
> 2018  7  4 14 10 25.0002673  0 18
G07  24434308.480       94542.0461       -720.736          22.838  
G08  22481945.173     -305609.4581       2187.793          19.332  
G10  21333701.086     -207327.3980       1397.839          31.311  
G13  25312521.106      144859.6541      -1048.173          22.715  
G15  24432679.408       34320.0930       -282.110          24.187  
G16  21336381.830      423690.2201      -2974.968          15.025  
G18  24708578.407     -431175.0301       3099.303          15.673  
G20  20842995.994       90509.8300       -674.268          30.453  
G21  22813303.379      416815.7030      -2899.586          29.023  
G26  23139324.979      591753.0310      -4116.715          28.422  
R15  21887382.081     -159892.0841       1057.202          16.434  
R01  22725093.045     -530713.0721       3701.527          22.271  
R23  19653404.831      227351.2700      -1605.640          31.194  
R07  21910526.958      348277.6400      -2474.103          33.063  
R08  20871569.813     -199772.2800       1328.435          28.753  
C06  39619744.721        2503.6011        -30.965          18.991  
C09  39309059.005     -111361.6381        785.190          20.493  
C14  26979278.134     1661611.4381      -3411.015          19.347  
> 2018  7  4 14 10 26.0002669  0 18
G07  24434337.860       95264.5811       -722.357          22.378  
G08  22481419.337     -307796.4231       2188.445          19.008  
G10  21333328.444     -208725.3130       1397.636          31.394  
G13  25312611.644      145907.4060      -1047.639          23.069  
G15  24432627.844       34602.1020       -282.256          24.137  
G16  21336842.311      426628.9961      -2972.772          14.714  
G18  24707875.094     -434271.3001       3098.413          16.190  
G20  20843012.783       91184.2180       -675.021          30.616  
G21  22813742.575      419715.3200      -2899.668          28.932  
G26  23139996.814      595869.4210      -4116.311          28.096  
R15  21887083.188     -160950.1681       1055.523          16.418  
R01  22724260.522     -534415.2801       3705.334          22.313  
R23  19653591.901      228956.9010      -1605.769          31.217  
R07  21910884.610      350752.1210      -2475.046          33.594  
R08  20871216.058     -201100.6620       1327.710          28.884  
C06  39619640.993        2534.4631        -30.943          19.486  
C09  39308798.185     -112147.2201        785.641          19.804  
C14  26979822.258     1665023.1311      -3411.521          18.214  
> 2018  7  4 14 10 27.0002665  0 18
G07  24434359.145       95987.8211       -724.598          22.686  
G08  22480890.503     -309983.0641       2187.279          18.090  
G10  21332951.905     -210122.6810       1397.199          31.645  
G13  25312700.982      146955.9681      -1049.476          22.714  
G15  24432572.682       34884.9330       -283.456          23.354  
G16  21337299.195      429603.7401      -2973.497          14.657  
G18  24707173.280     -437370.8621       3098.586          16.233  
G20  20843033.168       91859.3190       -675.445          30.780  
G21  22814187.167      422615.1100      -2899.744          29.130  
G26  23140665.651      599986.1080      -4116.604          27.888  
R15  21886777.399     -162001.3431       1054.816          16.761  
R01  22723450.183     -538117.1011       3705.496          23.468  
R23  19653781.370      230562.9790      -1606.253          31.234  
R07  21911225.174      353227.4550      -2475.743          33.388  
R08  20870858.405     -202428.1340       1326.913          28.686  
C06  39619536.965        2565.7061        -30.835          20.429  
C09  39308536.167     -112932.5271        786.694          19.958  
C14  26980366.681     1668435.2211      -3411.359          17.578  
> 2018  7  4 14 10 28.0002662  0 18
G07  24434381.630       96711.5671       -723.131          22.648  
G08  22480364.068     -312167.6981       2186.620          18.360  
G10  21332573.866     -211519.4690       1396.543          31.625  
G13  25312787.022      148005.1941      -1045.411          21.753  
G15  24432510.625       35168.3210       -284.387          23.200  
G16  21337753.980      432577.9271      -2973.976          15.109  
G18  24706476.562     -440468.1281       3098.878          16.465  
G20  20843052.955       92535.1130       -676.251          30.675  
G21  22814623.665      425514.9990      -2899.860          28.782  
G26  23141341.683      604102.9480      -4116.822          27.964  
R15  21886455.122     -163055.6941       1053.134          16.572  
R01  22722647.638     -541818.6691       3700.340          23.040  
R23  19653967.242      232169.4120      -1606.558          31.482  
R07  21911585.525      355703.5300      -2476.529          33.535  
R08  20870487.562     -203754.8930       1326.563          28.624  
C06  39619432.338        2597.0751        -30.918          19.559  
C09  39308275.347     -113717.6641        785.253          19.880  
C14  26980911.104     1671847.3131      -3413.340          18.803  
> 2018  7  4 14 10 29.0002658  0 18
G07  24434410.410       97435.8140       -724.668          23.078  
G08  22479836.133     -314351.5931       2186.710          17.648  
G10  21332197.927     -212915.7300       1395.497          31.673  
G13  25312873.662      149054.8361      -1047.338          22.838  
G15  24432449.467       35452.1220       -284.480          23.484  
G16  21338228.252      435553.2591      -2975.053          14.886  
G18  24705771.151     -443568.4371       3098.279          16.382  
G20  20843070.343       93211.3980       -676.697          30.601  
G21  22815066.158      428414.9870      -2899.992          28.885  
G26  23142017.715      608219.9990      -4117.309          27.821  
R15  21886084.279     -164108.1811       1052.377          16.322  
R01  22721866.079     -545518.9591       3701.090          23.318  
R23  19654161.207      233776.1700      -1607.199          31.243  
R07  21911931.485      358180.3190      -2477.442          33.243  
R08  20870134.107     -205080.8400       1325.231          28.987  
C06  39619329.209        2628.6341        -31.663          19.244  
C09  39308012.729     -114502.7361        784.807          20.614  
C14  26981455.527     1675259.5751      -3414.372          19.332  
> 2018  7  4 14 10 30.0002654  0 18
G07  24434444.886       98160.7011       -725.587          23.355  
G08  22479313.295     -316540.2271       2186.555          18.578  
G10  21331821.687     -214311.4640       1395.454          31.780  
G13  25312967.497      150105.2910      -1050.482          23.103  
G15  24432393.406       35736.7700       -285.086          23.927  
G16  21338663.850      438527.2801      -2974.694          14.822  
G18  24705073.533     -446666.5061       3098.827          16.618  
G20  20843086.831       93888.5630       -677.473          30.676  
G21  22815503.556      431315.2430      -2900.236          28.773  
G26  23142683.254      612337.4490      -4118.055          27.302  
R15  21885797.078     -165161.2081       1051.364          16.422  
R01  22721055.141     -549220.2901       3703.719          23.655  
R23  19654350.376      235383.4860      -1607.576          31.361  
R07  21912284.641      360658.0680      -2478.135          33.314  
R08  20869779.153     -206405.9070       1324.270          28.590  
C06  39619223.083        2660.3411        -32.222          19.071  
C09  39307751.010     -115287.5781        786.077          19.972  
C14  26982001.149     1678672.2851      -3413.507          18.315  
> 2018  7  4 14 10 31.0002651  0 18
G07  24434470.968       98886.2771       -728.196          22.569  
G08  22478784.761     -318729.9561       2187.055          18.411  
G10  21331442.450     -215706.6890       1394.964          31.956  
G13  25313056.536      151156.2861      -1052.957          22.836  
G15  24432346.638       36021.8950       -285.321          24.150  
G16  21339108.742      441502.8761      -2974.185          14.694  
G18  24704373.218     -449764.0021       3098.812          16.545  
G20  20843108.117       94566.2240       -677.879          30.846  
G21  22815943.951      434215.4930      -2900.147          28.978  
G26  23143352.391      616454.8890      -4117.638          27.106  
R15  21885495.187     -166212.2931       1050.218          16.332  
R01  22720257.993     -552921.0261       3704.545          23.953  
R23  19654537.747      236991.0330      -1607.975          31.324  
R07  21912634.499      363136.4440      -2478.804          33.179  
R08  20869412.506     -207730.2640       1323.922          28.707  
C06  39619117.855        2692.1411        -31.419          19.235  
C09  39307488.992     -116072.4281        786.157          20.026  
C14  26982546.772     1682085.2311      -3412.453          18.028  
> 2018  7  4 14 10 32.0002647  0 18
G07  24434493.752       99612.2231       -722.922          22.764  
G08  22478260.724     -320917.0591       2188.247          19.351  
G10  21331065.910     -217101.2960       1394.530          31.791  
G13  25313142.576      152207.8110      -1051.626          23.207  
G15  24432285.781       36307.7480       -286.524          23.842  
G16  21339552.735      444478.3801      -2975.334          14.630  
G18  24703678.299     -452861.4161       3098.039          16.841  
G20  20843124.006       95244.6370       -678.827          30.799  
G21  22816390.342      437115.9920      -2900.722          28.689  
G26  23144026.624      620572.6390      -4117.865          27.554  
R15  21885209.485     -167261.2711       1050.528          16.159  
R01  22719441.958     -556619.6961       3700.577          23.909  
R23  19654725.717      238599.0510      -1608.315          31.304  
R07  21912981.658      365615.7360      -2479.965          33.385  
R08  20869059.651     -209053.7270       1322.788          28.387  
C06  39619013.528        2724.2251        -30.420          19.426  
C09  39307227.573     -116856.9121        785.583          20.485  
C14  26983091.494     1685498.1241      -3413.454          19.064  
> 2018  7  4 14 10 33.0002643  0 18
G07  24434515.937      100338.9521       -722.037          22.712  
G08  22477733.989     -323102.5231       2187.859          18.699  
G10  21330691.470     -218495.4020       1393.932          31.765  
G13  25313228.916      153259.9550      -1051.979          23.205  
G15  24432233.916       36594.0700       -286.694          24.120  
G16  21340005.122      447455.1821      -2976.082          14.721  
G18  24702928.818     -455959.0471       3098.072          16.720  
G20  20843141.993       95923.6040       -679.133          30.954  
G21  22816830.737      440016.5950      -2900.646          29.084  
G26  23144701.756      624690.6610      -4118.293          27.517  
R15  21884886.608     -168310.0551       1048.642          16.343  
R01  22718644.809     -560320.5321       3699.531          24.420  
R23  19654923.580      240207.4790      -1608.689          31.294  
R07  21913345.906      368095.8580      -2480.655          33.667  
R08  20868707.095     -210376.4760       1322.193          28.706  
C06  39618907.101        2756.5791        -31.400          19.258  
C09  39306966.453     -117641.3831        784.515          20.507  
C14  26983637.716     1688911.5641      -3413.805          19.571  
> 2018  7  4 14 10 34.0002639  0 18
G07  24434554.610      101066.0301       -729.129          22.620  
G08  22477208.752     -325294.9461       2186.794          16.894  
G10  21330313.431     -219888.9450       1393.147          31.985  
G13  25313317.055      154312.8851      -1054.452          22.606  
G15  24432172.759       36881.0740       -287.186          24.270  
G16  21340472.498      450434.0581      -2977.262          14.675  
G18  24702232.700     -459054.8411       3099.720          16.367  
G20  20843161.480       96603.3040       -680.091          30.872  
G21  22817269.633      442917.2700      -2900.510          29.012  
G26  23145378.088      628808.7840      -4118.283          27.393  
R15  21884576.023     -169360.2331       1048.570          16.409  
R01  22717857.554     -564020.9391       3700.492          23.729  
R23  19655114.547      241816.2570      -1609.015          31.027  
R07  21913697.263      370576.6990      -2481.242          33.809  
R08  20868350.342     -211698.4010       1321.260          28.747  
C06  39618801.874        2788.9201        -32.517          19.140  
C09  39306705.634     -118425.7211        784.496          20.419  
C14  26984181.840     1692326.4251      -3414.794          19.173  
> 2018  7  4 14 10 35.0002636  0 18
G07  24434583.390      101793.7251       -730.397          22.811  
G08  22476681.117     -327490.4451       2187.290          17.624  
G10  21329938.391     -221282.0040       1392.643          32.000  
G13  25313407.593      155366.2221      -1055.467          22.720  
G15  24432116.098       37168.6560       -288.233          24.065  
G16  21340929.382      453411.0951      -2978.705          14.596  
G18  24701541.379     -462153.1971       3099.619          17.136  
G20  20843179.167       97283.6040       -680.817          30.842  
G21  22817712.127      445818.1070      -2900.805          29.076  
G26  23146047.225      632927.1650      -4118.512          27.360  
R15  21884281.327     -170407.0971       1047.061          15.640  
R01  22717054.710     -567721.4001       3701.025          23.775  
R23  19655310.012      243425.4270      -1609.338          31.182  
R07  21914057.314      373058.2270      -2481.751          33.699  
R08  20867991.190     -213019.5830       1320.668          28.622  
C06  39618697.846        2821.3451        -32.769          17.807  
C09  39306444.515     -119209.9041        783.999          20.426  
C14  26984726.263     1695742.2431      -3412.802          19.054  
> 2018  7  4 14 10 36.0002632  0 18
G07  24434603.776      102521.9361       -728.084          22.846  
G08  22476153.183     -329680.3241       2183.736          16.442  
G10  21329561.852     -222674.5760       1392.033          31.895  
G13  25313506.524      156420.1971      -1054.208          22.926  
G15  24432060.936       37456.8020       -288.616          24.091  
G16  21341385.966      456386.5321      -2977.839          13.924  
G18  24700845.560     -465251.7211       3098.570          16.911  
G20  20843198.054       97964.4710       -681.035          30.692  
G21  22818153.721      448719.0240      -2901.003          28.726  
G26  23146719.060      637045.6960      -4118.813          27.281  
R15  21883978.837     -171455.1771       1047.373          15.689  
R01  22716230.281     -571421.5571       3698.246          23.352  
R23  19655486.590      245034.9740      -1609.866          31.240  
R07  21914402.075      375540.6220      -2482.991          33.708  
R08  20867633.238     -214340.0060       1319.901          28.678  
C06  39618593.518        2853.9821        -32.464          19.315  
C09  39306182.796     -119993.9791        784.592          20.197  
C14  26985270.086     1699156.4241      -3413.923          19.675  
> 2018  7  4 14 10 37.0002628  0 18
G07  24434635.854      103250.7611       -729.894          21.882  
G08  22475627.047     -331863.1501       2182.223          16.641  
G10  21329188.310     -224066.6680       1391.747          31.843  
G13  25313596.762      157474.5210      -1054.226          23.540  
G15  24432009.072       37745.5330       -289.427          24.664  
G16  21341838.353      459363.3971      -2977.138          13.513  
G18  24700147.943     -468346.9151       3097.127          18.178  
G20  20843215.442       98646.0500       -682.236          30.257  
G21  22818592.317      451620.0830      -2901.290          28.906  
G26  23147392.693      641164.3980      -4118.987          27.195  
R15  21883673.948     -172502.6811       1046.701          15.477  
R01  22715434.032     -575121.7681       3701.239          22.498  
R23  19655679.956      246644.8430      -1610.413          31.192  
R07  21914752.533      378023.7400      -2483.498          33.442  
R08  20867275.286     -215659.6080       1318.841          28.861  
C06  39618487.991        2886.9541        -33.267          18.261  
C09  39305921.377     -120778.0071        784.345          20.891  
C14  26985815.109     1702570.2711      -3414.156          19.536  
> 2018  7  4 14 10 38.0002625  0 18
G07  24434655.940      103980.1171       -727.363          22.686  
G08  22475102.111     -334039.1151       2182.609          18.293  
G10  21328810.871     -225458.2750       1391.308          31.941  
G13  25313680.704      158529.6020      -1055.156          23.286  
G15  24431955.109       38034.7150       -289.233          24.864  
G16  21342267.056      462345.2271      -2977.101          12.754  
G18  24699452.725     -471441.5441       3097.508          18.676  
G20  20843234.029       99328.0080       -682.220          30.438  
G21  22819035.111      454521.1110      -2901.220          29.241  
G26  23148068.426      645283.1990      -4118.970          27.585  
R15  21883402.636     -173547.4821       1045.029          15.666  
R01  22714626.092     -578827.6231       3700.254          22.586  
R23  19655875.121      248254.9310      -1610.219          31.286  
R07  21915098.493      380507.5480      -2484.248          33.508  
R08  20866922.430     -216978.6160       1318.592          29.052  
C06  39618383.364        2919.7401        -32.119          18.663  
C09  39305660.857     -121562.0211        784.095          20.427  
C14  26986360.132     1705984.7891      -3414.897          19.713  
> 2018  7  4 14 10 39.0002621  0 18
G07  24434684.420      104710.0191       -729.133          22.802  
G08  22474574.476     -336223.6861       2182.699          17.743  
G10  21328435.831     -226849.5510       1390.802          31.986  
G13  25313774.239      159585.0430      -1055.886          23.250  
G15  24431898.748       38324.3380       -289.714          23.720  
G16  21342717.944      465322.3901      -2981.902          11.894  
G18  24698754.208     -474539.8381       3097.931          18.421  
G20  20843255.914      100010.5990       -682.779          30.412  
G21  22819477.005      457422.0770      -2901.044          29.309  
G26  23148740.860      649402.0630      -4119.169          27.298  
R15  21883067.168     -174592.0881       1043.718          15.511  
R01  22713813.654     -582531.0691       3696.336          21.881  
R23  19656064.889      249865.2710      -1610.528          31.530  
R07  21915465.739      382991.9340      -2484.944          33.345  
R08  20866552.486     -218296.9220       1318.005          29.170  
C06  39618278.437        2952.6701        -30.759          19.547  
C09  39305400.937     -122345.9441        782.833          21.157  
C14  26986904.855     1709399.0411      -3414.591          19.866  
> 2018  7  4 14 10 40.0002617  0 17
G07  24434725.791      105440.2191       -729.189          22.691  
G08  22474045.942     -338403.7371       2183.189          17.676  
G10  21328060.791     -228240.2490       1390.232          32.265  
G13  25313863.277      160641.1100      -1057.208          24.094  
G15  24431836.991       38614.6710       -290.779          23.815  
G18  24698053.893     -477637.8901       3098.183          17.897  
G20  20843275.101      100693.8040       -683.613          30.408  
G21  22819917.400      460323.2280      -2901.393          28.848  
G26  23149412.995      653521.1630      -4119.394          27.356  
R15  21882763.178     -175636.8481       1045.198          15.310  
R01  22713016.206     -586232.8961       3704.574          21.829  
R23  19656254.058      251476.0370      -1611.238          31.355  
R07  21915811.699      385477.2610      -2485.924          33.003  
R08  20866193.935     -219614.4590       1316.966          29.043  
C06  39618174.109        2985.7971        -31.826          19.074  
C09  39305142.216     -123129.7941        786.953          20.799  
C14  26987450.777     1712813.7111      -3415.055          19.526  
> 2018  7  4 14 10 41.0002614  0 17
G07  24434747.976      106171.3270       -730.921          23.251  
G08  22473519.506     -340580.4201       2182.399          17.946  
G10  21327685.750     -229630.2940       1389.632          32.067  
G13  25313957.112      161697.8620      -1057.272          24.561  
G15  24431789.324       38905.7800       -291.809          23.412  
G18  24697357.475     -480736.9761       3098.039          18.019  
G20  20843290.990      101377.7710       -684.237          30.495  
G21  22820357.495      463224.6220      -2901.324          28.674  
G26  23150084.530      657640.6030      -4119.888          27.201  
R15  21882438.803     -176679.0261       1043.983          15.547  
R01  22712199.272     -589932.3061       3700.611          22.544  
R23  19656448.624      253087.2940      -1611.594          31.228  
R07  21916167.853      387963.3720      -2486.465          33.296  
R08  20865837.481     -220930.9580       1315.691          28.968  
C06  39618068.582        3019.6151        -33.024          18.719  
C09  39304884.695     -123912.6921        783.667          19.876  
C14  26987994.600     1716228.6011      -3414.822          18.086  
> 2018  7  4 14 10 42.0002610  0 18
G07  24434769.261      106903.0261       -729.580          22.429  
G08  22472991.871     -342757.7771       2182.162          17.207  
G10  21327313.108     -231019.8380       1388.893          32.606  
G13  25314049.448      162755.1790      -1057.592          24.920  
G15  24431731.764       39197.2890       -291.743          23.728  
G16  21344066.710      474262.8471      -2979.420          10.714  
G18  24696656.560     -483840.8911       3100.101          17.883  
G20  20843313.175      102062.3700       -685.321          30.523  
G21  22820801.188      466126.1650      -2901.731          28.859  
G26  23150755.166      661760.2200      -4120.074          26.987  
R15  21882085.647     -177723.1561       1041.141          15.713  
R01  22711412.916     -593631.5051       3696.932          22.218  
R23  19656635.694      254698.8220      -1611.747          30.918  
R07  21916513.513      390450.3470      -2487.587          33.565  
R08  20865481.028     -222246.8160       1315.157          29.138  
C06  39617964.854        3053.1331        -32.410          19.123  
C09  39304619.378     -124696.2091        781.383          19.935  
C14  26988538.723     1719643.7461      -3415.840          19.534  
> 2018  7  4 14 10 43.0002606  0 18
G07  24434793.844      107635.2721       -732.283          22.549  
G08  22472466.635     -344934.6921       2182.512          17.831  
G10  21326938.068     -232408.8380       1388.514          32.705  
G13  25314135.189      163813.1850      -1058.301          24.898  
G15  24431670.606       39489.6100       -292.804          24.276  
G16  21344541.581      477243.2411      -2981.215          10.370  
G18  24695960.742     -486941.4391       3099.615          18.062  
G20  20843332.661      102747.5580       -685.406          30.666  
G21  22821248.478      469027.7910      -2901.667          29.118  
G26  23151429.099      665880.0190      -4119.759          26.407  
R15  21881803.842     -178765.9581       1041.528          15.371  
R01  22710609.172     -597330.3401       3698.019          22.237  
R23  19656821.266      256310.9320      -1612.412          31.090  
R07  21916864.271      392937.9980      -2488.140          33.658  
R08  20865134.468     -223561.8680       1314.431          29.154  
C06  39617858.727        3086.8921        -32.230          18.717  
C09  39304358.259     -125479.5901        781.478          19.125  
C14  26989085.545     1723059.0951      -3415.596          18.929  
> 2018  7  4 14 10 44.0002603  0 17
G07  24434834.616      108368.2271       -736.014          22.620  
G08  22471943.797     -347109.5181       2182.172          17.923  
G10  21326561.229     -233797.2180       1387.899          32.600  
G13  25314228.724      164871.8050      -1059.159          24.826  
G15  24431615.445       39782.4040       -293.025          23.577  
G18  24695263.725     -490039.2191       3098.941          17.354  
G20  20843351.548      103433.5650       -686.331          30.490  
G21  22821687.375      471929.6670      -2902.127          29.330  
G26  23152105.431      670000.1330      -4120.297          26.181  
R15  21881510.346     -179806.7701       1038.836          15.674  
R01  22709814.123     -601029.0371       3702.149          22.702  
R23  19657008.336      257923.3510      -1612.500          30.769  
R07  21917228.818      395426.6140      -2489.300          33.848  
R08  20864778.015     -224876.0020       1313.249          29.031  
C06  39617754.999        3120.8601        -32.166          19.041  
C09  39304096.240     -126262.5971        782.688          19.492  
C14  26989630.268     1726474.7691      -3414.259          18.327  
> 2018  7  4 14 10 45.0002599  0 17
G07  24434867.893      109101.6461       -734.539          22.565  
G08  22471414.364     -349294.4031       2183.289          18.719  
G10  21326187.088     -235185.0950       1387.463          32.464  
G13  25314318.662      165931.0650      -1059.954          24.657  
G15  24431568.077       40075.9471       -296.613          24.263  
G18  24694569.106     -493137.7611       3098.347          18.180  
G20  20843369.835      104120.1950       -686.979          30.272  
G21  22822126.571      474831.6150      -2902.098          29.170  
G26  23152779.964      674120.4660      -4120.560          26.257  
R15  21881198.861     -180846.2781       1040.002          15.526  
R01  22708996.889     -604727.5131       3700.289          23.043  
R23  19657209.797      259536.2700      -1613.177          31.061  
R07  21917577.477      397915.9420      -2490.007          33.593  
R08  20864418.264     -226189.4260       1312.584          28.623  
C06  39617649.772        3154.8391        -33.220          17.680  
C09  39303835.121     -127045.6121        782.612          20.283  
C14  26990174.991     1729890.6881      -3415.242          18.846  
> 2018  7  4 14 10 46.0002595  0 17
G07  24434892.476      109835.5301       -734.476          22.612  
G08  22470884.630     -351478.0321       2183.709          18.662  
G10  21325809.649     -236572.4720       1387.003          32.359  
G13  25314402.604      166990.8210      -1060.418          24.007  
G15  24431498.526       40369.9840       -294.451          23.437  
G18  24693869.690     -496238.4841       3098.444          17.094  
G20  20843388.722      104807.4010       -687.729          30.218  
G21  22822570.263      477733.6530      -2902.432          29.165  
G26  23153452.099      678240.9180      -4120.878          26.688  
R15  21880926.350     -181884.3631       1038.256          15.583  
R01  22708179.954     -608421.3291       3694.331          21.921  
R23  19657398.066      261149.4800      -1613.524          31.082  
R07  21917945.322      400406.0340      -2490.757          33.505  
R08  20864057.913     -227502.0610       1312.156          28.539  
C06  39617544.844        3189.0601        -33.917          19.176  
C09  39303573.702     -127828.5051        782.303          19.746  
C14  26990721.213     1733306.7521      -3415.008          19.137  
> 2018  7  4 14 10 47.0002591  0 17
G07  24434912.862      110570.0920       -734.565          23.495  
G08  22470356.396     -353657.0671       2182.718          17.937  
G10  21325438.206     -237959.3620       1386.604          32.541  
G13  25314503.034      168051.1520      -1060.784          23.976  
G15  24431455.955       40664.5860       -295.168          23.220  
G18  24693175.370     -499340.2371       3098.789          17.638  
G20  20843410.307      105495.2050       -688.080          30.328  
G21  22823012.457      480635.7810      -2902.018          29.456  
G26  23154127.831      682361.6170      -4121.115          27.259  
R15  21880618.163     -182921.8951       1037.570          15.696  
R01  22707355.525     -612113.0761       3697.097          22.055  
R23  19657587.535      262763.0210      -1613.564          31.087  
R07  21918281.090      402896.8430      -2491.005          33.362  
R08  20863704.158     -228813.9930       1311.660          28.985  
C06  39617440.816        3223.4341        -32.378          19.357  
C09  39303312.283     -128611.2371        782.272          19.852  
C14  26991266.235     1736722.9431      -3414.679          19.223  
> 2018  7  4 14 10 48.0002588  0 17
G07  24434942.541      111305.2600       -735.656          23.656  
G08  22469831.459     -355838.2081       2184.051          18.288  
G10  21325064.965     -239345.7320       1386.096          32.894  
G13  25314597.169      169112.0760      -1061.032          24.314  
G15  24431395.996       40959.8931       -297.584          22.902  
G18  24692477.454     -502436.5221       3098.116          19.538  
G20  20843429.494      106183.6490       -688.799          30.172  
G21  22823456.150      483538.0080      -2902.174          29.269  
G26  23154798.167      686482.3930      -4121.113          26.721  
R15  21880303.681     -183959.5181       1036.815          15.252  
R01  22706644.117     -615808.5961       3697.823          22.278  
R23  19657779.403      264376.9450      -1614.065          31.062  
R07  21918643.239      405388.3890      -2491.659          33.572  
R08  20863360.896     -230125.0160       1310.681          28.878  
C06  39617337.088        3257.7821        -33.380          18.879  
C09  39303051.464     -129393.8561        781.980          19.905  
C14  26991812.157     1740139.5031      -3415.273          19.137  
> 2018  7  4 14 10 49.0002584  0 17
G07  24434977.317      112040.7670       -735.691          23.849  
G08  22469305.024     -358017.5821       2182.871          19.182  
G10  21324691.124     -240731.6300       1385.654          33.061  
G13  25314686.507      170173.4990      -1061.632          24.816  
G15  24431344.432       41255.5390       -296.193          23.522  
G18  24691775.939     -505537.5771       3099.573          19.075  
G20  20843451.679      106872.6210       -689.119          30.210  
G21  22823893.847      486440.3570      -2902.455          29.042  
G26  23155477.496      690603.4090      -4121.258          26.658  
R15  21879993.396     -184995.8571       1036.329          14.957  
R01  22705797.503     -619508.8521       3696.675          21.568  
R23  19657974.867      265991.1320      -1614.193          31.246  
R07  21919006.587      407880.7750      -2492.916          33.756  
R08  20862991.851     -231435.4130       1309.904          28.523  
C06  39617234.259        3292.4121        -33.319          19.527  
C09  39302790.644     -130176.4571        779.983          20.526  
C14  26992356.880     1743556.0451      -3414.910          18.796  
> 2018  7  4 14 10 50.0002580  0 17
G07  24435013.592      112776.9320       -736.586          24.273  
G08  22468781.286     -360195.9311       2182.257          18.343  
G10  21324317.882     -242117.0570       1385.116          33.194  
G13  25314773.147      171235.4800      -1062.094          24.541  
G15  24431291.369       41551.7970       -296.422          23.116  
G18  24691075.324     -508640.0051       3099.637          19.221  
G20  20843473.564      107562.2380       -689.836          30.143  
G21  22824335.741      489342.7310      -2902.584          28.981  
G26  23156149.032      694724.5100      -4121.226          27.130  
R15  21879672.018     -186034.1061       1035.853          14.859  
R01  22704979.070     -623206.5511       3696.819          21.930  
R23  19658164.336      267605.6310      -1614.319          31.257  
R07  21919366.938      410373.7760      -2493.482          33.603  
R08  20862648.589     -232745.1010       1309.554          28.752  
C06  39617129.332        3325.9961        -33.766          19.776  
C09  39302530.125     -130958.9541        780.209          20.293  
C14  26992901.903     1746972.8001      -3414.121          19.207  
> 2018  7  4 14 10 51.0002577  0 17
G07  24435038.475      113513.6460       -737.347          24.264  
G08  22468252.153     -362372.9691       2182.484          17.736  
G10  21323944.341     -243501.9720       1384.320          32.877  
G13  25314872.678      172298.0140      -1062.451          24.278  
G15  24431245.201       41848.6130       -296.906          24.646  
G18  24690373.810     -511734.9211       3098.266          17.537  
G20  20843492.750      108252.4650       -690.917          30.114  
G21  22824776.736      492245.1670      -2902.658          28.793  
G26  23156817.269      698845.7500      -4121.375          26.312  
R15  21879357.836     -187069.0741       1035.773          14.952  
R01  22704161.536     -626904.0151       3698.240          20.624  
R23  19658355.304      269220.5680      -1615.306          31.286  
R07  21919710.800      412867.6430      -2494.380          33.774  
R08  20862290.337     -234053.9740       1308.088          29.015  
C06  39617026.803        3360.6821        -34.104          18.875  
C09  39302269.605     -131741.3591        782.131          20.268  
C14  26993449.024     1750389.7021      -3415.561          19.316  
> 2018  7  4 14 10 52.0002573  0 17
G07  24435071.752      114250.9410       -737.838          24.478  
G08  22467731.113     -364555.3091       2181.480          18.675  
G10  21323564.204     -244886.3070       1384.060          32.927  
G13  25314957.819      173361.2340      -1063.270          24.252  
G15  24431187.641       42146.1730       -297.417          24.233  
G18  24689678.891     -514827.7391       3099.768          16.587  
G20  20843510.138      108943.3340       -690.947          29.919  
G21  22825216.531      495147.7720      -2902.473          28.690  
G26  23157494.500      702967.3240      -4121.515          26.292  
R15  21879088.622     -188107.0451       1034.039          15.085  
R01  22703400.063     -630603.4551       3700.129          19.868  
R23  19658534.280      270835.8500      -1615.366          31.102  
R07  21920075.048      415362.2830      -2495.035          33.744  
R08  20861937.481     -235362.0100       1307.803          28.900  
C06  39616922.175        3395.5381        -33.974          18.732  
C09  39302008.186     -132523.6551        781.995          21.263  
C14  26993994.347     1753806.9061      -3415.465          18.271  
> 2018  7  4 14 10 53.0002569  0 17
G07  24435100.232      114988.6790       -738.430          24.680  
G08  22467204.978     -366737.2801       2183.996          19.548  
G10  21323194.260     -246270.2200       1383.612          32.904  
G13  25315050.755      174425.0190      -1064.253          24.384  
G15  24431126.483       42444.2560       -298.445          23.810  
G18  24688973.180     -517919.5111       3097.215          17.553  
G20  20843534.122      109634.8060       -691.959          30.072  
G21  22825658.725      498050.4660      -2902.716          28.842  
G26  23158164.836      707089.0350      -4122.059          26.384  
R15  21878815.511     -189136.9091       1035.516          15.618  
R01  22702566.640     -634308.8191       3695.758          20.671  
R23  19658739.938      272451.4500      -1615.888          31.162  
R07  21920422.807      417857.5870      -2495.512          33.547  
R08  20861582.227     -236669.3720       1306.746          28.621  
C06  39616817.548        3430.7141        -34.077          18.942  
C09  39301746.467     -133305.7531        782.472          20.929  
C14  26994539.369     1757224.3521      -3417.491          18.111  
> 2018  7  4 14 10 54.0002566  0 17
G07  24435125.415      115726.9310       -738.557          24.868  
G08  22466676.144     -368919.5441       2183.912          19.568  
G10  21322818.020     -247653.6340       1383.046          32.975  
G13  25315141.592      175489.2540      -1064.530          24.183  
G15  24431072.221       42742.8091       -296.967          22.953  
G18  24688274.064     -521020.3521       3099.088          17.274  
G20  20843557.206      110326.8820       -692.358          30.072  
G21  22826099.720      500953.2880      -2903.317          28.243  
G26  23158844.466      711210.8440      -4121.854          26.598  
R15  21878505.226     -190169.8241       1032.945          15.616  
R01  22701782.083     -638006.0661       3693.906          20.509  
R23  19658930.606      274067.4130      -1616.099          31.095  
R07  21920783.757      420353.6660      -2496.434          33.587  
R08  20861222.776     -237976.0050       1305.851          28.580  
C06  39616714.120        3466.0041        -35.482          18.927  
C09  39301484.448     -134087.8251        782.666          20.780  
C14  26995087.989     1760640.3801      -3418.259          16.555  
> 2018  7  4 14 10 55.0002562  0 17
G07  24435162.589      116465.8160       -739.512          24.261  
G08  22466147.610     -371101.6941       2183.718          19.260  
G10  21322445.678     -249036.5870       1382.503          33.010  
G13  25315236.027      176554.0830      -1065.205          23.960  
G15  24431016.759       43041.9911       -301.820          22.891  
G18  24687570.750     -524125.2361       3099.127          16.894  
G20  20843575.193      111019.5600       -693.157          30.103  
G21  22826541.614      503856.0680      -2903.155          28.441  
G26  23159521.097      715332.8070      -4122.540          26.706  
R15  21878212.928     -191202.2201       1031.737          15.046  
R01  22700974.442     -641702.7931       3699.553          20.939  
R23  19659112.879      275683.6900      -1616.770          31.093  
R07  21921124.321      422850.4690      -2497.322          33.250  
R08  20860866.023     -239281.9210       1305.165          28.338  
C06  39616610.092        3501.2251        -34.907          17.897  
C09  39301223.329     -134869.8161        782.111          20.327  
C14  26995633.612     1764059.1151      -3416.652          16.950  
> 2018  7  4 14 10 56.0002558  0 17
G07  24435183.874      117205.2450       -739.765          24.291  
G08  22465619.076     -373283.6701       2182.176          18.333  
G10  21322071.837     -250418.9630       1382.171          33.164  
G13  25315335.558      177619.5140      -1065.588          23.822  
G15  24430969.692       43341.7500       -300.082          23.006  
G18  24686869.836     -527222.5011       3098.067          17.493  
G20  20843600.376      111712.8660       -693.599          30.159  
G21  22826981.110      506759.0410      -2903.057          28.559  
G26  23160194.431      719455.0380      -4122.574          25.983  
R15  21877888.253     -192235.7891       1029.831          14.494  
R01  22700150.013     -645399.4251       3700.221          21.975  
R23  19659304.447      277300.4020      -1616.988          30.645  
R07  21921489.768      425348.0170      -2497.746          33.345  
R08  20860511.368     -240587.0360       1304.996          28.306  
C06  39616507.263        3536.8321        -35.510          18.641  
C09  39300962.210     -135651.6251        781.872          20.779  
C14  26996178.634     1767477.2131      -3418.219          18.048  
> 2018  7  4 14 10 57.0002555  0 17
G07  24435210.856      117945.2090       -740.146          24.709  
G08  22465093.539     -375465.4731       2180.597          18.850  
G10  21321697.096     -251800.7910       1381.638          33.234  
G13  25315424.296      178685.5940      -1066.835          23.982  
G15  24430905.536       43642.0521       -298.355          22.530  
G18  24686167.122     -530319.5071       3098.323          17.874  
G20  20843618.363      112406.7610       -694.086          30.313  
G21  22827425.702      509662.1530      -2903.222          28.596  
G26  23160863.568      723577.4060      -4122.559          25.925  
R15  21877554.584     -193266.1851       1028.598          14.987  
R01  22699351.066     -649095.8261       3692.874          21.079  
R23  19659504.109      278917.4470      -1617.085          30.743  
R07  21921850.119      427846.4420      -2498.746          33.416  
R08  20860154.915     -241891.2540       1303.809          28.444  
C06  39616404.434        3572.5171        -36.162          19.560  
C09  39300701.391     -136433.2891        780.655          20.497  
C14  26996724.257     1770895.3211      -3417.549          18.294  
> 2018  7  4 14 10 58.0002551  0 17
G07  24435244.732      118685.6980       -740.421          24.460  
G08  22464567.703     -377646.9761       2180.238          18.466  
G10  21321324.754     -253182.2150       1381.030          33.156  
G13  25315512.136      179751.9940      -1066.255          24.669  
G15  24430856.970       43943.0191       -302.567          22.731  
G18  24685462.910     -533416.8251       3097.981          18.358  
G20  20843644.745      113101.3080       -694.819          30.350  
G21  22827868.196      512565.2770      -2903.270          28.476  
G26  23161533.904      727699.8690      -4121.817          25.344  
R15  21877257.790     -194294.4831       1029.648          14.340  
R01  22698558.715     -652785.2591       3693.842          21.006  
R23  19659694.477      280534.8430      -1617.764          30.683  
R07  21922197.578      430345.5160      -2499.567          33.706  
R08  20859804.758     -243194.8040       1303.103          28.042  
C06  39616300.106        3608.2181        -35.176          18.942  
C09  39300442.070     -137214.9351        781.987          21.115  
C14  26997270.479     1774313.7351      -3417.620          18.880  
> 2018  7  4 14 10 59.0002547  0 17
G07  24435277.709      119426.8410       -741.847          23.776  
G08  22464040.668     -379828.6701       2180.860          18.894  
G10  21320951.213     -254563.1170       1380.672          33.090  
G13  25315611.367      180819.1590      -1067.617          24.495  
G15  24430806.904       44244.4240       -301.533          23.496  
G18  24684767.091     -536514.4441       3097.171          18.400  
G20  20843666.030      113796.4470       -695.564          30.271  
G21  22828310.390      515468.5130      -2903.588          28.815  
G26  23162209.336      731822.6240      -4122.642          25.594  
R15  21876937.311     -195322.9901       1029.465          13.895  
R01  22697795.143     -656479.1281       3697.408          20.371  
R23  19659893.539      282152.5420      -1617.777          30.587  
R07  21922550.734      432845.3600      -2500.236          33.642  
R08  20859456.399     -244497.6230       1302.449          28.280  
C06  39616197.577        3644.0411        -35.815          19.203  
C09  39300181.550     -137996.4781        781.584          21.019  
C14  26997814.902     1777732.1521      -3418.853          17.755  
> 2018  7  4 14 11  0.0002543  0 17
G07  24435305.890      120168.2460       -741.664          24.220  
G08  22463515.732     -382007.0011       2180.071          19.379  
G10  21320577.671     -255943.6240       1380.077          33.179  
G13  25315701.005      181886.7100      -1067.916          24.217  
G15  24430752.042       44546.4351       -302.200          22.843  
G18  24684069.174     -539615.6261       3097.015          17.364  
G20  20843686.416      114492.0420       -696.063          30.358  
G21  22828751.384      518371.7060      -2903.397          28.169  
G26  23162880.571      735945.4230      -4122.678          25.803  
R15  21876669.597     -196349.8411       1029.540          13.700  
R01  22696981.806     -660179.2361       3700.632          20.624  
R23  19660086.605      283770.5230      -1618.361          30.777  
R07  21922922.477      435345.7600      -2500.620          33.183  
R08  20859092.751     -245799.7650       1301.526          27.956  
C06  39616093.549        3680.2211        -34.755          19.480  
C09  39299921.031     -138778.0121        780.805          20.513  
C14  26998359.025     1781151.0001      -3418.472          19.343  
> 2018  7  4 14 11  1.0002540  0 17
G07  24435343.963      120910.2560       -742.644          23.962  
G08  22462994.093     -384181.4581       2179.571          19.844  
G10  21320205.029     -257323.7060       1379.761          33.252  
G13  25315794.840      182954.7330      -1068.611          24.662  
G15  24430692.683       44848.7821       -301.212          22.151  
G18  24683373.656     -542717.7911       3096.583          16.340  
G20  20843708.601      115188.2040       -696.391          30.346  
G21  22829195.677      521274.9410      -2903.390          28.457  
G26  23163559.601      740068.2730      -4122.826          25.802  
R15  21876397.685     -197377.7991       1025.759          13.382  
R01  22696170.568     -663882.8381       3693.367          21.386  
R23  19660268.879      285388.7190      -1618.413          31.020  
R07  21923271.735      437846.8760      -2501.302          33.620  
R08  20858731.800     -247101.2590       1300.726          28.125  
C06  39615990.421        3716.2411        -36.314          19.411  
C09  39299661.111     -139559.5081        781.347          20.755  
C14  26998904.647     1784569.5841      -3418.442          18.471  
> 2018  7  4 14 11  2.0002536  0 17
G07  24435373.343      121652.7390       -742.572          23.313  
G08  22462470.955     -386358.1621       2180.364          19.027  
G10  21319830.888     -258703.2310       1379.342          33.330  
G13  25315882.080      184023.3590      -1068.918          24.761  
G15  24430640.819       45151.8691       -304.609          22.427  
G18  24682674.240     -545817.1531       3096.301          18.642  
G20  20843727.788      115885.0450       -697.370          30.563  
G21  22829637.871      524178.3290      -2903.558          28.490  
G26  23164235.633      744191.4560      -4123.591          26.081  
R15  21876081.404     -198403.6781       1025.648          13.715  
R01  22695348.837     -667579.1521       3692.436          21.502  
R23  19660464.644      287007.3270      -1618.678          30.907  
R07  21923639.280      440348.8210      -2502.282          33.526  
R08  20858380.444     -248401.9610       1300.459          28.197  
C06  39615886.992        3752.3091        -36.431          18.641  
C09  39299399.992     -140340.9251        782.063          21.061  
C14  26999450.869     1787988.5471      -3417.347          18.837  
> 2018  7  4 14 11  3.0002532  0 17
G07  24435399.725      122395.7990       -743.258          23.942  
G08  22461949.616     -388539.0571       2180.466          19.873  
G10  21319461.544     -260082.2460       1378.685          33.345  
G13  25315977.114      185092.5570      -1069.183          24.373  
G15  24430590.754       45455.6011       -303.014          22.891  
G18  24681972.726     -548914.2051       3096.240          18.495  
G20  20843750.272      116582.5170       -698.153          30.654  
G21  22830079.165      527081.8350      -2903.947          28.348  
G26  23164908.967      748314.6830      -4123.706          25.557  
R15  21875790.306     -199430.1611       1024.721          13.397  
R01  22694545.093     -671274.7021       3697.220          21.540  
R23  19660654.412      288626.3030      -1619.333          30.476  
R07  21923994.834      442851.5840      -2503.390          33.605  
R08  20858025.489     -249701.9740       1299.695          28.022  
C06  39615783.864        3788.7951        -35.347          18.457  
C09  39299140.371     -141122.2011        780.923          20.889  
C14  26999994.992     1791407.5611      -3416.423          19.542  
> 2018  7  4 14 11  4.0002529  0 17
G07  24435431.803      123139.5630       -744.423          23.459  
G08  22461423.480     -390719.9221       2180.539          20.276  
G10  21319087.403     -261460.7910       1378.306          33.301  
G13  25316070.649      186162.3600      -1069.885          23.931  
G15  24430541.288       45759.6531       -304.869          22.904  
G18  24681273.010     -552011.3221       3095.440          17.383  
G20  20843772.457      117280.5550       -698.359          30.324  
G21  22830518.361      529985.3250      -2903.386          27.982  
G26  23165586.798      752438.1320      -4123.799          25.505  
R15  21875479.721     -200454.5911       1025.204          12.952  
R01  22693752.142     -674970.1301       3695.972          20.373  
R23  19660848.977      290245.5990      -1619.408          30.443  
R07  21924347.390      445355.0260      -2503.685          33.525  
R08  20857671.435     -251001.0150       1298.545          27.862  
C06  39615677.737        3825.1761        -34.703          20.000  
C09  39298878.652     -141903.3961        785.827          20.659  
C14  27000541.814     1794827.0541      -3416.534          19.489  
> 2018  7  4 14 11  5.0002525  0 17
G07  24435464.480      123883.6670       -745.325          24.042  
G08  22460896.445     -392900.9571       2179.963          20.838  
G10  21318712.962     -262838.9290       1377.782          33.251  
G13  25316162.086      187232.5630      -1070.019          24.258  
G15  24430488.525       46064.2541       -305.107          22.711  
G18  24680570.896     -555108.4051       3096.362          18.403  
G20  20843798.239      117979.0660       -699.035          30.611  
G21  22830965.951      532888.8790      -2903.404          28.120  
G26  23166257.733      756561.6010      -4124.099          25.107  
R15  21875173.632     -201479.4301       1021.872          12.282  
R01  22692959.191     -678664.3301       3692.285          20.084  
R23  19661039.346      291865.0960      -1619.676          30.393  
R07  21924699.646      447859.0790      -2504.597          33.346  
R08  20857330.870     -252299.5870       1298.116          27.850  
C06  39615574.309        3861.6681        -34.834          18.744  
C09  39298618.732     -142684.5501        781.231          20.518  
C14  27001086.537     1798246.5761      -3416.074          18.097  
> 2018  7  4 14 11  6.0002521  0 15
G07  24435496.858      124628.1160       -745.098          24.415  
G08  22460371.808     -395081.4661       2180.506          19.615  
G10  21318340.620     -264216.6290       1377.493          33.298  
G13  25316256.820      188303.3240      -1070.733          23.952  
G15  24430440.558       46369.2830       -304.657          23.400  
G20  20843818.924      118678.1290       -699.393          30.402  
G21  22831402.449      535792.4600      -2903.588          28.326  
G26  23166931.967      760685.1750      -4123.554          25.186  
R01  22692157.846     -682350.8391       3693.880          20.483  
R23  19661229.414      293484.9630      -1619.684          30.450  
R07  21925062.995      450363.7920      -2504.963          33.496  
R08  20856980.413     -253597.2860       1297.434          27.917  
C06  39615470.580        3898.1961        -35.958          18.517  
C09  39298357.913     -143465.5551        782.618          19.980  
C14  27001633.958     1801665.9671      -3417.293          18.473  
> 2018  7  4 14 11  7.0002518  0 16
G07  24435530.734      125373.0500       -745.021          24.111  
G08  22459846.272     -397261.4611       2181.596          18.912  
G10  21317967.078     -265593.9610       1376.890          33.401  
G13  25316347.058      189374.5300      -1071.418          24.325  
G15  24430386.895       46675.0440       -306.603          23.518  
G18  24679171.165     -561310.1521       3096.164          17.204  
G20  20843842.008      119377.7490       -700.035          30.215  
G21  22831841.645      538696.0230      -2903.752          28.038  
G26  23167598.705      764808.8500      -4123.981          24.910  
R01  22691342.710     -686047.3061       3694.751          20.886  
R23  19661418.883      295105.0600      -1620.446          30.649  
R07  21925413.452      452869.2590      -2505.845          33.392  
R08  20856625.459     -254894.5450       1296.655          27.499  
C06  39615366.852        3934.7651        -35.357          19.162  
C09  39298097.393     -144246.7031        781.922          19.893  
C14  27002179.880     1805085.6511      -3416.694          18.472  
> 2018  7  4 14 11  8.0002514  0 16
G07  24435562.212      126118.5450       -745.118          23.468  
G08  22459318.937     -399442.0151       2181.332          17.318  
G10  21317595.036     -266970.7450       1376.369          33.438  
G13  25316442.991      190446.3320      -1072.004          24.172  
G15  24430328.735       46981.1800       -307.148          23.327  
G18  24678469.651     -564404.3291       3096.153          18.427  
G20  20843863.893      120077.9320       -700.663          30.238  
G21  22832281.740      541599.6590      -2903.697          28.015  
G26  23168279.234      768932.6950      -4123.907          24.951  
R01  22690562.950     -689747.5011       3694.562          20.311  
R23  19661615.247      296725.5060      -1620.879          30.925  
R07  21925778.000      455375.4260      -2506.444          33.388  
R08  20856263.309     -256190.9030       1295.821          27.712  
C06  39615262.225        3971.5031        -33.514          18.449  
C09  39297836.574     -145027.6421        781.430          19.610  
C14  27002726.102     1808505.4711      -3417.526          18.645  
> 2018  7  4 14 11  9.0002510  0 16
G07  24435596.089      126864.5970       -746.158          23.475  
G08  22458789.204     -401622.1101       2179.530          18.337  
G10  21317222.694     -268347.1600       1376.097          33.348  
G13  25316538.025      191518.5990      -1072.704          24.172  
G15  24430286.764       47287.8600       -307.459          23.777  
G18  24677767.237     -567493.6941       3095.688          18.263  
G20  20843886.977      120778.6550       -700.975          29.995  
G21  22832727.532      544503.3090      -2903.596          27.898  
G26  23168955.266      773056.5940      -4124.273          25.266  
R01  22689716.936     -693442.4931       3693.131          20.778  
R23  19661810.412      298346.1490      -1620.849          30.621  
R07  21926130.855      457882.2140      -2507.255          33.492  
R08  20855909.854     -257486.7350       1295.802          27.922  
C06  39615157.897        4008.2131        -33.902          18.428  
C09  39297576.654     -145808.6921        782.597          19.806  
C14  27003272.623     1811925.3271      -3417.666          19.099  
> 2018  7  4 14 11 10.0002507  0 16
G07  24435618.873      127611.0991       -747.024          22.855  
G08  22458264.567     -403804.2441       2178.884          18.653  
G10  21316849.452     -269723.0220       1375.372          33.479  
G13  25316636.058      192591.4060      -1073.498          24.105  
G15  24430234.301       47595.1160       -307.925          23.687  
G18  24677068.721     -570584.7331       3097.878          18.680  
G20  20843910.661      121480.0140       -701.693          29.878  
G21  22833173.623      547407.0990      -2903.675          28.069  
G26  23169625.902      777180.7540      -4124.518          25.215  
R01  22688902.400     -697137.6331       3689.548          20.542  
R23  19662002.879      299967.1940      -1621.489          30.600  
R07  21926504.996      460389.8410      -2508.144          33.452  
R08  20855562.994     -258781.6930       1294.335          27.647  
C06  39615054.768        4045.2261        -34.804          18.426  
C09  39297316.734     -146589.5221        780.647          19.056  
C14  27003819.145     1815345.4751      -3417.988          19.676  
> 2018  7  4 14 11 11.0002503  0 16
G07  24435653.649      128358.3051       -750.557          22.086  
G08  22457742.029     -405988.1141       2177.864          19.160  
G10  21316477.710     -271098.4160       1375.228          33.987  
G13  25316720.599      193664.7440      -1073.335          24.160  
G15  24430186.934       47902.8500       -307.841          23.515  
G18  24676364.808     -573684.1701       3097.753          18.876  
G20  20843934.944      122182.0300       -702.338          29.893  
G21  22833614.618      550310.9650      -2903.698          27.906  
G26  23170298.936      781305.0590      -4124.645          25.418  
R01  22688126.837     -700834.6611       3691.824          20.775  
R23  19662192.347      301588.5730      -1621.529          30.361  
R07  21926839.865      462898.1880      -2508.914          33.499  
R08  20855219.732     -260075.8750       1294.017          27.943  
C06  39614953.139        4079.8411        -34.611          18.214  
C09  39297055.614     -147370.2891        780.486          19.343  
C14  27004364.767     1818765.8341      -3418.086          19.728  
> 2018  7  4 14 11 12.0002499  0 16
G07  24435685.727      129105.6901       -749.039          22.635  
G08  22457217.692     -408168.4651       2178.544          20.052  
G10  21316106.267     -272473.4990       1374.846          33.889  
G13  25316821.629      194738.5350      -1074.448          23.654  
G15  24430123.977       48211.1131       -311.218          23.558  
G18  24675663.893     -576781.5101       3098.338          18.410  
G20  20843957.129      122884.3470       -702.822          29.991  
G21  22834055.312      553214.6950      -2903.880          27.622  
G26  23170977.366      785429.2870      -4124.641          25.497  
R01  22687337.183     -704529.7591       3695.836          21.526  
R23  19662391.709      303210.1300      -1621.816          30.296  
R07  21927205.911      465406.9730      -2509.208          33.541  
R08  20854856.383     -261369.6050       1293.251          27.220  
C06  39614850.909        4114.3671        -36.397          19.391  
C09  39296793.896     -148151.1971        780.675          20.819  
C14  27004911.589     1822186.1721      -3418.912          20.058  
> 2018  7  4 14 11 13.0002496  0 16
G07  24435717.805      129853.5511       -746.599          22.693  
G08  22456692.755     -410348.6471       2180.742          20.379  
G10  21315733.924     -273848.0860       1374.127          33.856  
G13  25316929.854      195812.7960      -1074.444          23.789  
G15  24430072.413       48519.9010       -310.026          23.274  
G18  24674963.578     -579878.7791       3098.351          17.477  
G20  20843981.112      123587.2810       -703.331          30.031  
G21  22834499.905      556118.5300      -2903.928          27.882  
G26  23171651.300      789553.6710      -4124.675          25.098  
R01  22686528.343     -708228.9931       3697.479          21.480  
R23  19662585.675      304831.9460      -1622.054          30.234  
R07  21927569.859      467916.7070      -2510.401          33.253  
R08  20854521.215     -262662.5080       1292.218          26.753  
C06  39614748.081        4157.4301        -37.934          19.463  
C09  39296533.076     -148932.0561        780.537          20.848  
C14  27005457.811     1825606.6211      -3419.516          20.185  
> 2018  7  4 14 11 14.0002492  0 16
G07  24435744.486      130602.2031       -748.518          22.792  
G08  22456165.420     -412528.5391       2180.491          20.174  
G10  21315363.381     -275222.1050       1373.584          33.842  
G13  25317009.899      196887.7070      -1075.020          24.430  
G15  24430016.651       48829.2540       -310.317          23.368  
G18  24674266.561     -582976.5211       3096.892          17.850  
G20  20844002.997      124290.9250       -704.012          30.021  
G21  22834942.099      559022.4840      -2904.045          27.898  
G26  23172325.533      793678.3150      -4125.134          24.971  
R01  22685747.684     -711928.6851       3694.483          21.881  
R23  19662773.645      306454.2510      -1622.376          30.597  
R07  21927926.013      470427.1180      -2510.698          32.768  
R08  20854165.062     -263954.5030       1291.167          27.086  
C06  39614646.451        4194.6691        -37.357          19.127  
C09  39296273.756     -149712.6141        780.438          20.907  
C14  27006006.731     1829027.3561      -3419.306          20.124  
> 2018  7  4 14 11 15.0002488  0 16
G07  24435784.059      131351.3031       -748.020          21.918  
G08  22455638.685     -414708.2061       2178.819          19.861  
G10  21314994.336     -276595.6710       1373.370          33.601  
G13  25317107.032      197963.2630      -1076.314          23.746  
G15  24429968.685       49139.0560       -309.747          23.561  
G18  24673564.747     -586079.4681       3096.818          16.903  
G20  20844023.982      124995.1960       -704.636          30.190  
G21  22835382.494      561926.5470      -2904.143          27.996  
G26  23172995.869      797803.1100      -4125.112          24.707  
R01  22684959.529     -715622.7091       3693.740          21.942  
R23  19662970.009      308076.9530      -1623.106          30.584  
R07  21928282.166      472938.2840      -2511.682          32.895  
R08  20853809.808     -265245.8520       1290.492          26.788  
C06  39614544.821        4232.0241        -37.608          18.088  
C09  39296013.236     -150493.1701        781.267          20.551  
C14  27006553.552     1832448.3071      -3419.715          20.102  
> 2018  7  4 14 11 16.0002485  0 16
G07  24435813.438      132100.7371       -752.838          21.426  
G08  22455115.247     -416888.0851       2178.349          19.335  
G10  21314617.497     -277968.8830       1372.642          33.805  
G13  25317195.770      199039.1160      -1076.448          23.669  
G15  24429918.919       49449.3851       -309.734          23.124  
G18  24672861.733     -589183.9981       3096.638          18.362  
G20  20844050.964      125699.8140       -704.987          29.949  
G21  22835820.790      564830.5390      -2904.343          28.189  
G26  23173671.901      801927.8810      -4124.586          24.326  
R01  22684138.398     -719316.9821       3690.883          21.935  
R23  19663157.080      309699.6490      -1622.844          30.343  
R07  21928639.519      475449.9400      -2512.164          33.185  
R08  20853455.453     -266536.6150       1290.160          26.414  
C06  39614441.093        4269.4421        -38.032          19.375  
C09  39295753.616     -151273.8101        780.976          19.944  
C14  27007099.174     1835869.0971      -3420.669          21.130  
> 2018  7  4 14 11 17.0002481  0 16
G07  24435846.416      132850.6171       -747.038          21.362  
G08  22454587.313     -419067.7281       2179.722          20.192  
G10  21314246.054     -279341.5970       1372.215          33.845  
G13  25317288.406      200115.4830      -1077.057          23.993  
G15  24429867.055       49760.3161       -306.932          22.609  
G18  24672161.118     -592281.0901       3095.280          18.154  
G20  20844076.146      126405.0740       -705.830          29.799  
G21  22836263.284      567734.5710      -2904.265          27.815  
G26  23174341.337      806052.8700      -4125.317          23.864  
R01  22683364.933     -723010.6011       3692.016          21.324  
R23  19663352.544      311322.8410      -1623.315          30.236  
R07  21928991.175      477962.4320      -2512.853          33.273  
R08  20853093.903     -267826.6410       1289.208          26.582  
C06  39614335.866        4307.4891        -37.779          18.877  
C09  39295493.096     -152054.2411        780.569          19.529  
C14  27007646.895     1839290.2131      -3420.277          21.572  
> 2018  7  4 14 11 18.0002477  0 16
G07  24435878.194      133601.2211       -747.524          21.867  
G08  22454061.477     -421247.2601       2179.062          19.245  
G10  21313876.410     -280713.8770       1372.108          33.878  
G13  25317381.342      201192.4700      -1077.169          24.379  
G15  24429813.392       50071.8241       -312.041          21.968  
G18  24671462.602     -595378.5231       3096.369          18.312  
G20  20844101.029      127111.0010       -706.413          30.030  
G21  22836705.778      570638.6930      -2904.194          28.061  
G26  23175023.365      810177.9260      -4125.292          24.184  
R01  22682559.990     -726706.1341       3692.008          22.386  
R23  19663551.606      312946.2960      -1623.677          30.431  
R07  21929346.429      480475.5950      -2513.626          33.455  
R08  20852729.656     -269115.8940       1289.094          26.731  
C06  39614232.438        4344.9491        -37.852          18.896  
C09  39295232.876     -152834.6771        779.681          19.728  
C14  27008195.515     1842711.5211      -3420.961          21.958  
> 2018  7  4 14 11 19.0002473  0 16
G07  24435914.768      134352.2271       -750.247          21.770  
G08  22453541.936     -423426.3101       2178.350          20.286  
G10  21313502.569     -282085.6580       1371.457          34.108  
G13  25317470.680      202269.9470      -1078.006          24.338  
G15  24429762.727       50383.6711       -309.742          22.397  
G18  24670764.085     -598475.0851       3097.455          18.608  
G20  20844123.813      127817.3280       -706.802          30.081  
G21  22837149.770      573542.8420      -2904.271          27.852  
G26  23175701.796      814303.1520      -4125.908          24.106  
R01  22681782.928     -730399.7111       3691.174          21.810  
R23  19663740.776      314570.0650      -1623.918          30.543  
R07  21929714.275      482989.4460      -2514.093          32.849  
R08  20852376.200     -270404.4530       1288.052          26.839  
C06  39614130.808        4382.5881        -37.474          19.538  
C09  39294975.055     -153615.0911        779.422          20.363  
C14  27008741.138     1846132.8901      -3422.609          21.312  
> 2018  7  4 14 11 20.0002470  0 16
G07  24435949.544      135103.8101       -752.474          21.531  
G08  22453016.100     -425605.4941       2177.938          20.798  
G10  21313135.024     -283456.9600       1371.341          33.689  
G13  25317568.112      203348.0190      -1078.469          24.061  
G15  24429717.459       50696.2581       -311.932          21.485  
G18  24670060.772     -601573.8931       3097.249          18.728  
G20  20844148.996      128524.4680       -707.664          30.360  
G21  22837591.664      576447.1380      -2904.333          27.934  
G26  23176371.532      818428.6710      -4126.397          23.514  
R01  22680936.315     -734093.2231       3692.682          22.336  
R23  19663932.343      316194.1610      -1623.929          30.495  
R07  21930071.927      485504.1510      -2515.403          32.865  
R08  20852040.133     -271692.1670       1287.308          26.801  
C06  39614028.579        4420.4981        -37.765          19.752  
C09  39294714.535     -154395.1821        779.231          21.061  
C14  27009286.460     1849554.5741      -3423.342          21.592  
> 2018  7  4 14 11 21.0002466  0 16
G07  24435977.125      135855.9211       -753.068          21.582  
G08  22452489.365     -427784.6681       2178.795          20.582  
G10  21312761.782     -284827.7180       1370.419          33.987  
G13  25317665.245      204426.6670      -1079.431          24.325  
G15  24429671.290       51009.4261       -314.042          22.004  
G18  24669362.855     -604673.0251       3097.149          18.926  
G20  20844174.778      129232.1080       -708.193          30.554  
G21  22838038.955      579351.4880      -2904.487          27.879  
G26  23177045.465      822554.0931      -4123.965          24.123  
R01  22680146.361     -737786.5021       3693.658          22.391  
R23  19664122.411      317818.5970      -1624.821          30.319  
R07  21930442.471      488019.4960      -2515.883          33.458  
R08  20851696.571     -272979.2110       1286.570          26.444  
C06  39613926.949        4458.5151        -38.446          17.966  
C09  39294455.215     -155175.4161        779.869          20.747  
C14  27009834.481     1852976.4031      -3422.535          21.989  
> 2018  7  4 14 11 22.0002462  0 16
G07  24436006.205      136608.6211       -754.966          21.533  
G08  22451966.827     -429965.3501       2178.611          20.032  
G10  21312394.236     -286198.0340       1370.006          33.931  
G13  25317761.478      205505.7710      -1079.499          24.213  
G15  24429608.034       51323.0151       -315.506          21.128  
G18  24668664.039     -607766.6671       3096.472          19.806  
G20  20844199.661      129940.3010       -708.434          30.469  
G21  22838481.748      582255.9270      -2904.739          27.639  
G26  23177724.795      826679.8290      -4125.762          24.117  
R01  22679340.819     -741479.7151       3693.508          21.882  
R23  19664310.381      319443.3580      -1625.138          30.141  
R07  21930795.027      490535.6200      -2516.546          33.386  
R08  20851340.417     -274265.5580       1286.246          27.118  
C06  39613824.720        4496.5881        -38.834          17.667  
C09  39294195.594     -155955.5241        779.011          20.880  
C14  27010382.801     1856398.3371      -3422.240          22.174  
> 2018  7  4 14 11 23.0002459  0 16
G07  24436039.182      137361.5501       -750.937          21.234  
G08  22451443.389     -432148.0471       2179.072          19.471  
G10  21312017.397     -287567.9520       1369.602          34.126  
G13  25317858.311      206585.4170      -1079.893          23.771  
G15  24429554.371       51637.1971       -312.845          22.286  
G18  24667965.523     -610857.9111       3096.553          19.251  
G20  20844224.244      130649.0470       -709.092          30.269  
G21  22838924.841      585160.2620      -2904.153          27.673  
G26  23178398.728      830805.5520      -4125.099          23.706  
R01  22678528.981     -745172.7101       3690.151          22.695  
R23  19664506.146      321068.3780      -1625.190          29.853  
R07  21931153.878      493052.4700      -2517.423          33.115  
R08  20851009.447     -275551.0860       1285.004          27.540  
C06  39613723.090        4534.6141        -38.966          19.701  
C09  39293935.375     -156735.4961        779.001          20.520  
C14  27010933.520     1859820.3841      -3422.458          21.747  
> 2018  7  4 14 11 24.0002455  0 16
G07  24436073.358      138115.2711       -753.279          20.833  
G08  22450919.952     -434320.8071       2178.594          20.175  
G10  21311649.852     -288937.3820       1369.284          33.740  
G13  25317954.845      207665.5450      -1080.190          23.905  
G15  24429515.998       51951.9421       -312.982          22.257  
G18  24667266.107     -613955.1941       3096.522          19.689  
G20  20844246.129      131358.3430       -709.567          30.203  
G21  22839364.037      588064.8280      -2904.693          27.757  
G26  23179072.362      834931.5570      -4125.707          23.609  
R01  22677718.342     -748865.7051       3693.175          22.298  
R23  19664703.709      322693.6840      -1625.336          30.077  
R07  21931525.321      495569.9800      -2518.008          32.901  
R08  20850652.394     -276835.9990       1284.410          27.458  
C06  39613620.561        4572.9101        -39.190          19.889  
C09  39293676.654     -157515.4561        779.009          19.957  
C14  27011481.540     1863242.6261      -3427.117          23.024  
> 2018  7  4 14 11 25.0002451  0 16
G07  24436107.535      138869.4641       -752.762          20.459  
G08  22450396.814     -436493.1691       2177.700          20.816  
G10  21311276.910     -290306.2970       1368.575          33.925  
G13  25318045.981      208746.2490      -1080.608          23.445  
G15  24429468.631       52267.1671       -314.064          21.654  
G18  24666569.090     -617052.4631       3096.719          20.032  
G20  20844269.812      132068.2900       -710.126          29.953  
G21  22839806.531      590969.3490      -2904.364          27.439  
G26  23179746.895      839057.6851      -4127.441          22.974  
R01  22676941.580     -752558.5311       3696.598          22.313  
R23  19664892.878      324319.3850      -1625.903          29.960  
R07  21931880.575      498088.1250      -2518.756          33.196  
R08  20850309.431     -278120.1230       1283.595          27.011  
C06  39613519.231        4611.2991        -39.553          19.999  
C09  39293416.134     -158295.4681        779.300          20.458  
C14  27012025.664     1866664.9531      -3420.451          22.333  
> 2018  7  4 14 11 26.0002448  0 16
G07  24436133.917      139623.8561       -755.051          19.866  
G08  22449870.678     -438671.9251       2177.282          20.131  
G10  21310912.662     -291674.8200       1368.068          33.874  
G13  25318138.318      209827.3730      -1080.956          23.219  
G15  24429408.972       52582.8671       -314.369          21.587  
G18  24665870.573     -620149.5881       3096.367          19.436  
G20  20844294.695      132778.6910       -710.844          30.100  
G21  22840247.825      593873.8860      -2904.410          27.520  
G26  23180415.133      843183.9130      -4127.010          23.595  
R01  22676157.323     -756252.5201       3697.318          22.412  
R23  19665092.540      325945.2600      -1626.136          30.007  
R07  21932234.030      500607.0030      -2519.601          33.266  
R08  20849951.479     -279403.6420       1282.960          27.358  
C06  39613417.302        4649.6341        -39.501          20.313  
C09  39293156.214     -159075.4451        779.837          20.375  
C14  27012570.087     1870087.3431      -3420.883          21.279  
> 2018  7  4 14 11 27.0002444  0 16
G07  24436168.992      140379.1381       -759.714          20.309  
G08  22449347.240     -440850.0131       2178.097          21.108  
G10  21310540.620     -293042.8250       1367.746          33.745  
G13  25318237.549      210909.2430      -1082.004          23.004  
G15  24429357.108       52899.2801       -318.483          21.209  
G18  24665173.855     -623246.7431       3096.263          19.067  
G20  20844322.276      133489.7980       -711.290          30.054  
G21  22840687.021      596778.6420      -2904.746          27.513  
G26  23181092.663      847310.1940      -4125.803          23.834  
R01  22675357.477     -759951.6631       3691.277          21.940  
R23  19665282.608      327571.6730      -1626.769          30.091  
R07  21932606.972      503126.5970      -2519.752          33.329  
R08  20849598.923     -280686.3180       1282.245          27.456  
C06  39613315.073        4688.2981        -38.663          19.347  
C09  39292896.294     -159855.1091        779.379          20.568  
C14  27013118.107     1873510.1621      -3427.282          21.464  
> 2018  7  4 14 11 28.0002440  0 16
G07  24436203.768      141139.1991       -755.272          19.546  
G08  22448826.801     -443028.3421       2177.348          22.164  
G10  21310168.277     -294410.4720       1367.467          33.808  
G13  25318337.080      211991.5301      -1084.710          22.384  
G15  24429310.640       53216.0521       -318.488          21.057  
G18  24664471.742     -626344.1431       3097.238          19.377  
G20  20844348.957      134201.3280       -711.854          30.248  
G21  22841131.314      599683.2640      -2904.589          27.738  
G26  23181771.094      851436.6490      -4126.762          23.174  
R01  22674539.043     -763643.7481       3688.532          22.134  
R23  19665473.576      329198.1710      -1626.838          30.016  
R07  21932944.838      505646.8280      -2520.525          33.187  
R08  20849233.776     -281968.4400       1281.248          27.155  
C06  39613212.244        4725.7681        -38.438          18.901  
C09  39292636.374     -160634.9171        778.765          20.250  
C14  27013664.329     1876932.9831      -3429.235          21.111  
> 2018  7  4 14 11 29.0002437  0 16
G07  24436235.546      141894.1251       -755.040          19.567  
G08  22448301.864     -445206.6671       2176.856          21.714  
G10  21309804.929     -295777.6190       1366.501          33.824  
G13  25318424.320      213074.1051      -1085.110          22.760  
G15  24429263.573       53533.2221       -314.719          20.910  
G18  24663771.426     -629440.1701       3095.542          18.984  
G20  20844373.241      134913.4920       -712.840          30.150  
G21  22841578.304      602587.9790      -2904.967          27.522  
G26  23182448.925      855563.0471      -4125.664          23.545  
R01  22673744.293     -767336.0501       3688.911          22.328  
R23  19665666.642      330825.0080      -1627.200          29.866  
R07  21933315.382      508167.8820      -2521.796          32.861  
R08  20848890.513     -283249.8320       1280.691          27.284  
C06  39613110.314        4761.0001        -39.510          18.235  
C09  39292377.053     -161414.5721        779.289          20.783  
C14  27014209.052     1880355.7241      -3420.086          20.844  
> 2018  7  4 14 11 30.0002433  0 16
G07  24436269.722      142644.9461       -755.326          20.607  
G08  22447769.433     -447384.4681       2176.262          20.961  
G10  21309428.689     -297144.3610       1366.515          34.013  
G13  25318520.853      214157.4741      -1081.665          22.991  
G15  24429214.407       53851.1671       -316.871          20.636  
G18  24663073.809     -632537.4921       3095.720          19.431  
G20  20844398.123      135626.1740       -712.943          30.031  
G21  22842022.597      605492.7950      -2905.077          27.418  
G26  23183126.156      859689.8350      -4126.851          23.112  
R01  22672935.753     -771028.2521       3688.717          21.148  
R23  19665860.908      332452.1630      -1627.145          29.974  
R07  21933683.827      510689.4760      -2521.852          32.934  
R08  20848538.557     -284530.4710       1280.269          27.337  
C06  39613008.085        4799.6431        -39.208          17.909  
C09  39292117.433     -162194.1961        780.452          19.882  
C14  27014763.668     1883778.6971      -3418.995          19.637  
> 2018  7  4 14 11 31.0002429  0 16
G07  24436303.899      143403.0711       -755.426          20.512  
G08  22447251.991     -449558.0601       2179.470          21.019  
G10  21309059.045     -298510.6400       1365.960          33.989  
G13  25318621.583      215241.1781      -1084.227          22.823  
G15  24429157.146       54169.4301       -317.551          20.971  
G18  24662377.391     -635634.9461       3095.929          19.561  
G20  20844423.906      136339.3940       -713.610          30.044  
G21  22842461.793      608397.5170      -2905.065          27.504  
G26  23183795.292      863816.5270      -4126.872          23.330  
R01  22672158.391     -774720.4771       3690.158          21.441  
R23  19666059.071      334079.5530      -1627.559          29.917  
R07  21934042.678      513211.7550      -2522.887          32.809  
R08  20848204.888     -285810.4110       1279.446          27.004  
C06  39612905.556        4838.4001        -38.187          19.566  
C09  39291858.113     -162973.8691        780.442          20.081  
C14  27015311.689     1887201.8251      -3423.124          19.778  
> 2018  7  4 14 11 32.0002426  0 16
G07  24436340.174      144152.6921       -756.384          20.148  
G08  22446724.956     -451736.4321       2177.312          21.160  
G10  21308690.600     -299876.7880       1366.053          33.869  
G13  25318719.615      216325.1160      -1083.778          23.419  
G15  24429105.282       54487.9211       -319.576          21.189  
G18  24661677.676     -638732.3671       3095.512          19.412  
G20  20844452.086      137052.9110       -713.890          30.107  
G21  22842909.083      611302.0120      -2904.315          27.504  
G26  23184470.725      867943.1790      -4127.048          23.211  
R01  22671340.857     -778412.9451       3692.413          20.506  
R23  19666253.336      335706.9710      -1627.488          30.236  
R07  21934407.526      515734.5270      -2523.234          33.010  
R08  20847857.129     -287089.8960       1279.202          27.343  
C06  39612803.027        4876.9301        -38.453          18.998  
C09  39291598.492     -163753.7231        780.748          20.260  
C14  27015862.108     1890624.9451      -3424.252          20.307  
> 2018  7  4 14 11 33.0002422  0 16
G07  24436374.950      144907.4721       -757.649          20.286  
G08  22446203.916     -453914.6981       2174.579          19.990  
G10  21308318.858     -301242.4110       1365.040          33.891  
G13  25318814.649      217409.7421      -1083.726          23.520  
G15  24429063.911       54807.0451       -317.824          20.543  
G18  24660978.260     -641830.4471       3095.373          18.040  
G20  20844480.566      137767.0220       -715.034          29.660  
G21  22843350.378      614206.6450      -2904.959          27.942  
G26  23185141.061      872069.8671      -4127.197          22.955  
R01  22670531.418     -782104.7761       3689.376          20.329  
R23  19666451.199      337334.6590      -1628.000          30.303  
R07  21934762.480      518258.0030      -2524.257          33.102  
R08  20847509.370     -288368.6830       1278.073          27.668  
C06  39612699.599        4915.6701        -38.512          19.092  
C09  39291339.172     -164533.4851        781.215          20.816  
C14  27016407.131     1894048.0141      -3421.229          18.921  
> 2018  7  4 14 11 34.0002418  0 16
G07  24436410.025      145666.2941       -758.064          19.557  
G08  22445677.181     -456092.7721       2174.576          20.628  
G10  21307951.312     -302607.5340       1364.468          34.080  
G13  25318907.885      218494.7351      -1081.375          22.472  
G15  24429013.846       55126.6371       -320.965          21.328  
G18  24660279.144     -644927.9611       3096.070          18.321  
G20  20844504.850      138481.6610       -715.347          29.825  
G21  22843793.471      617111.3370      -2905.138          27.449  
G26  23185825.787      876196.7600      -4127.008          23.348  
R01  22669748.060     -785796.3431       3693.592          20.054  
R23  19666646.364      338962.7580      -1628.762          30.086  
R07  21935129.426      520782.1700      -2525.021          32.998  
R08  20847165.807     -289646.6930       1277.608          27.952  
C06  39612595.871        4954.4541        -37.684          19.997  
C09  39291078.053     -165313.1161        780.607          20.523  
C14  27016953.652     1897471.3271      -3422.435          19.287  
> 2018  7  4 14 11 35.0002415  0 16
G07  24436448.399      146428.6051       -759.065          19.721  
G08  22445153.144     -458270.6031       2175.947          20.734  
G10  21307581.968     -303972.1350       1364.266          33.931  
G13  25319009.814      219580.4031      -1080.709          22.351  
G15  24428965.579       55447.0041       -323.358          21.476  
G18  24659579.728     -648025.4801       3097.503          18.901  
G20  20844529.732      139197.1480       -715.928          30.008  
G21  22844234.765      620016.1470      -2905.081          27.092  
G26  23186499.121      880323.9141      -4128.335          23.188  
R01  22668920.033     -789492.8911       3691.973          20.232  
R23  19666828.638      340591.2320      -1628.796          30.269  
R07  21935487.078      523307.1740      -2525.400          33.032  
R08  20846820.147     -290923.8210       1276.678          28.117  
C06  39612493.341        4993.5391        -37.104          19.484  
C09  39290818.133     -166092.6591        779.640          20.349  
C14  27017500.773     1900895.0381      -3422.483          18.665  
> 2018  7  4 14 11 36.0002411  0 16
G07  24436482.875      147190.6361       -759.180          20.075  
G08  22444629.107     -460448.5771       2176.626          20.569  
G10  21307210.825     -305336.5000       1364.109          34.137  
G13  25319106.347      220666.4951      -1089.056          21.834  
G15  24428918.212       55767.5041       -320.608          21.998  
G18  24658880.312     -651123.0281       3098.590          20.112  
G20  20844557.913      139912.8220       -716.077          30.190  
G21  22844676.360      622920.7860      -2904.786          26.919  
G26  23187184.446      884450.8600      -4126.826          23.152  
R01  22668121.386     -793186.7581       3693.206          20.693  
R23  19667030.998      342219.8300      -1628.838          30.045  
R07  21935854.924      525832.5940      -2525.757          33.071  
R08  20846485.878     -292200.5830       1276.285          27.589  
C06  39612390.812        5032.4151        -37.511          18.904  
C09  39290558.213     -166872.2921        779.280          21.414  
C14  27018048.794     1904318.5261      -3422.020          19.040  
> 2018  7  4 14 11 37.0002407  0 16
G07  24436516.452      147950.3521       -759.477          19.863  
G08  22444105.669     -462626.7251       2178.050          20.017  
G10  21306842.380     -306700.4900       1363.508          33.968  
G13  25319207.377      221752.8481      -1091.072          22.679  
G15  24428869.046       56088.5401       -319.624          21.900  
G18  24658178.498     -654220.8031       3098.289          19.952  
G20  20844579.198      140628.9640       -716.354          30.253  
G21  22845120.052      625825.3440      -2904.466          27.787  
G26  23187852.983      888577.9400      -4127.185          24.010  
R01  22667353.917     -796878.0341       3692.223          21.134  
R23  19667239.653      343848.5750      -1628.954          29.784  
R07  21936222.769      528358.6920      -2526.612          33.091  
R08  20846121.630     -293476.7880       1275.890          27.752  
C06  39612288.583        5071.2811        -39.035          19.085  
C09  39290297.993     -167651.9601        779.375          20.492  
C14  27018596.215     1907742.0781      -3421.528          19.222  
> 2018  7  4 14 11 38.0002404  0 16
G07  24436551.827      148716.9081       -760.329          19.809  
G08  22443581.032     -464804.3001       2178.835          19.780  
G10  21306470.637     -308063.7510       1363.053          33.977  
G13  25319303.611      222839.9951      -1086.516          22.573  
G15  24428821.079       56410.4151       -319.581          20.602  
G18  24657479.382     -657318.3981       3098.989          20.424  
G20  20844607.978      141345.9930       -717.343          30.548  
G21  22845563.745      628730.2990      -2905.053          27.466  
G26  23188527.816      892705.3550      -4127.045          24.362  
R01  22666513.000     -800569.6291       3694.747          20.512  
R23  19667422.826      345477.9240      -1629.650          29.690  
R07  21936575.625      530885.7520      -2527.477          32.941  
R08  20845760.081     -294751.8820       1274.717          27.322  
C06  39612185.155        5110.4971        -39.006          19.243  
C09  39290038.672     -168431.3601        779.693          20.450  
C14  27019143.336     1911166.0551      -3422.374          17.936  
> 2018  7  4 14 11 39.0002400  0 16
G07  24436585.104      149478.0781       -760.408          18.374  
G08  22443056.395     -466981.7311       2179.277          20.645  
G10  21306102.192     -309426.3760       1362.289          34.037  
G13  25319406.739      223927.9251      -1086.975          22.630  
G15  24428774.311       56738.3461       -325.568          20.571  
G18  24656777.568     -660415.7231       3097.763          20.383  
G20  20844636.159      142063.7400       -718.199          30.237  
G21  22846005.939      631635.3790      -2905.088          27.208  
G26  23189206.846      896832.9950      -4127.013          23.833  
R01  22665717.950     -804260.6341       3689.861          20.971  
R23  19667616.193      347107.7890      -1630.222          29.706  
R07  21936929.080      533413.6940      -2528.376          33.258  
R08  20845412.921     -296026.1020       1273.725          27.848  
C06  39612082.926        5149.9351        -39.043          19.001  
C09  39289779.352     -169210.5611        778.084          21.373  
C14  27019691.657     1914590.3631      -3423.289          18.422  
> 2018  7  4 14 11 40.0002396  0 16
G07  24436617.782      150239.5111       -762.108          18.811  
G08  22442523.664     -469160.7211       2179.009          20.848  
G10  21305736.446     -310788.7080       1362.332          34.098  
G13  25319498.476      225016.2340      -1088.939          23.009  
G15  24428723.347       57065.8691       -322.576          22.226  
G18  24656079.351     -663513.1941       3097.754          20.148  
G20  20844663.740      142781.8790       -718.400          30.103  
G21  22846445.135      634540.4480      -2905.015          27.235  
G26  23189882.578      900960.7950      -4127.479          23.587  
R01  22664958.276     -807953.4381       3686.044          20.737  
R23  19667808.659      348737.7890      -1629.971          29.921  
R07  21937303.221      535942.1300      -2528.600          33.179  
R08  20845068.459     -297299.7600       1273.506          28.082  
C06  39611981.296        5189.5601        -40.041          19.036  
C09  39289517.333     -169989.8161        778.960          20.345  
C14  27020237.879     1918014.5081      -3423.859          18.811  
> 2018  7  4 14 11 41.0002393  0 16
G07  24436653.457      151001.2851       -763.565          18.282  
G08  22441999.627     -471340.1051       2175.820          20.002  
G10  21305365.902     -312150.7130       1361.962          34.012  
G13  25319592.911      226104.7291      -1088.284          23.388  
G15  24428678.378       57389.1101       -324.843          22.268  
G18  24655379.636     -666610.7811       3097.158          20.158  
G20  20844690.421      143500.3860       -718.716          29.983  
G21  22846890.327      637445.3510      -2904.765          27.207  
G26  23190553.814      905088.4810      -4127.415          23.633  
R01  22664126.951     -811641.6061       3694.364          20.337  
R23  19668002.925      350367.9390      -1630.583          29.697  
R07  21937656.377      538471.1380      -2529.304          33.166  
R08  20844727.296     -298572.9230       1273.231          27.795  
C06  39611878.767        5229.6141        -40.183          18.554  
C09  39289258.912     -170769.2711        784.725          19.913  
C14  27020785.000     1921438.9351      -3422.439          17.092  
> 2018  7  4 14 11 42.0002389  0 16
G07  24436689.132      151763.3511       -764.002          18.532  
G08  22441477.688     -473517.3891       2175.736          19.930  
G10  21304995.059     -313512.2970       1360.977          34.195  
G13  25319691.542      227193.9530      -1089.877          23.740  
G15  24428622.916       57712.9861       -324.972          21.913  
G18  24654680.520     -669708.5071       3097.476          19.744  
G20  20844714.105      144219.5280       -719.580          29.904  
G21  22847333.420      640350.3330      -2905.271          27.100  
G26  23191228.946      909216.3230      -4127.850          23.561  
R01  22663338.197     -815340.0181       3695.013          19.984  
R23  19668228.069      351998.3260      -1630.718          29.948  
R07  21938019.725      541000.7800      -2530.058          33.388  
R08  20844375.339     -299845.2200       1271.855          27.877  
C06  39611776.838        5272.3031        -39.479          16.303  
C09  39289004.088     -171548.5041        775.477          20.201  
C14  27021333.020     1924863.1641      -3423.010          17.505  
> 2018  7  4 14 11 43.0002385  0 16
G07  24436725.407      152524.8811       -764.222          17.613  
G08  22440962.945     -475694.6121       2178.136          20.536  
G10  21304628.113     -314873.3300       1360.774          34.209  
G13  25319793.172      228283.5850      -1089.551          23.612  
G15  24428573.151       58037.3061       -327.750          22.342  
G18  24653979.905     -672806.0451       3096.811          19.900  
G20  20844740.187      144939.2070       -720.032          30.071  
G21  22847778.912      643255.3310      -2904.989          26.634  
G26  23191914.272      913344.2200      -4127.770          24.003  
R01  22662534.454     -819029.6011       3693.937          19.280  
R23  19668404.047      353629.0970      -1630.764          29.589  
R07  21938388.769      543531.3280      -2531.026          33.402  
R08  20844024.582     -301116.9160       1271.672          28.096  
C06  39611675.508        5308.7621        -39.443          18.674  
C09  39288745.967     -172328.2541        770.449          20.341  
C14  27021879.842     1928287.3131      -3424.977          17.259  
> 2018  7  4 14 11 44.0002382  0 16
G07  24436760.483      153284.5561       -765.873          16.338  
G08  22440438.008     -477871.6961       2179.662          20.227  
G10  21304258.169     -316234.0060       1360.127          34.034  
G13  25319890.604      229373.7170      -1090.282          24.311  
G15  24428524.285       58362.1401       -325.863          22.427  
G18  24653281.089     -675903.5321       3097.271          19.004  
G20  20844772.864      145659.4820       -720.558          29.863  
G21  22848220.206      646160.3570      -2905.057          26.647  
G26  23192580.411      917472.3401      -4131.080          23.786  
R01  22661731.310     -822721.6871       3693.450          19.698  
R23  19668591.118      355260.0710      -1631.114          29.651  
R07  21938762.011      546062.4250      -2531.680          33.542  
R08  20843686.416     -302387.8900       1270.255          28.017  
C06  39611573.878        5346.0241        -41.259          17.891  
C09  39288485.447     -173097.4941        772.833          19.891  
C14  27022428.462     1931712.0511      -3425.951          17.618  
> 2018  7  4 14 11 45.0002378  0 16
G07  24436794.059      154047.9601       -764.352          16.060  
G08  22439911.872     -480049.3371       2178.990          21.340  
G10  21303891.823     -317594.3600       1360.189          34.078  
G13  25319986.538      230464.3670      -1090.820          23.703  
G15  24428478.117       58687.3431       -326.079          21.838  
G18  24652583.771     -678997.3471       3097.835          20.108  
G20  20844801.045      146380.2330       -721.143          29.957  
G21  22848664.799      649065.4140      -2905.313          26.334  
G26  23193258.241      921600.3901      -4128.208          22.592  
R01  22660931.763     -826418.8851       3692.722          19.405  
R23  19668789.880      356891.2800      -1631.561          29.680  
R07  21939116.366      548594.1410      -2531.835          33.204  
R08  20843338.957     -303658.1920       1269.671          27.913  
C06  39611471.349        5385.5871        -40.950          18.732  
C09  39288225.228     -173867.9541        781.869          20.380  
C14  27022978.581     1935136.8271      -3425.012          17.865  
> 2018  7  4 14 11 46.0002375  0 16
G07  24436826.737      154807.7591       -764.525          15.596  
G08  22439394.131     -482226.9271       2175.493          21.035  
G10  21303519.480     -318954.1010       1359.502          34.017  
G13  25320087.268      231555.5480      -1091.400          23.451  
G15  24428438.544       59009.8171       -324.958          21.855  
G18  24651885.555     -682095.1251       3097.343          20.628  
G20  20844828.925      147101.5320       -721.573          29.999  
G21  22849107.292      651970.4650      -2905.010          26.673  
G26  23193934.573      925728.6011      -4126.361          22.978  
R01  22660135.215     -830116.9131       3692.687          19.254  
R23  19668985.345      358522.8460      -1631.790          29.615  
R07  21939489.607      551126.6040      -2532.812          33.267  
R08  20842990.298     -304927.8370       1269.477          27.962  
C06  39611367.621        5425.2701        -41.588          19.850  
C09  39287963.209     -174647.0751        783.075          20.201  
C14  27023523.304     1938561.6101      -3423.533          17.982  
> 2018  7  4 14 11 47.0002371  0 16
G07  24436863.312      155563.7841       -764.388          15.041  
G08  22438862.898     -484403.9551       2177.611          20.563  
G10  21303159.130     -320313.6070       1359.512          34.108  
G13  25320185.900      232647.0520      -1091.751          23.734  
G15  24428383.082       59329.0011       -325.928          22.065  
G18  24651185.839     -685191.0621       3096.272          19.075  
G20  20844851.110      147823.2760       -721.748          29.647  
G21  22849549.786      654875.4540      -2904.789          27.092  
G26  23194611.205      929856.8180      -4128.303          23.327  
R01  22659327.274     -833805.0091       3690.651          19.511  
R23  19669179.311      360154.5680      -1631.942          29.704  
R07  21939843.962      553659.5790      -2533.366          33.211  
R08  20842644.637     -306196.8890       1268.571          28.018  
C06  39611265.691        5464.2571        -41.614          18.464  
C09  39287704.488     -175426.5201        783.917          20.511  
C14  27024069.826     1941986.6841      -3424.358          17.646  
> 2018  7  4 14 11 48.0002367  0 16
G07  24436877.402      156332.0091       -764.694          14.583  
G08  22438339.161     -486580.6631       2178.128          20.506  
G10  21302784.389     -321672.5460       1358.464          33.825  
G13  25320285.431      233739.2100      -1092.678          23.315  
G15  24428340.812       59655.8201       -324.973          21.235  
G18  24650487.623     -688281.5741       3097.152          19.613  
G20  20844878.691      148545.6660       -722.937          29.931  
G21  22849992.280      657780.5760      -2905.511          27.155  
G26  23195288.136      933985.1450      -4128.417          23.899  
R01  22658524.430     -837487.8211       3690.510          19.660  
R23  19669368.779      361786.7000      -1632.596          29.697  
R07  21940213.306      556193.2810      -2534.293          33.739  
R08  20842279.790     -307465.0580       1267.436          27.868  
C06  39611164.062        5507.9901        -40.947          19.297  
C09  39287448.765     -176205.8391        777.635          21.182  
C14  27024617.846     1945411.7411      -3424.972          17.462  
> 2018  7  4 14 11 49.0002364  0 16
G07  24436900.486      157104.7201       -765.910          14.442  
G08  22437808.229     -488757.5881       2173.674          20.567  
G10  21302418.942     -323031.0670       1358.135          34.051  
G13  25320382.264      234831.7590      -1092.417          23.633  
G15  24428280.853       59983.1391       -330.148          21.170  
G18  24649793.303     -691377.1311       3097.309          20.060  
G20  20844907.771      149268.6070       -723.232          29.812  
G21  22850437.172      660685.6170      -2905.125          26.969  
G26  23195965.068      938113.7000      -4128.600          23.364  
R01  22657720.387     -841178.1341       3689.432          19.889  
R23  19669573.238      363418.9900      -1632.628          29.851  
R07  21940574.556      558727.7100      -2534.703          33.474  
R08  20841937.427     -308732.5960       1266.823          27.985  
C06  39611061.833        5550.4031        -41.437          18.249  
C09  39287186.147     -176984.8551        778.381          20.313  
C14  27025164.668     1948837.0861      -3424.666          18.664  
> 2018  7  4 14 11 50.0002360  0 16
G07  24436963.142      157857.7571       -764.645          14.270  
G08  22437289.887     -490934.2651       2176.161          21.034  
G10  21302050.198     -324389.2500       1358.100          33.876  
G13  25320474.001      235924.8450      -1093.480          23.275  
G15  24428240.081       60310.8701       -329.769          21.629  
G18  24649094.187     -694474.7011       3098.622          19.389  
G20  20844938.050      149991.9590       -723.540          29.894  
G21  22850883.562      663590.7140      -2905.109          27.196  
G26  23196638.401      942242.2190      -4128.760          24.133  
R01  22656926.836     -844867.0611       3688.683          19.462  
R23  19669769.002      365051.5230      -1632.595          29.819  
R07  21940937.005      561262.8310      -2535.537          33.634  
R08  20841604.058     -309999.5070       1266.649          28.377  
C06  39610960.503        5590.2221        -41.707          17.501  
C09  39286923.529     -177763.3661        779.308          20.610  
C14  27025713.288     1952265.0661      -3425.579          16.960  
> 2018  7  4 14 11 51.0002356  0 16
G07  24436995.220      158620.8531       -763.802          14.334  
G08  22436770.647     -493110.9181       2176.179          20.470  
G10  21301679.354     -325746.8220       1357.109          33.951  
G13  25320583.725      237018.3970      -1093.848          23.604  
G15  24428195.112       60639.0521       -325.166          21.866  
G18  24648393.572     -697566.8081       3097.754          19.686  
G20  20844967.429      150716.0040       -724.339          29.912  
G21  22851323.958      666495.8230      -2904.730          27.043  
G26  23197312.934      946370.9060      -4128.598          24.010  
R01  22656129.688     -848557.2421       3688.598          19.619  
R23  19669960.270      366684.5250      -1632.997          29.697  
R07  21941300.354      563798.7050      -2536.208          33.672  
R08  20841264.992     -311265.6260       1265.688          28.256  
C06  39610859.473        5630.1411        -40.882          18.048  
C09  39286660.911     -178542.3351        778.283          20.342  
C14  27026261.009     1955690.7701      -3423.750          16.004  
> 2018  7  4 14 11 52.0002353  0 15
G08  22436240.314     -495287.2961       2179.787          20.783  
G10  21301315.706     -327103.9810       1356.931          33.968  
G13  25320677.859      238112.5911      -1091.444          22.910  
G15  24428144.447       60968.0311       -323.698          21.423  
G18  24647694.156     -700662.6621       3097.612          18.870  
G20  20844995.010      151440.6500       -725.085          29.867  
G21  22851774.246      669401.1270      -2905.169          27.154  
G26  23197994.363      950499.7460      -4128.267          23.675  
R01  22655324.445     -852249.6541       3689.641          19.488  
R23  19670152.437      368317.8070      -1633.352          29.439  
R07  21941663.103      566335.2980      -2537.036          33.640  
R08  20840924.128     -312531.0140       1265.527          28.316  
C06  39610757.843        5668.0031        -41.822          18.086  
C09  39286406.687     -179321.0661        776.043          19.980  
C14  27026809.029     1959116.4311      -3422.888          14.880  
> 2018  7  4 14 11 53.0002349  0 16
G07  24437095.351      160154.1201       -767.485          14.021  
G08  22435707.883     -497461.0581       2178.217          20.648  
G10  21300946.661     -328460.6510       1356.378          33.930  
G13  25320772.294      239207.3600      -1095.282          23.711  
G15  24428105.774       61297.5701       -326.727          21.867  
G18  24646993.242     -703760.6281       3096.986          19.070  
G20  20845024.690      152165.8530       -725.519          30.016  
G21  22852214.641      672306.5120      -2905.665          26.854  
G26  23198660.502      954628.8620      -4129.591          24.190  
R01  22654519.502     -855937.1681       3689.539          18.465  
R23  19670344.904      369951.4080      -1633.965          29.746  
R07  21942032.747      568872.5420      -2537.905          33.550  
R08  20840572.472     -313795.6370       1264.219          28.319  
C06  39610655.614        5708.2531        -41.367          17.483  
C09  39286144.368     -180099.9171        778.049          21.587  
C14  27027358.249     1962543.2361      -3423.293          14.229  
> 2018  7  4 14 11 54.0002345  0 16
G07  24437126.529      160917.4321       -767.381          14.091  
G08  22435186.843     -499637.7321       2170.330          20.416  
G10  21300576.118     -329816.8360       1356.169          34.022  
G13  25320874.823      240302.5620      -1095.321          23.854  
G15  24428057.807       61627.5591       -327.661          21.671  
G18  24646292.926     -706858.4361       3096.766          19.891  
G20  20845049.572      152891.6500       -726.132          30.094  
G21  22852656.235      675211.8610      -2905.378          26.746  
G26  23199341.930      958758.0000      -4129.203          23.647  
R01  22653721.155     -859621.2601       3689.021          18.810  
R23  19670547.563      371585.2920      -1633.975          29.538  
R07  21942404.489      571410.4860      -2538.488          33.826  
R08  20840216.918     -315059.5890       1263.712          28.352  
C06  39610551.886        5748.7431        -40.758          18.120  
C09  39285886.846     -180878.5851        778.632          21.234  
C14  27027909.867     1965970.5101      -3427.041          14.656  
> 2018  7  4 14 11 55.0002342  0 15
G08  22434666.703     -501813.8761       2174.435          21.732  
G10  21300213.369     -331172.6340       1355.548          33.883  
G13  25320976.753      241398.2210      -1095.621          24.217  
G15  24428011.939       61957.8961       -328.279          20.490  
G18  24645591.712     -709956.3691       3098.042          19.385  
G20  20845079.552      153617.9760       -726.402          30.190  
G21  22853095.131      678117.2370      -2905.690          26.838  
G26  23200023.058      962887.2050      -4129.238          23.920  
R01  22652921.309     -863310.7391       3687.552          19.073  
R23  19670745.726      373219.5150      -1634.260          29.545  
R07  21942752.249      573949.0780      -2539.254          33.540  
R08  20839872.756     -316322.7970       1262.828          28.164  
C06  39610448.757        5788.9941        -41.042          18.157  
C09  39285630.824     -181657.3361        774.634          20.628  
C14  27028457.288     1969396.7231      -3426.664          15.531  
> 2018  7  4 14 11 56.0002338  0 16
G07  24437185.888      162455.6921       -766.040          12.822  
G08  22434129.475     -503989.1751       2178.744          21.172  
G10  21299844.624     -332527.9780       1354.969          34.106  
G13  25321077.483      242494.4190      -1096.215          23.561  
G15  24427957.677       62288.8601       -330.529          20.672  
G18  24644893.195     -713054.3211       3097.067          19.191  
G20  20845107.732      154344.7650       -726.947          30.171  
G21  22853540.623      681022.5440      -2905.257          26.877  
G26  23200699.090      967016.4640      -4129.276          23.964  
R01  22652122.062     -867000.6301       3688.576          18.592  
R23  19670945.688      374853.8760      -1634.644          29.693  
R07  21943121.293      576488.3600      -2539.639          33.748  
R08  20839522.599     -317585.3540       1262.102          28.554  
C06  39610346.228        5829.6741        -40.695          18.349  
C09  39285375.700     -182436.0051        775.287          20.236  
C14  27029006.508     1972817.1251      -3426.692          15.731  
> 2018  7  4 14 11 57.0002334  0 16
G07  24437194.582      163221.7821       -768.249          12.983  
G08  22433612.933     -506165.1121       2180.392          20.585  
G10  21299474.681     -333882.9280       1354.573          33.948  
G13  25321174.915      243591.1030      -1096.778          23.890  
G15  24427912.708       62620.4011       -332.835          21.440  
G18  24644196.478     -716152.1791       3097.062          19.980  
G20  20845140.410      155072.1440       -727.617          30.022  
G21  22853985.815      683928.0030      -2906.160          26.697  
G26  23201371.825      971145.8930      -4129.723          24.333  
R01  22651324.914     -870692.9711       3688.455          18.306  
R23  19671141.152      376488.5310      -1634.914          29.867  
R07  21943484.941      579028.3110      -2540.280          33.357  
R08  20839184.133     -318847.2700       1261.785          28.286  
C06  39610242.500        5870.1101        -40.890          17.326  
C09  39285116.080     -183214.6121        778.776          20.252  
C14  27029556.028     1976243.6331      -3425.579          13.773  
> 2018  7  4 14 11 58.0002331  0 15
G08  22433111.980     -508340.9291       2170.823          20.537  
G10  21299112.231     -335237.2650       1354.168          34.041  
G13  25321272.648      244688.4810      -1097.786          24.212  
G15  24427874.035       62952.3811       -331.484          21.156  
G18  24643495.863     -719249.8531       3097.340          19.338  
G20  20845170.689      155800.2100       -728.299          30.059  
G21  22854431.007      686833.5030      -2905.511          26.438  
G26  23202050.555      975275.5280      -4129.927          24.119  
R01  22650525.967     -874385.1911       3688.849          19.140  
R23  19671346.810      378123.6840      -1635.246          29.442  
R07  21943853.686      581569.1400      -2541.074          33.861  
R08  20838844.768     -320108.3280       1260.845          28.249  
C06  39610142.069        5910.8561        -41.240          18.399  
C09  39284855.560     -183993.0821        779.484          19.722  
C14  27030104.348     1979676.0221      -3427.457          15.185  
> 2018  7  4 14 11 59.0002327  0 16
G07  24437276.126      164761.5821       -769.043          12.727  
G08  22432578.649     -510516.6951       2169.636          21.717  
G10  21298745.885     -336591.2880       1354.114          34.172  
G13  25321378.175      245786.1560      -1097.625          24.166  
G15  24427838.359       63285.0191       -329.043          20.919  
G18  24642794.948     -722347.8781       3098.290          19.350  
G20  20845200.968      156528.7260       -728.547          29.939  
G21  22854875.599      689739.0790      -2905.726          26.745  
G26  23202719.691      979405.1150      -4129.013          24.071  
R01  22649731.517     -878075.9071       3687.483          18.963  
R23  19671541.375      379759.0540      -1635.502          29.930  
R07  21944222.731      584110.5970      -2541.726          33.811  
R08  20838500.906     -321368.7650       1260.032          28.643  
C06  39610040.140        5951.5891        -40.687          17.169  
C09  39284598.338     -184771.6231        780.846          20.416  
C14  27030652.968     1983099.1061      -3427.055          14.029  
> 2018  7  4 14 12  0.0002323  0 17
G07  24437313.000      165535.7831       -768.554          12.551  
G08  22432058.509     -512692.3541       2174.063          21.419  
G10  21298377.140     -337944.8690       1353.417          34.135  
G13  25321469.911      246884.3330      -1098.634          23.462  
G15  24427781.099       63617.8521       -330.161          21.499  
G18  24642097.331     -725445.9001       3098.390          19.353  
G20  20845229.448      157257.7490       -729.582          30.189  
G21  22855312.996      692644.4890      -2905.296          26.667  
G26  23203398.122      983534.8701      -4128.469          24.220  
R15  21858754.299     -256665.4491        983.687          17.015  
R01  22648939.166     -881765.1211       3686.550          20.077  
R23  19671731.743      381394.5620      -1635.656          29.755  
R07  21944589.677      586652.5890      -2542.270          34.062  
R08  20838151.648     -322628.5600       1259.446          28.262  
C06  39609938.510        5992.3441        -41.072          18.458  
C09  39284337.519     -185550.0071        778.203          21.137  
C14  27031206.685     1986522.8201      -3426.753          12.718  
> 2018  7  4 14 12  1.0002320  0 17
G07  24437357.070      166305.1701       -770.127          12.774  
G08  22431529.675     -514868.1081       2176.597          21.428  
G10  21298011.693     -339298.0930       1352.912          34.017  
G13  25321577.836      247982.9160      -1098.739          23.444  
G15  24427727.736       63959.4761       -338.852          20.675  
G18  24641400.613     -728543.4001       3097.601          20.048  
G20  20845258.528      157987.2340       -729.936          30.499  
G21  22855759.687      695549.9940      -2905.814          26.785  
G26  23204079.850      987664.5850      -4129.523          24.601  
R15  21858473.694     -257649.4521        981.410          16.935  
R01  22648133.623     -885451.7811       3686.612          20.690  
R23  19671924.210      383030.4160      -1636.328          29.937  
R07  21944951.526      589195.1710      -2542.911          33.687  
R08  20837804.488     -323887.7790       1259.243          28.092  
C06  39609836.881        6033.1251        -40.245          19.319  
C09  39284074.001     -186328.5391        774.466          20.986  
C14  27031743.014     1989941.3191      -3427.114          14.395  
> 2018  7  4 14 12  2.0002316  0 17
G07  24437419.427      167075.8371       -772.176          13.095  
G08  22431004.739     -517043.5041       2174.690          21.169  
G10  21297642.049     -340650.8590       1352.600          34.062  
G13  25321670.173      249082.0630      -1099.134          23.504  
G15  24427676.771       64297.9491       -335.545          20.826  
G18  24640702.696     -731642.8641       3097.372          19.280  
G20  20845285.809      158717.3200       -730.428          30.078  
G21  22856202.180      698455.4700      -2905.450          26.712  
G26  23204757.681      991794.5220      -4130.105          24.850  
R15  21858210.176     -258636.9221        980.831          17.476  
R01  22647333.777     -889134.3881       3686.468          20.194  
R23  19672126.270      384666.4560      -1636.289          29.845  
R07  21945309.478      591738.5410      -2543.878          33.807  
R08  20837456.129     -325146.1150       1257.834          28.156  
C06  39609735.251        6073.9911        -40.921          18.301  
C09  39283819.478     -187106.9571        778.210          21.345  
C14  27032282.940     1993368.9771      -3426.868          14.825  
> 2018  7  4 14 12  3.0002312  0 17
G07  24437450.905      167844.3611       -773.254          12.730  
G08  22430481.901     -519219.2981       2177.410          21.500  
G10  21297272.105     -342003.0920       1351.951          33.927  
G13  25321773.001      250181.7910      -1099.690          23.772  
G15  24427643.794       64632.4341       -334.330          21.300  
G18  24640005.979     -734745.1871       3097.771          19.333  
G20  20845314.589      159447.9410       -730.512          29.968  
G21  22856650.370      701361.0500      -2905.603          27.042  
G26  23205437.610      995924.5380      -4129.751          24.503  
R15  21857905.887     -259617.1141        980.145          19.032  
R01  22646530.933     -892817.2881       3687.521          19.900  
R23  19672316.339      386302.8970      -1636.716          29.735  
R07  21945682.720      594282.5800      -2544.139          33.786  
R08  20837109.269     -326403.7530       1257.440          27.895  
C06  39609634.521        6114.9641        -41.739          18.250  
C09  39283559.258     -187885.2931        776.354          20.523  
C14  27032836.657     1996796.0501      -3427.390          14.186  
> 2018  7  4 14 12  4.0002309  0 17
G07  24437487.779      168616.1051       -771.739          12.662  
G08  22429953.666     -521399.4961       2175.204          21.262  
G10  21296909.356     -343354.9150       1351.735          33.937  
G13  25321870.434      251282.0120      -1100.034          23.245  
G15  24427592.530       64967.4911       -334.237          21.370  
G18  24639306.563     -737841.1321       3096.191          18.437  
G20  20845346.367      160179.1960       -731.406          30.121  
G21  22857094.962      704266.6970      -2905.562          26.353  
G26  23206113.342     1000054.6860      -4129.970          24.286  
R15  21857615.688     -260597.0631        979.761          16.846  
R01  22645735.284     -896506.9361       3687.364          19.509  
R23  19672512.403      387939.6200      -1636.906          29.491  
R07  21946049.966      596827.3920      -2545.071          33.865  
R08  20836770.804     -327660.6950       1256.975          28.174  
C06  39609532.591        6156.0611        -41.581          18.791  
C09  39283298.738     -188663.5681        778.234          20.364  
C14  27033391.872     2000223.3171      -3427.759          16.854  
> 2018  7  4 14 12  5.0002305  0 17
G07  24437536.046      169386.4391       -771.859          13.314  
G08  22429435.925     -523574.7341       2175.630          21.634  
G10  21296542.710     -344706.2500       1351.069          33.886  
G13  25321967.267      252382.7140      -1100.491          23.612  
G15  24427546.661       65303.1151       -336.344          21.695  
G18  24638603.849     -740933.1011       3097.794          18.127  
G20  20845374.847      160911.0260       -732.270          29.994  
G21  22857535.058      707172.3980      -2905.891          26.141  
G26  23206789.674     1004185.0600      -4130.702          24.227  
R15  21857298.207     -261581.3391        979.158          16.722  
R01  22644937.536     -900196.3451       3686.829          20.319  
R23  19672715.363      389576.6430      -1637.382          29.365  
R07  21946416.612      599372.8250      -2545.824          33.885  
R08  20836425.443     -328916.8260       1255.539          28.050  
C06  39609431.861        6197.3871        -42.018          18.443  
C09  39283043.915     -189441.9541        781.178          21.067  
C14  27033942.891     2003650.6411      -3427.387          15.443  
> 2018  7  4 14 12  6.0002302  0 17
G07  24437575.618      170158.4451       -769.954          13.927  
G08  22428913.686     -525749.7751       2175.824          21.622  
G10  21296176.963     -346057.1400       1350.512          33.758  
G13  25322061.402      253484.0130      -1101.476          23.222  
G15  24427501.992       65639.2701       -338.442          20.935  
G18  24637902.035     -744031.2811       3098.333          17.668  
G20  20845405.126      161643.3640       -732.790          30.192  
G21  22857987.445      710078.0680      -2905.868          26.541  
G26  23207465.406     1008315.3710      -4130.204          23.805  
R15  21856984.624     -262561.7621        977.806          17.607  
R01  22644144.885     -903881.5371       3686.914          20.140  
R23  19672903.932      391213.9170      -1637.620          29.678  
R07  21946773.665      601918.9880      -2546.764          33.840  
R08  20836069.589     -330172.3710       1255.002          27.975  
C06  39609331.730        6238.5851        -41.500          18.053  
C09  39282788.491     -190220.0091        777.210          20.631  
C14  27034502.603     2007077.4931      -3428.189          16.903  
> 2018  7  4 14 12  7.0002298  0 17
G07  24437605.598      170929.9591       -772.338          14.554  
G08  22428381.255     -527924.9891       2177.968          21.886  
G10  21295810.317     -347407.6250       1350.257          34.061  
G13  25322177.721      254585.6820      -1101.804          23.119  
G15  24427463.919       65975.7951       -333.853          21.188  
G18  24637201.121     -747129.3261       3098.126          19.311  
G20  20845435.405      162376.1960       -733.397          30.031  
G21  22858424.242      712983.8040      -2906.117          26.550  
G26  23208135.142     1012445.8490      -4130.558          24.278  
R15  21856716.010     -263540.4991        977.189          17.573  
R01  22643345.938     -907566.9641       3688.959          20.127  
R23  19673108.990      392851.5120      -1637.842          29.656  
R07  21947146.007      604465.7760      -2547.422          33.761  
R08  20835732.023     -331427.2150       1254.536          28.056  
C06  39609230.101        6279.8101        -40.995          17.650  
C09  39282526.473     -190998.2321        779.550          21.471  
C14  27035051.823     2010501.0141      -3429.134          16.699  
> 2018  7  4 14 12  8.0002294  0 17
G07  24437646.369      171705.0011       -772.397          14.301  
G08  22427867.111     -530099.8701       2176.626          21.235  
G10  21295444.271     -348757.6040       1349.941          33.915  
G13  25322264.361      255688.1001      -1102.867          22.386  
G15  24427416.252       66313.0271       -335.815          20.264  
G18  24636504.403     -750227.2881       3098.367          19.742  
G20  20845469.282      163109.6680       -733.573          30.245  
G21  22858870.633      715889.5360      -2904.962          26.668  
G26  23208820.468     1016576.5320      -4130.530          24.450  
R15  21856426.111     -264521.2371        976.506          19.243  
R01  22642551.188     -911254.1991       3688.208          19.268  
R23  19673302.356      394489.4790      -1638.215          29.724  
R07  21947514.452      607013.3500      -2547.956          33.872  
R08  20835397.754     -332681.2390       1253.640          27.727  
C06  39609129.970        6321.3211        -40.713          17.688  
C09  39282267.452     -191776.1861        779.092          20.960  
C14  27035589.951     2013921.9111      -3428.733          18.125  
> 2018  7  4 14 12  9.0002291  0 17
G07  24437697.034      172477.2931       -775.488          14.128  
G08  22427349.069     -532274.7671       2171.828          21.977  
G10  21295079.123     -350107.1320       1349.211          34.062  
G13  25322368.989      256790.7920      -1103.072          23.447  
G15  24427373.082       66650.7111       -335.735          20.597  
G18  24635804.388     -753325.5181       3098.749          19.352  
G20  20845497.163      163843.6350       -734.019          30.259  
G21  22859313.726      718795.3210      -2905.372          26.797  
G26  23209497.100     1020707.1920      -4130.752          24.528  
R15  21856131.115     -265499.4881        975.348          19.184  
R01  22641751.941     -914941.2511       3688.493          19.676  
R23  19673501.718      396127.6050      -1638.420          29.611  
R07  21947894.589      609561.5580      -2548.394          34.031  
R08  20835052.094     -333934.7480       1253.520          27.581  
C06  39609028.340        6362.6761        -41.227          18.217  
C09  39282010.830     -192554.3251        774.690          20.369  
C14  27036145.466     2017341.8441      -3428.139          18.618  
> 2018  7  4 14 12 10.0002287  0 17
G07  24437747.999      173250.7891       -775.666          14.118  
G08  22426822.334     -534449.7551       2173.556          21.995  
G10  21294716.375     -351456.3800       1348.897          34.079  
G13  25322470.918      257893.9551      -1103.322          22.640  
G15  24427326.614       66988.9061       -338.841          21.434  
G18  24635105.272     -756423.6951       3099.677          19.071  
G20  20845527.741      164578.1310       -734.919          30.134  
G21  22859761.017      721701.1020      -2905.702          26.546  
G26  23210175.230     1024837.9090      -4130.938          24.958  
R15  21855834.920     -266475.3381        975.771          17.805  
R01  22640963.487     -918628.5261       3687.676          19.810  
R23  19673697.782      397765.9590      -1638.671          30.037  
R07  21948243.247      612110.3400      -2549.095          34.046  
R08  20834707.632     -335187.4470       1251.987          27.283  
C06  39608925.511        6404.1121        -41.295          17.404  
C09  39281750.310     -193332.3971        776.781          20.659  
C14  27036692.887     2020767.5891      -3428.273          18.029  
> 2018  7  4 14 12 11.0002283  0 17
G07  24437801.662      174025.1591       -775.324          14.183  
G08  22426299.496     -536624.5021       2175.604          21.857  
G10  21294353.026     -352805.1390       1348.711          34.121  
G13  25322571.648      258997.5680      -1103.359          23.108  
G15  24427282.544       67327.5601       -340.164          21.944  
G18  24634405.556     -759521.9311       3098.128          19.555  
G20  20845558.920      165313.0990       -735.200          29.842  
G21  22860199.014      724606.8730      -2905.805          26.686  
G26  23210853.361     1028968.7530      -4130.836          25.398  
R15  21855544.122     -267446.2251        976.105          18.320  
R01  22640163.341     -922320.7231       3688.170          19.634  
R23  19673904.939      399404.5910      -1638.581          29.881  
R07  21948615.590      614659.7720      -2549.750          33.935  
R08  20834361.672     -336439.5500       1251.617          27.571  
C06  39608823.882        6445.7441        -42.142          19.418  
C09  39281492.489     -194110.4901        778.723          20.512  
C14  27037242.107     2024195.5861      -3428.461          18.303  
> 2018  7  4 14 12 12.0002280  0 17
G07  24437816.052      174800.0471       -776.704          14.456  
G08  22425780.555     -538799.0871       2173.838          22.381  
G10  21293981.583     -354153.4160       1348.229          33.964  
G13  25322674.777      260101.8180      -1104.350          23.272  
G15  24427233.978       67667.0491       -341.415          21.878  
G18  24633706.740     -762620.0781       3097.204          19.182  
G20  20845591.897      166048.7240       -736.132          30.098  
G21  22860645.405      727512.7000      -2905.770          26.679  
G26  23211526.095     1033099.7140      -4130.640          25.556  
R15  21855251.824     -268424.7301        975.468          17.702  
R01  22639375.187     -926016.0771       3688.297          18.695  
R23  19674097.106      401043.6140      -1639.230          30.047  
R07  21948978.338      617209.9700      -2550.450          33.701  
R08  20834017.210     -337690.8450       1250.449          27.353  
C06  39608723.451        6487.3091        -40.379          17.970  
C09  39281236.466     -194887.3451        779.009          20.248  
C14  27037791.626     2027623.8291      -3426.260          18.507  
> 2018  7  4 14 12 13.0002276  0 17
G07  24437849.029      175576.6481       -776.042          14.874  
G08  22425252.321     -540973.6501       2175.923          22.102  
G10  21293615.237     -355501.1310       1347.472          33.957  
G13  25322769.811      261206.6730      -1105.251          23.223  
G15  24427190.508       68006.6381       -338.098          20.673  
G18  24633011.521     -765719.4541       3098.572          19.804  
G20  20845622.776      166784.8860       -736.457          29.976  
G21  22861084.600      730418.5930      -2905.640          26.603  
G26  23212203.626     1037230.8790      -4131.284          24.812  
R15  21854964.323     -269403.2821        973.484          17.679  
R01  22638570.244     -929705.1201       3688.629          21.007  
R23  19674290.772      402682.9490      -1639.694          30.067  
R07  21949345.884      619760.8970      -2551.391          33.736  
R08  20833683.241     -338941.4660       1250.676          27.814  
C06  39608621.822        6529.2351        -39.127          18.068  
C09  39280974.447     -195665.2501        777.916          21.017  
C14  27038340.247     2031052.1191      -3426.712          18.234  
> 2018  7  4 14 12 14.0002272  0 17
G07  24437880.507      176354.4171       -777.123          14.967  
G08  22424733.980     -543148.1531       2174.590          21.759  
G10  21293252.488     -356848.5630       1347.236          34.113  
G13  25322867.244      262311.9350      -1106.446          23.196  
G15  24427135.646       68346.8841       -339.637          20.683  
G18  24632314.803     -768817.8991       3098.389          19.171  
G20  20845648.258      167521.5990       -737.333          29.926  
G21  22861527.094      733324.4900      -2905.936          26.284  
G26  23212881.157     1041362.0420      -4131.268          25.042  
R15  21854657.036     -270369.2941        972.080          18.002  
R01  22637769.198     -933388.3301       3688.138          20.768  
R23  19674488.035      404322.4770      -1639.913          29.951  
R07  21949718.826      622312.3880      -2551.896          33.785  
R08  20833348.973     -340191.4040       1249.808          27.748  
C06  39608522.291        6570.9051        -39.854          18.256  
C09  39280716.326     -196443.0691        771.736          21.317  
C14  27038888.267     2034480.6261      -3425.469          18.903  
> 2018  7  4 14 12 15.0002269  0 17
G07  24437912.285      177129.0821       -777.908          14.781  
G08  22424214.739     -545322.4871       2171.855          21.363  
G10  21292882.544     -358195.5100       1346.512          33.859  
G13  25322973.970      263417.4341      -1103.360          22.218  
G15  24427090.677       68687.5331       -345.976          19.975  
G18  24631614.788     -771917.9021       3097.338          19.465  
G20  20845679.736      168258.8180       -737.561          29.841  
G21  22861971.986      736230.4020      -2906.008          25.908  
G26  23213557.489     1045493.3930      -4132.143          25.121  
R15  21854374.032     -271341.3321        972.324          18.651  
R01  22636979.545     -937067.9461       3686.212          19.821  
R23  19674689.496      405962.2560      -1640.148          29.608  
R07  21950085.472      624864.5910      -2552.643          33.898  
R08  20833009.608     -341440.6390       1248.855          27.903  
C06  39608421.560        6612.7601        -40.955          20.201  
C09  39280461.802     -197221.0091        777.326          21.403  
C14  27039436.887     2037909.1491      -3427.710          18.260  
> 2018  7  4 14 12 16.0002265  0 17
G07  24437965.948      177909.3301       -777.664          14.885  
G08  22423685.905     -547496.8411       2177.291          22.035  
G10  21292518.296     -359542.1180       1346.016          33.845  
G13  25323082.195      264523.6681      -1102.636          22.552  
G15  24427039.712       69028.5781       -346.256          19.193  
G18  24630917.770     -775016.2341       3097.205          19.029  
G20  20845715.711      168996.4470       -738.040          30.052  
G21  22862413.281      739136.2550      -2906.213          26.430  
G26  23214236.518     1049624.5720      -4131.069          25.093  
R15  21854103.619     -272314.0461        971.295          17.670  
R01  22636162.011     -940753.8621       3687.215          19.494  
R23  19674880.464      407602.2520      -1640.090          29.715  
R07  21950449.420      627417.4220      -2553.421          33.947  
R08  20832663.947     -342689.2310       1248.279          27.987  
C06  39608319.631        6654.6071        -42.130          19.628  
C09  39280200.683     -197998.8941        779.791          20.658  
C14  27039987.306     2041337.7611      -3429.739          18.073  
> 2018  7  4 14 12 17.0002262  0 17
G07  24437997.127      178687.3451       -778.513          14.967  
G08  22423164.266     -549671.1881       2176.919          21.689  
G10  21292151.051     -360888.3220       1345.902          34.121  
G13  25323180.227      265630.2271      -1108.840          22.240  
G15  24426999.540       69370.0831       -344.856          20.458  
G18  24630220.153     -778114.5821       3098.176          19.816  
G20  20845743.892      169734.6480       -738.269          30.104  
G21  22862858.772      742042.0510      -2905.609          26.534  
G26  23214914.349     1053755.9580      -4131.246          25.301  
R15  21853821.514     -273288.1011        970.945          18.311  
R01  22635371.758     -944441.7191       3679.902          18.558  
R23  19675076.828      409242.5650      -1640.435          29.712  
R07  21950816.066      629970.8470      -2553.684          34.122  
R08  20832312.290     -343937.1600       1247.426          27.261  
C06  39608219.800        6696.5191        -41.812          19.601  
C09  39279945.560     -198776.6801        775.377          21.164  
C14  27040537.126     2044767.4531      -3430.119          18.658  
> 2018  7  4 14 12 18.0002258  0 17
G07  24438030.703      179459.8161       -778.695          15.373  
G08  22422633.034     -551845.5211       2173.729          21.664  
G10  21291791.300     -362234.0380       1345.186          34.177  
G13  25323280.658      266737.4650      -1108.128          23.188  
G15  24426958.169       69711.9991       -344.219          21.066  
G18  24629520.138     -781213.2101       3098.688          19.180  
G20  20845776.569      170473.4300       -739.209          30.032  
G21  22863305.463      744947.9930      -2906.371          26.069  
G26  23215590.081     1057887.4180      -4131.334          25.291  
R15  21853530.116     -274263.3801        971.153          17.798  
R01  22634571.312     -948124.6671       3681.610          17.032  
R23  19675275.290      410883.1360      -1641.186          29.767  
R07  21951192.006      632524.9710      -2554.449          33.739  
R08  20831965.131     -345184.5120       1247.284          27.734  
C06  39608118.470        6738.2861        -41.285          19.083  
C09  39279691.935     -199554.5331        774.393          20.607  
C14  27041087.844     2048196.1691      -3431.467          18.997  
> 2018  7  4 14 12 19.0002254  0 17
G07  24438067.878      180240.3791       -778.549          15.323  
G08  22422111.095     -554019.5861       2171.565          20.991  
G10  21291425.853     -363579.3850       1345.199          34.026  
G13  25323381.088      267845.1190      -1108.276          23.064  
G15  24426916.498       70054.6601       -344.689          20.813  
G18  24628819.523     -784311.5921       3099.724          19.432  
G20  20845812.544      171212.8000       -739.743          30.204  
G21  22863753.353      747853.8810      -2906.118          26.156  
G26  23216265.514     1062019.2210      -4131.462          25.295  
R15  21853234.521     -275240.0131        969.641          17.489  
R01  22633769.068     -951804.1631       3683.708          16.468  
R23  19675468.956      412523.9580      -1640.766          29.821  
R07  21951555.055      635079.7950      -2555.262          34.098  
R08  20831635.359     -346431.0590       1246.374          27.925  
C06  39608017.740        6780.4821        -40.463          18.547  
C09  39279430.816     -200332.2871        775.313          19.692  
C14  27041637.964     2051625.0371      -3431.120          18.948  
> 2018  7  4 14 12 20.0002251  0 17
G07  24438105.352      181021.6781       -778.411          15.769  
G08  22421590.956     -556193.6521       2171.334          21.700  
G10  21291057.108     -364924.1480       1344.547          33.996  
G13  25323476.122      268953.2410      -1108.566          23.005  
G15  24426875.426       70397.7141       -344.592          20.541  
G18  24628119.807     -787410.0691       3099.596          19.457  
G20  20845843.723      171952.6560       -740.245          30.243  
G21  22864195.847      750759.8010      -2906.001          25.936  
G26  23216943.944     1066150.9280      -4131.784          25.307  
R15  21852950.018     -276209.3431        968.091          18.229  
R01  22632965.624     -955482.0651       3684.680          16.464  
R23  19675668.318      414165.1860      -1641.302          29.707  
R07  21951944.485      637635.3220      -2555.923          33.936  
R08  20831292.996     -347676.8570       1245.485          27.939  
C06  39607917.010        6822.5611        -40.010          19.512  
C09  39279169.397     -201110.0031        776.594          19.524  
C14  27042188.982     2055054.0761      -3430.647          18.494  
> 2018  7  4 14 12 21.0002247  0 17
G07  24438151.220      181798.7901       -779.325          15.887  
G08  22421071.115     -558369.2341       2174.059          20.977  
G10  21290698.556     -366268.6280       1344.230          33.985  
G13  25323585.247      270061.8370      -1109.194          24.178  
G15  24426833.755       70741.3141       -344.138          20.306  
G18  24627422.790     -790508.5551       3098.319          19.522  
G20  20845875.501      172693.0000       -740.844          30.283  
G21  22864641.338      753665.7220      -2905.966          26.327  
G26  23217624.473     1070282.6870      -4131.813          25.491  
R15  21852663.116     -277177.5951        966.199          17.389  
R01  22632161.581     -959169.5321       3684.527          15.919  
R23  19675861.385      415806.5000      -1641.166          29.756  
R07  21952287.747      640191.4910      -2556.677          33.913  
R08  20830962.625     -348922.0860       1245.191          27.544  
C06  39607815.080        6864.6101        -40.490          18.716  
C09  39278918.471     -201887.7541        778.371          20.608  
C14  27042739.101     2058483.1751      -3428.440          18.501  
> 2018  7  4 14 12 22.0002243  0 17
G07  24438207.881      182581.0851       -780.442          16.136  
G08  22420550.676     -560551.5711       2176.865          21.391  
G10  21290328.013     -367612.6110       1343.900          33.916  
G13  25323687.176      271170.9540      -1110.121          24.062  
G15  24426791.484       71085.6271       -343.699          21.337  
G18  24626723.074     -793607.1091       3098.157          18.457  
G20  20845906.679      173433.9660       -741.401          30.188  
G21  22865079.935      756571.7080      -2906.078          26.386  
G26  23218301.404     1074414.4920      -4131.641          25.671  
R15  21852363.623     -278148.5241        966.226          18.385  
R01  22631353.040     -962858.4321       3683.266          16.737  
R23  19676066.143      417448.1820      -1641.757          29.910  
R07  21952662.188      642748.3630      -2557.531          33.983  
R08  20830616.964     -350166.5070       1243.965          27.567  
C06  39607715.549        6906.8981        -42.028          18.975  
C09  39278654.353     -202665.4641        783.873          20.633  
C14  27043286.223     2061912.5341      -3429.285          18.193  
> 2018  7  4 14 12 23.0002240  0 17
G07  24438266.940      183360.0941       -780.483          16.337  
G08  22420026.339     -562728.1281       2170.502          22.088  
G10  21289965.264     -368956.1510       1343.286          34.056  
G13  25323797.200      272280.5250      -1109.839          24.013  
G15  24426745.916       71429.9781       -344.148          21.970  
G18  24626029.055     -796705.8141       3097.048          18.638  
G20  20845938.757      174175.4250       -741.797          30.407  
G21  22865523.627      759477.6720      -2905.785          26.448  
G26  23218975.638     1078546.4900      -4131.953          25.098  
R15  21852072.225     -279118.0971        965.278          17.945  
R01  22630548.697     -966550.0141       3684.677          17.595  
R23  19676265.505      419090.1040      -1641.741          29.697  
R07  21953033.031      645305.8710      -2557.819          33.714  
R08  20830268.905     -351410.2650       1243.357          27.720  
C06  39607614.219        6949.2331        -40.806          17.309  
C09  39278389.637     -203443.0801        777.199          20.499  
C14  27043836.941     2065341.8971      -3430.930          18.499  
> 2018  7  4 14 12 24.0002236  0 17
G07  24438305.913      184143.1081       -781.380          16.530  
G08  22419499.603     -564901.7691       2170.920          21.704  
G10  21289603.114     -370299.3450       1343.102          34.195  
G13  25323896.431      273390.5630      -1110.480          24.584  
G15  24426706.043       71775.2751       -346.813          21.531  
G18  24625332.937     -799804.1521       3096.673          19.504  
G20  20845970.235      174917.3900       -742.343          30.211  
G21  22865967.920      762383.6260      -2905.965          26.544  
G26  23219656.466     1082678.5400      -4132.362          25.188  
R15  21851778.429     -280078.1771        964.751          17.344  
R01  22629756.046     -970238.4551       3685.930          17.505  
R23  19676470.563      420732.3390      -1642.429          29.948  
R07  21953399.977      647863.9920      -2558.588          33.872  
R08  20829931.039     -352653.4330       1243.154          27.781  
C06  39607511.690        6991.5631        -39.855          18.162  
C09  39278134.813     -204220.6531        770.402          20.521  
C14  27044385.861     2068771.4061      -3430.505          19.656  
> 2018  7  4 14 12 25.0002232  0 17
G07  24438340.089      184924.0171       -782.193          16.447  
G08  22418983.061     -567075.5791       2178.016          22.135  
G10  21289234.969     -371642.0230       1342.391          33.882  
G13  25324000.459      274501.0310      -1110.110          24.113  
G15  24426662.274       72115.8841       -347.686          21.868  
G18  24624636.519     -802902.9271       3097.056          18.742  
G20  20846003.512      175659.9410       -743.013          30.302  
G21  22866413.112      765289.6730      -2906.528          26.428  
G26  23220335.496     1086810.6310      -4132.202          25.336  
R15  21851462.747     -281035.7401        962.753          16.398  
R01  22628958.598     -973920.6361       3685.454          17.443  
R23  19676673.223      422374.7540      -1642.403          30.351  
R07  21953767.223      650422.7960      -2559.209          34.060  
R08  20829588.376     -353895.8110       1241.916          27.876  
C06  39607411.560        7036.6161        -40.441          17.944  
C09  39277875.792     -204984.3781        771.076          20.130  
C14  27044935.980     2072200.8921      -3430.794          20.609  
> 2018  7  4 14 12 26.0002229  0 17
G07  24438363.773      185706.7351       -782.837          16.390  
G08  22418454.827     -569249.5221       2173.597          21.804  
G10  21288879.415     -372984.5380       1342.796          33.904  
G13  25324100.890      275611.8960      -1110.968          24.367  
G15  24426614.607       72461.5781       -346.421          21.858  
G18  24623939.202     -806001.9921       3097.760          17.513  
G20  20846032.892      176402.7210       -742.906          30.206  
G21  22866856.505      768195.3960      -2905.511          26.101  
G26  23221007.631     1090942.6240      -4132.174          25.412  
R15  21851194.433     -281991.3291        961.669          17.803  
R01  22628169.844     -977601.0711       3686.596          17.992  
R23  19676863.291      424017.3440      -1642.805          30.341  
R07  21954140.165      652981.9960      -2559.571          33.903  
R08  20829246.313     -355137.8200       1241.829          28.016  
C06  39607312.028        7076.5041        -41.663          18.489  
C09  39277614.973     -205757.7261        776.185          20.741  
C14  27045487.299     2075630.3041      -3430.076          20.696  
> 2018  7  4 14 12 27.0002225  0 17
G07  24438390.454      186489.0651       -782.446          16.031  
G08  22417936.186     -571423.2201       2165.464          21.743  
G10  21288509.472     -374326.7620       1342.016          33.908  
G13  25324203.419      276723.0360      -1111.591          24.335  
G15  24426579.831       72807.7681       -346.420          22.354  
G18  24623236.488     -809101.9071       3097.505          16.702  
G20  20846064.670      177145.9710       -743.650          30.057  
G21  22867298.699      771101.0600      -2905.911          26.341  
G26  23221682.464     1095074.5580      -4132.540          25.201  
R15  21850911.729     -282948.8081        960.884          18.456  
R01  22627380.191     -981285.8851       3685.563          17.743  
R23  19677062.353      425659.9410      -1642.966          30.249  
R07  21954504.113      655541.7480      -2559.974          34.099  
R08  20828908.747     -356379.1720       1240.992          28.317  
C06  39607211.298        7116.4501        -41.514          18.623  
C09  39277353.854     -206535.6071        782.927          20.662  
C14  27046037.118     2079059.7151      -3429.303          21.211  
> 2018  7  4 14 12 28.0002222  0 17
G07  24438430.027      187270.7001       -781.601          15.985  
G08  22417420.243     -573597.2311       2173.388          21.654  
G10  21288144.025     -375668.5350       1341.544          33.710  
G13  25324299.053      277834.6350      -1111.520          24.166  
G15  24426535.761       73154.2841       -344.479          22.806  
G18  24622537.972     -812203.2381       3097.782          18.442  
G20  20846099.146      177889.6800       -743.798          29.814  
G21  22867749.886      774006.6530      -2905.437          26.140  
G26  23222361.793     1099206.5340      -4132.267          25.373  
R15  21850626.326     -283908.3831        960.535          18.663  
R01  22626584.242     -984971.6081       3684.197          16.788  
R23  19677261.715      427302.8180      -1643.072          30.071  
R07  21954880.353      658102.2150      -2561.026          33.945  
R08  20828564.585     -357619.9220       1240.591          28.259  
C06  39607111.467        7157.9691        -41.812          18.137  
C09  39277099.630     -207313.4141        777.736          20.372  
C14  27046585.439     2082489.3311      -3429.399          20.894  
> 2018  7  4 14 12 29.0002218  0 17
G07  24438465.402      188054.7591       -782.978          16.403  
G08  22416903.700     -575770.8241       2179.013          21.085  
G10  21287784.274     -377009.7110       1341.068          33.756  
G13  25324398.883      278947.0030      -1112.618          24.346  
G15  24426497.987       73501.7891       -345.011          22.564  
G18  24621839.755     -815307.3931       3098.073          17.764  
G20  20846131.823      178634.1480       -744.701          29.959  
G21  22868186.984      776912.5880      -2906.027          26.093  
G26  23223043.522     1103338.8070      -4132.716          25.858  
R15  21850341.523     -284867.3421        960.804          17.273  
R01  22625769.106     -988656.3611       3684.687          17.962  
R23  19677453.283      428946.1760      -1643.412          30.025  
R07  21955246.699      660663.5050      -2561.713          33.869  
R08  20828220.423     -358859.6870       1239.497          27.985  
C06  39607011.337        7200.4371        -43.408          18.004  
C09  39276843.007     -208090.9611        774.218          19.830  
C14  27047135.258     2085919.1341      -3429.589          20.478  
> 2018  7  4 14 12 30.0002214  0 17
G07  24438529.558      188835.9261       -783.182          16.208  
G08  22416380.862     -577944.5011       2169.428          21.386  
G10  21287414.630     -378350.6170       1340.456          33.774  
G13  25324508.907      280059.5600      -1112.762          23.902  
G15  24426453.018       73849.4901       -347.613          23.236  
G18  24621145.136     -818411.5641       3098.546          18.370  
G20  20846164.201      179378.9490       -744.991          30.113  
G21  22868630.676      779818.2540      -2905.746          26.106  
G26  23223716.556     1107470.9430      -4132.126          25.498  
R15  21850055.222     -285827.4451        958.667          19.410  
R01  22624965.362     -992335.5871       3685.591          15.798  
R23  19677648.447      430589.6300      -1643.507          29.702  
R07  21955625.637      663225.2460      -2562.251          33.578  
R08  20827876.861     -360098.9880       1239.357          28.141  
C06  39606910.906        7242.7001        -42.488          18.729  
C09  39276583.087     -208868.8151        777.885          19.212  
C14  27047688.375     2089348.7591      -3427.564          21.292  
> 2018  7  4 14 12 31.0002211  0 17
G07  24438574.527      189618.6531       -784.384          16.520  
G08  22415845.133     -580118.0911       2173.390          21.512  
G10  21287055.778     -379691.0670       1340.115          33.673  
G13  25324616.833      281172.8350      -1113.882          24.318  
G15  24426410.748       74197.7960       -348.884          23.009  
G18  24620444.221     -821516.6301       3098.536          17.453  
G20  20846200.476      180124.3370       -745.785          30.255  
G21  22869080.665      782723.9190      -2905.026          26.197  
G26  23224394.686     1111603.2940      -4132.342          25.098  
R15  21849766.821     -286785.5161        956.873          18.853  
R01  22624167.914     -996014.1281       3685.233          15.097  
R23  19677845.111      432233.3900      -1643.791          29.749  
R07  21955986.287      665787.7370      -2562.969          33.729  
R08  20827541.093     -361337.4900       1237.961          27.991  
C06  39606810.176        7285.1201        -42.499          18.461  
C09  39276326.165     -209646.6331        777.056          20.494  
C14  27048237.595     2092778.7281      -3427.060          21.172  
> 2018  7  4 14 12 32.0002207  0 17
G07  24438620.995      190404.2991       -784.236          16.113  
G08  22415328.291     -582291.2381       2172.373          22.475  
G10  21286688.232     -381030.7730       1339.011          33.769  
G13  25324710.967      282286.6421      -1113.298          24.061  
G15  24426373.873       74546.8231       -349.599          22.203  
G18  24619742.407     -824620.5621       3099.186          18.439  
G20  20846235.851      180870.5840       -746.822          30.474  
G21  22869521.660      785630.0060      -2906.215          25.849  
G26  23225072.217     1115736.0280      -4133.399          25.508  
R15  21849480.819     -287739.2031        956.697          18.172  
R01  22623365.370     -999697.4561       3684.818          16.346  
R23  19678047.771      433877.7670      -1644.739          30.019  
R07  21956364.325      668351.1220      -2563.862          33.678  
R08  20827199.330     -362575.1340       1236.983          28.030  
C06  39606709.146        7327.9061        -41.203          20.082  
C09  39276067.744     -210424.0131        777.120          20.530  
C14  27048782.617     2096209.0171      -3434.083          20.493  
> 2018  7  4 14 12 33.0002203  0 17
G07  24438653.073      191189.2731       -784.408          16.126  
G08  22414806.053     -584464.2141       2174.527          21.987  
G10  21286323.985     -382369.9860       1338.639          33.747  
G13  25324814.396      283401.2780      -1115.262          23.344  
G15  24426332.802       74896.3411       -345.899          22.088  
G18  24619045.090     -827721.9781       3098.021          17.475  
G20  20846268.529      181617.4190       -747.094          30.476  
G21  22869968.650      788536.1540      -2905.997          26.252  
G26  23225755.744     1119868.9400      -4133.320          25.644  
R15  21849184.924     -288694.4821        957.772          17.378  
R01  22622567.922    -1003376.8391       3686.582          17.279  
R23  19678251.630      435522.5240      -1644.900          29.822  
R07  21956723.477      670915.3160      -2564.423          34.019  
R08  20826860.564     -363811.9520       1236.430          28.082  
C06  39606610.214        7370.9171        -41.348          18.967  
C09  39275810.222     -211201.2841        777.101          20.612  
C14  27049339.632     2099639.5051      -3432.785          19.717  
> 2018  7  4 14 12 34.0002200  0 17
G07  24438680.953      191977.2891       -785.148          16.213  
G08  22414283.514     -586637.1381       2172.278          22.909  
G10  21285964.234     -383708.8080       1338.695          33.614  
G13  25324917.824      284516.2201      -1112.248          22.160  
G15  24426283.636       75246.4621       -345.238          21.630  
G18  24618352.269     -830816.7011       3100.272          17.454  
G20  20846297.608      182364.8400       -747.739          30.428  
G21  22870413.242      791442.3790      -2906.349          26.067  
G26  23226429.977     1124001.8630      -4133.160          25.780  
R15  21848895.325     -289653.1711        955.546          17.307  
R01  22621761.181    -1007059.0381       3682.979          16.411  
R23  19678454.290      437167.5050      -1645.287          30.126  
R07  21957105.112      673480.2160      -2565.080          33.981  
R08  20826528.694     -365048.0390       1235.661          28.091  
C06  39606509.784        7414.4021        -40.498          19.861  
C09  39275553.300     -211978.5251        776.242          20.286  
C14  27049890.650     2103070.1011      -3431.145          20.229  
> 2018  7  4 14 12 35.0002196  0 17
G07  24438729.520      192762.7751       -786.318          16.589  
G08  22413755.280     -588810.0801       2174.447          22.422  
G10  21285600.885     -385047.0410       1338.115          33.744  
G13  25325024.850      285631.7830      -1115.736          23.308  
G15  24426243.464       75597.2351       -350.242          21.774  
G18  24617654.952     -833914.1071       3101.434          18.359  
G20  20846335.982      183112.7860       -748.473          30.386  
G21  22870860.833      794348.5900      -2906.321          26.134  
G26  23227103.311     1128134.9360      -4133.247          25.938  
R15  21848613.520     -290613.5341        954.291          17.200  
R01  22620954.139    -1010738.2921       3682.975          15.459  
R23  19678653.951      438812.7770      -1645.557          30.117  
R07  21957460.067      676045.7920      -2566.121          33.904  
R08  20826197.424     -366283.3880       1234.902          28.256  
C06  39606409.653        7457.3451        -41.310          19.439  
C09  39275295.179     -212755.7901        777.882          20.900  
C14  27050441.369     2106500.9811      -3430.610          19.467  
> 2018  7  4 14 12 36.0002193  0 17
G07  24438769.092      193547.8721       -786.324          16.506  
G08  22413239.637     -590982.8151       2172.301          21.844  
G10  21285236.338     -386385.0390       1337.745          33.761  
G13  25325133.375      286747.7360      -1116.882          23.653  
G15  24426205.390       75948.3161       -352.227          21.957  
G18  24616955.237     -837008.9561       3101.598          19.513  
G20  20846369.858      183861.1780       -748.593          30.515  
G21  22871301.827      797254.8030      -2906.438          26.049  
G26  23227790.735     1132268.1260      -4133.189          25.587  
R15  21848333.813     -291576.3251        954.195          15.531  
R01  22620170.182    -1014418.7721       3682.699          15.277  
R23  19678860.508      440458.2520      -1645.452          30.026  
R07  21957842.602      678611.9470      -2566.419          33.749  
R08  20825847.266     -367518.1900       1234.507          28.184  
C06  39606309.223        7500.4071        -40.985          19.346  
C09  39275037.357     -213532.9551        778.503          20.766  
C14  27050990.889     2109931.5581      -3430.697          18.647  
> 2018  7  4 14 12 37.0002189  0 17
G07  24438811.063      194337.9551       -787.064          16.579  
G08  22412720.097     -593155.5561       2170.400          21.740  
G10  21284875.387     -387722.5050       1337.315          33.659  
G13  25325234.705      287864.1690      -1116.860          23.168  
G15  24426170.314       76299.9321       -354.126          21.963  
G18  24616256.420     -840108.1101       3101.171          18.461  
G20  20846403.435      184610.1630       -749.206          30.333  
G21  22871745.820      800160.9830      -2906.269          26.483  
G26  23228466.167     1136401.3540      -4133.615          25.997  
R15  21848036.119     -292526.6691        953.753          17.083  
R01  22619359.543    -1018097.6251       3681.016          16.264  
R23  19679047.279      442104.0670      -1646.023          29.978  
R07  21958208.648      681178.8350      -2567.234          33.884  
R08  20825503.104     -368752.2480       1233.545          28.248  
C06  39606209.092        7543.5801        -41.613          19.589  
C09  39274780.135     -214310.1451        778.222          20.124  
C14  27051541.907     2113362.4631      -3430.985          18.927  
> 2018  7  4 14 12 38.0002185  0 17
G07  24438854.833      195124.4501       -788.357          16.457  
G08  22412197.858     -595328.1461       2168.920          21.922  
G10  21284508.441     -389059.5290       1336.795          33.765  
G13  25325342.930      288981.1410      -1117.036          23.553  
G15  24426128.643       76659.0661       -353.583          21.921  
G18  24615560.002     -843213.2331       3099.176          18.830  
G20  20846435.513      185359.6240       -749.620          30.220  
G21  22872187.114      803067.1970      -2906.221          26.150  
G26  23229147.596     1140534.6190      -4133.151          25.516  
R15  21847746.820     -293475.2561        954.167          16.802  
R01  22618545.007    -1021776.6131       3679.764          15.669  
R23  19679250.239      443750.0760      -1645.964          30.154  
R07  21958579.792      683746.2870      -2567.561          33.913  
R08  20825165.838     -369985.6260       1233.023          28.409  
C06  39606108.362        7586.7701        -42.052          18.059  
C09  39274521.714     -215087.3001        777.176          20.846  
C14  27052092.026     2116793.1001      -3431.549          17.876  
> 2018  7  4 14 12 39.0002182  0 17
G07  24438899.502      195912.9991       -789.123          16.413  
G08  22411677.718     -597500.7971       2170.423          22.190  
G10  21284152.288     -390396.1050       1336.281          33.821  
G13  25325444.859      290098.6990      -1118.562          23.631  
G15  24426079.177       77011.6891       -350.559          22.683  
G18  24614863.585     -846318.7221       3097.512          19.501  
G20  20846471.488      186109.7540       -750.236          30.328  
G21  22872633.206      805973.4950      -2906.271          26.086  
G26  23229826.026     1144668.1130      -4133.594          25.496  
R15  21847454.822     -294428.9421        952.079          15.964  
R01  22617748.459    -1025452.4821       3679.593          14.801  
R23  19679445.403      445396.4320      -1646.533          30.311  
R07  21958963.826      686314.5840      -2568.437          33.897  
R08  20824828.271     -371218.2180       1232.421          28.011  
C06  39606007.631        7629.9571        -42.226          18.703  
C09  39274264.792     -215864.3681        776.982          20.807  
C14  27052642.445     2120219.8601      -3432.529          17.624  
> 2018  7  4 14 12 40.0002178  0 17
G07  24438935.477      196698.8111       -789.043          16.304  
G08  22411153.681     -599673.3071       2173.370          22.162  
G10  21283788.040     -391732.2480       1335.787          33.745  
G13  25325546.189      291216.5120      -1117.924          23.234  
G15  24426038.106       77364.7471       -354.572          22.324  
G18  24614165.967     -849422.1381       3098.104          18.154  
G20  20846506.864      186860.2860       -750.653          30.333  
G21  22873078.697      808879.7830      -2906.609          26.160  
G26  23230497.561     1148801.6470      -4133.834          25.080  
R15  21847170.918     -295384.8571        950.235          15.923  
R01  22616951.610    -1029126.8401       3681.869          15.662  
R23  19679648.963      447042.9610      -1646.854          30.416  
R07  21959329.572      688883.4490      -2569.387          33.773  
R08  20824487.407     -372450.1510       1231.443          28.335  
C06  39605908.700        7673.4411        -42.014          19.131  
C09  39274007.271     -216641.4581        775.475          20.685  
C14  27053193.764     2123650.9491      -3432.970          17.904  
> 2018  7  4 14 12 41.0002175  0 17
G07  24438966.655      197489.3891       -786.314          16.216  
G08  22410627.545     -601845.6941       2172.902          22.430  
G10  21283430.088     -393068.0670       1335.436          33.607  
G13  25325650.517      292334.9830      -1119.263          23.140  
G15  24426005.428       77718.4191       -354.569          22.765  
G18  24613467.151     -852523.2631       3099.196          17.452  
G20  20846542.239      187611.3500       -751.329          30.261  
G21  22873523.289      811786.0170      -2906.425          26.153  
G26  23231177.490     1152935.1090      -4133.402          25.201  
R15  21846875.623     -296344.0501        952.182          17.203  
R01  22616157.460    -1032801.0371       3680.798          15.490  
R23  19679854.920      448689.7760      -1646.954          30.526  
R07  21959695.019      691452.8540      -2569.849          33.927  
R08  20824142.346     -373681.4320       1230.764          28.721  
C06  39605808.269        7716.7921        -42.846          19.271  
C09  39273751.248     -217418.5231        775.988          20.940  
C14  27053743.583     2127082.3091      -3431.996          17.616  
> 2018  7  4 14 12 42.0002171  0 18
G07  24439012.823      198277.0381       -787.762          15.959  
G08  22410093.315     -604018.2991       2174.208          22.003  
G10  21283063.442     -394403.6030       1335.234          33.709  
G13  25325751.247      293453.6630      -1119.359          23.058  
G15  24425964.057       78072.1931       -356.360          22.529  
G16  21399620.951      834963.8191      -3029.081          15.883  
G18  24612768.035     -855621.2951       3099.566          17.007  
G20  20846577.015      188362.7850       -751.910          30.347  
G21  22873972.378      814692.1420      -2906.670          26.385  
G26  23231853.522     1157068.6080      -4133.896          25.555  
R15  21846590.220     -297299.0561        949.969          17.186  
R01  22615368.406    -1036477.2161       3681.919          16.599  
R23  19680053.682      450336.6320      -1647.057          30.273  
R07  21960080.852      694022.8180      -2570.320          34.197  
R08  20823813.774     -374912.2430       1230.279          28.998  
C06  39605708.439        7760.0671        -42.808          18.817  
C09  39273494.026     -218195.7001        776.239          19.849  
C14  27054294.602     2130513.3941      -3430.878          16.415  
> 2018  7  4 14 12 43.0002167  0 18
G07  24439035.608      199065.5731       -788.733          16.178  
G08  22409586.366     -606190.6991       2172.104          22.150  
G10  21282700.993     -395738.6480       1334.745          33.630  
G13  25325861.571      294572.8021      -1121.527          22.705  
G15  24425920.587       78426.6210       -354.267          23.067  
G16  21400091.325      837994.0011      -3028.972          16.045  
G18  24612065.022     -858717.7401       3098.556          17.073  
G20  20846610.292      189114.7900       -752.335          30.732  
G21  22874417.870      817598.2330      -2906.023          26.013  
G26  23232535.850     1161202.2250      -4133.840          25.346  
R15  21846296.124     -298250.6481        950.371          17.955  
R01  22614576.355    -1040153.1231       3680.555          16.961  
R23  19680254.243      451983.9480      -1647.513          30.451  
R07  21960442.402      696593.5340      -2571.319          33.891  
R08  20823490.298     -376142.2900       1229.572          29.320  
C06  39605609.507        7803.2921        -43.093          19.177  
C09  39273236.504     -218972.9181        775.934          20.355  
C14  27054844.721     2133945.0081      -3432.499          16.962  
> 2018  7  4 14 12 44.0002164  0 18
G07  24439073.681      199857.5331       -789.850          16.242  
G08  22409060.530     -608363.0041       2173.498          21.978  
G10  21282336.745     -397073.2780       1334.461          33.584  
G13  25325963.201      295692.5550      -1120.280          23.196  
G15  24425881.314       78781.5611       -354.633          22.844  
G16  21400568.295      841023.1481      -3029.689          15.992  
G18  24611365.906     -861815.8421       3096.559          18.266  
G20  20846648.366      189867.3570       -752.722          30.893  
G21  22874860.663      820504.3540      -2906.026          26.200  
G26  23233216.979     1165335.8460      -4133.518          25.083  
R15  21846022.713     -299207.7371        950.646          16.927  
R01  22613797.794    -1043831.7351       3682.247          16.480  
R23  19680451.507      453631.5000      -1647.742          30.392  
R07  21960824.937      699164.8170      -2571.488          33.934  
R08  20823143.738     -377371.6550       1228.831          28.891  
C06  39605509.976        7846.8201        -42.773          18.969  
C09  39272980.182     -219750.0771        776.262          20.773  
C14  27055393.341     2137376.8931      -3432.032          17.282  
> 2018  7  4 14 12 45.0002160  0 18
G07  24439128.244      200650.1161       -790.092          16.393  
G08  22408540.390     -610535.1381       2174.333          22.400  
G10  21281975.195     -398407.3900       1333.624          33.426  
G13  25326072.025      296812.7741      -1121.475          22.991  
G15  24425839.643       79136.9901       -350.250          22.487  
G16  21401038.369      844052.0381      -3029.845          16.222  
G18  24610665.591     -864916.9131       3095.796          17.311  
G20  20846680.743      190620.4670       -753.197          30.510  
G21  22875307.054      823410.6280      -2906.512          26.327  
G26  23233889.713     1169469.7210      -4134.170          25.341  
R15  21845733.713     -300161.2531        950.338          18.394  
R01  22613010.239    -1047507.6941       3682.508          16.368  
R23  19680646.672      455279.3150      -1648.007          30.621  
R07  21961182.889      701736.8150      -2572.306          33.850  
R08  20822797.177     -378600.3530       1228.284          28.646  
C06  39605409.246        7890.2841        -43.767          18.369  
C09  39272722.660     -220527.0921        775.615          20.270  
C14  27055942.861     2140808.5911      -3431.677          16.730  
> 2018  7  4 14 12 46.0002157  0 18
G07  24439168.416      201438.5991       -790.785          18.043  
G08  22408021.749     -612707.2691       2173.062          22.660  
G10  21281609.448     -399741.1220       1333.483          33.578  
G13  25326177.852      297933.5890      -1121.212          23.423  
G15  24425796.173       79493.1001       -357.716          22.789  
G16  21401516.538      847081.5101      -3030.477          16.283  
G18  24609971.871     -868015.3671       3099.117          17.096  
G20  20846718.817      191374.1740       -753.955          30.680  
G21  22875755.844      826316.8480      -2906.130          26.151  
G26  23234569.342     1173603.6370      -4133.802          25.329  
R15  21845445.313     -301107.4621        949.604          17.809  
R01  22612210.093    -1051187.1651       3683.474          16.199  
R23  19680840.038      456927.4680      -1648.298          30.462  
R07  21961561.827      704309.5730      -2573.365          33.783  
R08  20822456.913     -379828.2540       1227.413          28.523  
C06  39605310.014        7933.8901        -44.086          18.137  
C09  39272466.637     -221304.0411        777.199          20.808  
C14  27056491.481     2144240.9741      -3431.436          15.278  
> 2018  7  4 14 12 47.0002153  0 18
G07  24439214.584      202232.2421       -791.781          18.270  
G08  22407504.308     -614879.3401       2169.970          22.602  
G10  21281255.693     -401074.2420       1333.002          33.308  
G13  25326283.679      299054.8410      -1121.215          23.690  
G15  24425760.498       79849.7431       -359.883          22.452  
G16  21401959.032      850118.8531      -3031.216          18.726  
G18  24609273.355     -871114.6131       3100.304          16.490  
G20  20846754.192      192128.5000       -754.835          30.668  
G21  22876198.038      829223.2450      -2906.541          25.687  
G26  23235246.574     1177737.7320      -4134.080          25.561  
R15  21845160.510     -302047.9421        948.176          17.940  
R01  22611415.043    -1054870.8311       3682.483          15.373  
R23  19681047.494      458575.9850      -1648.737          30.288  
R07  21961926.675      706883.0220      -2573.677          33.840  
R08  20822114.250     -381055.4650       1227.123          28.927  
C06  39605209.584        7977.5261        -43.843          18.661  
C09  39272209.415     -222080.9991        777.202          21.221  
C14  27057039.501     2147672.7301      -3431.131          14.929  
> 2018  7  4 14 12 48.0002149  0 18
G07  24439262.850      203028.7971       -793.842          18.644  
G08  22406977.572     -617051.2711       2168.583          22.432  
G10  21280889.647     -402407.0580       1332.607          33.185  
G13  25326383.809      300176.6550      -1122.031          23.500  
G15  24425714.330       80206.7570       -357.113          23.183  
G16  21402422.511      853145.9391      -3029.924          18.730  
G18  24608572.140     -874219.0611       3100.576          17.163  
G20  20846788.669      192883.3020       -755.135          30.508  
G21  22876639.932      832129.5300      -2906.591          25.813  
G26  23235932.499     1181871.9050      -4134.595          25.033  
R15  21844878.705     -302997.0211        946.501          18.289  
R01  22610603.205    -1058555.1041       3681.248          14.289  
R23  19681243.559      460224.6400      -1648.623          30.254  
R07  21962309.809      709457.1460      -2574.697          33.828  
R08  20821785.678     -382281.8520       1226.034          29.023  
C06  39605109.753        8021.3511        -41.943          19.338  
C09  39271951.893     -222857.7891        778.102          20.372  
C14  27057592.319     2151107.9901      -3430.093          14.426  
> 2018  7  4 14 12 49.0002146  0 18
G07  24439312.616      203822.8651       -794.632          20.247  
G08  22406464.627     -619223.1791       2172.933          22.672  
G10  21280526.898     -403739.5340       1332.098          33.341  
G13  25326495.632      301298.7620      -1121.951          24.071  
G15  24425670.560       80564.1550       -357.966          23.264  
G16  21402899.781      856178.9851      -3031.281          18.859  
G18  24607875.422     -877321.0961       3102.093          18.312  
G20  20846823.444      193638.5290       -755.730          29.954  
G21  22877085.423      835035.7010      -2905.838          25.664  
G26  23236605.233     1186005.9780      -4134.374          25.537  
R15  21844592.104     -303944.5241        947.161          19.779  
R01  22609789.269    -1062235.8041       3680.739          15.356  
R23  19681442.321      461873.5320      -1648.902          29.954  
R07  21962676.156      712031.7620      -2574.805          33.852  
R08  20821455.906     -383507.7580       1225.669          28.750  
C06  39605010.222        8065.0481        -42.627          18.691  
C09  39271694.372     -223634.8841        778.338          20.791  
C14  27058144.536     2154540.5291      -3430.142          14.867  
> 2018  7  4 14 12 50.0002142  0 18
G07  24439361.482      204617.0201       -794.427          20.577  
G08  22405936.093     -621395.0681       2174.971          22.722  
G10  21280167.447     -405071.6150       1331.664          33.540  
G13  25326598.461      302421.3550      -1122.954          23.787  
G15  24425626.790       80921.9100       -357.940          23.196  
G16  21403365.358      859212.1041      -3032.349          19.313  
G18  24607176.306     -880421.9051       3101.494          17.181  
G20  20846857.921      194394.2280       -756.258          30.212  
G21  22877523.720      837941.9030      -2906.361          25.925  
G26  23237286.961     1190140.1330      -4134.503          25.085  
R15  21844306.102     -304891.7041        947.175          20.545  
R01  22608990.621    -1065915.1581       3682.396          16.275  
R23  19681645.580      463522.6260      -1649.506          30.272  
R07  21963046.999      714607.0750      -2576.050          33.528  
R08  20821117.740     -384732.9650       1224.349          28.998  
C06  39604910.091        8108.7091        -43.595          20.056  
C09  39271438.049     -224411.7751        777.735          20.938  
C14  27058699.152     2157972.0321      -3431.824          15.663  
> 2018  7  4 14 12 51.0002139  0 18
G07  24439405.252      205411.7621       -793.873          20.979  
G08  22405414.454     -623566.9371       2172.069          21.905  
G10  21279805.597     -406403.2760       1331.337          33.480  
G13  25326705.187      303544.4930      -1123.648          24.146  
G15  24425588.717       81280.3490       -359.064          23.505  
G16  21403834.534      862245.4871      -3031.306          18.861  
G18  24606479.589     -883521.4201       3100.941          16.554  
G20  20846892.996      195150.4540       -756.950          30.248  
G21  22877976.107      840848.0850      -2906.223          26.089  
G26  23237963.593     1194274.3910      -4134.521          25.119  
R15  21844020.399     -305837.1421        946.908          19.700  
R01  22608209.362    -1069598.7071       3683.555          14.854  
R23  19681847.640      465171.9520      -1649.376          30.366  
R07  21963428.035      717182.9330      -2576.386          33.497  
R08  20820792.166     -385957.6280       1224.162          29.402  
C06  39604811.160        8152.5341        -45.053          19.711  
C09  39271179.328     -225188.7501        777.071          20.521  
C14  27059249.272     2161400.5561      -3432.961          15.547  
> 2018  7  4 14 12 52.0002135  0 18
G07  24439449.921      206203.0221       -794.873          20.820  
G08  22404898.212     -625738.7341       2170.099          22.249  
G10  21279444.047     -407734.4670       1330.890          33.480  
G13  25326810.714      304668.1220      -1124.065          24.107  
G15  24425546.146       81639.3130       -359.814          23.273  
G16  21404300.411      865279.4001      -3031.906          18.653  
G18  24605786.169     -886621.2011       3102.938          16.061  
G20  20846929.871      195907.2560       -757.105          30.330  
G21  22878420.699      843754.3990      -2906.975          25.782  
G26  23238640.824     1198408.7850      -4134.901          25.555  
R15  21843734.697     -306777.0131        945.206          20.924  
R01  22607413.114    -1073280.0051       3683.987          15.599  
R23  19682044.304      466821.6490      -1650.085          30.267  
R07  21963792.283      719759.5120      -2576.805          33.285  
R08  20820456.698     -387181.5060       1223.574          29.545  
C06  39604712.528        8196.2711        -44.744          19.096  
C09  39270921.207     -225965.6341        776.297          20.447  
C14  27059799.391     2164826.9531      -3432.033          16.603  
> 2018  7  4 14 12 53.0002131  0 18
G07  24439494.890      206994.3671       -795.625          21.230  
G08  22404377.172     -627910.2861       2172.719          22.409  
G10  21279083.097     -409065.2250       1330.116          33.496  
G13  25326920.438      305792.1940      -1124.526          23.345  
G15  24425523.962       81998.5790       -359.322          24.028  
G16  21404773.783      868313.6431      -3034.801          17.889  
G18  24605082.856     -889718.6391       3103.430          15.315  
G20  20846966.146      196664.5570       -757.847          30.285  
G21  22878864.092      846660.6160      -2906.805          25.977  
G26  23239321.053     1202543.1460      -4134.636          25.772  
R15  21843448.995     -307725.4891        944.643          19.620  
R01  22606609.070    -1076960.7111       3683.036          16.214  
R23  19682247.264      468471.6160      -1650.550          30.394  
R07  21964165.225      722336.7330      -2577.805          33.522  
R08  20820118.532     -388404.6980       1222.787          29.332  
C06  39604614.496        8240.9251        -44.570          19.051  
C09  39270664.585     -226742.5901        776.497          20.522  
C14  27060348.910     2168259.6311      -3433.161          17.168  
> 2018  7  4 14 12 54.0002128  0 18
G07  24439538.959      207793.3131       -795.692          20.349  
G08  22403854.934     -630081.9221       2171.397          22.603  
G10  21278717.950     -410395.4280       1330.080          33.556  
G13  25327022.367      306916.8270      -1124.727          23.953  
G15  24425482.890       82358.6040       -359.981          23.823  
G16  21405242.659      871348.4771      -3035.112          15.691  
G18  24604384.639     -892820.9381       3103.424          16.386  
G20  20847002.421      197422.5020       -758.016          30.337  
G21  22879313.181      849566.9090      -2906.405          25.825  
G26  23240001.582     1206677.7920      -4134.762          25.548  
R15  21843161.194     -308672.8751        943.530          19.259  
R01  22605831.109    -1080638.6131       3682.698          15.473  
R23  19682442.129      470121.9020      -1650.476          30.212  
R07  21964546.861      724914.7830      -2578.387          33.500  
R08  20819773.771     -389627.1280       1222.142          29.230  
C06  39604515.564        8290.8911        -44.203          19.405  
C09  39270407.063     -227519.2961        776.906          20.098  
C14  27060901.428     2171691.5111      -3433.857          17.013  
> 2018  7  4 14 12 55.0002124  0 18
G07  24439582.129      208595.2801       -796.654          20.221  
G08  22403329.398     -632253.4001       2170.019          22.488  
G10  21278362.396     -411725.3410       1329.432          33.478  
G13  25327130.293      308041.8740      -1124.994          24.504  
G15  24425440.619       82718.8960       -360.040          23.700  
G16  21405714.832      874386.2551      -3034.647          16.316  
G18  24603683.424     -895928.7551       3102.154          16.239  
G20  20847041.394      198180.8880       -758.344          30.150  
G21  22879754.476      852473.2210      -2906.893          25.847  
G26  23240680.612     1210812.3460      -4134.458          24.910  
R15  21842874.293     -309616.1911        944.062          19.681  
R01  22605033.661    -1084315.9461       3683.462          17.378  
R23  19682645.088      471772.2950      -1650.642          30.055  
R07  21964914.406      727493.3980      -2578.910          33.515  
R08  20819441.600     -390848.8930       1221.273          29.273  
C06  39604416.033        8340.9151        -44.250          18.979  
C09  39270149.841     -228296.1171        776.124          21.221  
C14  27061450.648     2175123.3871      -3432.748          17.622  
> 2018  7  4 14 12 56.0002121  0 18
G07  24439626.499      209392.7321       -796.816          19.757  
G08  22402809.857     -634424.7011       2169.747          22.655  
G10  21277999.048     -413054.7070       1328.978          33.577  
G13  25327226.826      309167.4630      -1125.834          24.131  
G15  24425399.248       83079.8430       -360.786          23.860  
G16  21406190.303      877426.4841      -3035.737          16.770  
G18  24602987.007     -899035.0761       3100.138          14.616  
G20  20847076.469      198939.8980       -759.373          30.099  
G21  22880195.770      855379.5450      -2906.802          25.863  
G26  23241364.438     1214947.1750      -4135.056          25.516  
R15  21842585.593     -310557.4431        943.928          19.930  
R01  22604229.617    -1087991.8081       3683.385          17.071  
R23  19682850.446      473423.0840      -1650.999          30.539  
R07  21965285.849      730072.6780      -2579.604          33.450  
R08  20819102.535     -392069.9480       1220.874          29.574  
C06  39604317.402        8393.8841        -44.813          18.105  
C09  39269891.120     -229072.8151        776.127          20.697  
C14  27062003.465     2178559.4191      -3432.869          15.907  
> 2018  7  4 14 12 57.0002117  0 18
G07  24439669.369      210184.8211       -797.350          20.013  
G08  22402283.122     -636596.1071       2170.531          22.460  
G10  21277637.798     -414383.8390       1328.777          33.399  
G13  25327342.546      310293.3490      -1125.182          23.780  
G15  24425362.673       83441.2070       -361.339          23.329  
G16  21406657.979      880469.4491      -3036.569          17.354  
G18  24602287.891     -902143.4711       3102.618          15.191  
G20  20847112.444      199699.2910       -759.647          30.257  
G21  22880643.660      858285.7580      -2906.300          25.763  
G26  23242042.269     1219081.9270      -4135.308          25.416  
R15  21842298.391     -311495.1221        942.420          20.400  
R01  22603435.467    -1091674.1331       3685.799          16.680  
R23  19683052.207      475073.9690      -1650.966          30.548  
R07  21965667.185      732652.5570      -2580.438          33.419  
R08  20818761.671     -393290.3890       1220.249          29.798  
C06  39604217.870        8437.9911        -47.174          19.197  
C09  39269634.498     -229849.7241        780.161          20.803  
C14  27062554.783     2181994.9371      -3432.633          17.383  
> 2018  7  4 14 12 58.0002113  0 18
G07  24439711.340      210980.1361       -798.878          19.480  
G08  22401768.079     -638767.5351       2174.662          22.648  
G10  21277280.145     -415712.5220       1328.704          33.579  
G13  25327449.572      311419.8730      -1126.569          24.040  
G15  24425324.899       83802.9500       -361.525          23.756  
G16  21407130.752      883505.3741      -3036.449          18.826  
G18  24601593.271     -905254.0101       3102.447          16.277  
G20  20847147.220      200459.2160       -760.295          30.396  
G21  22881090.051      861191.9480      -2906.230          26.035  
G26  23242715.903     1223216.6420      -4134.937          25.141  
R15  21842012.090     -312431.2231        940.216          19.764  
R01  22602644.015    -1095355.9781       3685.098          16.134  
R23  19683242.575      476725.1930      -1651.571          30.203  
R07  21966042.225      735232.9620      -2580.706          33.608  
R08  20818433.099     -394510.0990       1219.451          29.613  
C06  39604118.939        8482.1901        -45.977          18.710  
C09  39269378.775     -230626.4671        777.407          20.057  
C14  27063106.401     2185427.8541      -3434.215          16.999  
> 2018  7  4 14 12 59.0002110  0 18
G07  24439757.808      211778.3611       -798.765          19.903  
G08  22401244.941     -640938.6811       2174.941          22.106  
G10  21276914.998     -417040.7830       1327.962          33.413  
G13  25327550.002      312546.7680      -1127.013          24.056  
G15  24425284.727       84165.3541       -364.618          22.923  
G16  21407600.227      886541.5881      -3037.442          17.768  
G18  24600898.652     -908353.7741       3101.826          15.248  
G20  20847185.894      201219.6890       -761.145          30.276  
G21  22881531.945      864098.1560      -2906.069          25.820  
G26  23243398.530     1227351.4800      -4135.038          25.169  
R15  21841732.983     -313366.6141        940.012          20.770  
R01  22601862.756    -1099048.0031       3685.154          15.748  
R23  19683443.136      478376.6010      -1651.839          30.251  
R07  21966408.272      737814.1320      -2581.729          33.696  
R08  20818094.333     -395729.1640       1218.651          29.619  
C06  39604019.408        8526.3211        -45.380          18.385  
C09  39269122.752     -231403.2951        776.778          20.169  
C14  27063659.219     2188861.7201      -3435.135          15.366  
> 2018  7  4 14 13  0.0002106  0 18
G07  24439805.775      212577.4301       -799.467          19.667  
G08  22400719.405     -643109.7101       2170.887          21.584  
G10  21276554.648     -418368.4270       1327.404          33.782  
G13  25327652.831      313674.3360      -1127.707          23.872  
G15  24425250.851       84528.2360       -363.214          23.469  
G16  21408067.903      889578.5871      -3038.703          18.977  
G18  24600201.335     -911451.0221       3099.804          15.161  
G20  20847225.766      201980.7440       -761.163          30.401  
G21  22881979.235      867004.5890      -2906.523          25.633  
G26  23244076.061     1231486.6600      -4135.318          24.634  
R15  21841452.077     -314308.6991        939.902          20.936  
R01  22601060.811    -1102734.1681       3684.592          16.326  
R23  19683647.594      480028.4880      -1651.877          30.291  
R07  21966796.803      740396.1430      -2582.299          33.554  
R08  20817760.065     -396947.3950       1217.898          29.525  
C06  39603920.476        8570.1601        -45.256          18.216  
C09  39268864.631     -232179.8821        778.280          20.651  
C14  27064210.837     2192296.9171      -3432.450          15.303  
> 2018  7  4 14 13  1.0002103  0 18
G07  24439850.144      213376.7831       -800.253          20.945  
G08  22400201.063     -645280.8061       2167.979          22.111  
G10  21276192.498     -419695.6480       1326.807          33.476  
G13  25327765.553      314802.3791      -1127.200          22.959  
G15  24425209.479       84891.7570       -364.173          23.018  
G16  21408541.275      892615.9511      -3039.733          19.577  
G18  24599498.921     -914556.8681       3100.186          15.132  
G20  20847264.139      202742.4370       -762.125          30.371  
G21  22882423.828      869911.0030      -2906.236          25.417  
G26  23244752.093     1235621.8670      -4135.671          25.282  
R15  21841175.369     -315253.3171        938.531          20.386  
R01  22600268.160    -1106421.9161       3683.925          15.810  
R23  19683854.151      481680.6110      -1652.128          30.360  
R07  21967170.644      742978.7470      -2583.223          33.499  
R08  20817421.899     -398164.9540       1217.332          29.593  
C06  39603821.245        8614.6061        -44.040          17.080  
C09  39268605.610     -232961.6481        779.827          20.486  
C14  27064757.958     2195732.2731      -3431.449          13.120  
> 2018  7  4 14 13  2.0002099  0 18
G07  24439891.515      214176.5911       -798.964          20.904  
G08  22399690.817     -647451.8551       2169.991          21.654  
G10  21275833.347     -421022.5630       1326.678          33.723  
G13  25327878.575      315930.8360      -1128.955          23.151  
G15  24425164.810       85255.6120       -364.260          23.387  
G16  21409011.050      895653.5101      -3040.494          18.717  
G18  24598791.711     -917712.8881       3100.711          15.226  
G20  20847300.114      203504.5690       -762.580          30.509  
G21  22882869.319      872817.3160      -2906.502          25.619  
G26  23245431.722     1239757.0760      -4135.771          24.739  
R15  21840892.964     -316193.3681        937.261          20.817  
R01  22599469.513    -1110110.2371       3686.612          14.671  
R23  19684057.710      483332.9750      -1652.551          30.354  
R07  21967529.196      745561.8450      -2583.319          33.409  
R08  20817101.121     -399381.9510       1216.355          29.608  
C06  39603722.913        8659.0321        -44.512          18.720  
C09  39268343.591     -233738.4231        774.768          20.149  
C14  27065305.979     2199168.6041      -3432.973          13.179  
> 2018  7  4 14 13  3.0002095  0 18
G07  24439933.786      214976.7541       -799.021          21.050  
G08  22399155.387     -649622.6851       2174.081          22.158  
G10  21275476.894     -422349.0880       1326.177          33.150  
G13  25327979.005      317059.7081      -1130.115          23.057  
G15  24425131.833       85619.9170       -364.973          23.776  
G16  21409481.125      898691.2431      -3040.049          18.454  
G18  24598101.289     -920809.9341       3099.262          14.898  
G20  20847338.188      204267.1370       -762.958          30.726  
G21  22883316.010      875723.5200      -2905.769          25.880  
G26  23246115.249     1243892.2250      -4135.543          25.430  
R15  21840615.357     -317130.5131        937.172          20.772  
R01  22598669.367    -1113797.0381       3684.939          15.212  
R23  19684258.871      484985.4860      -1652.891          30.278  
R07  21967912.631      748145.6120      -2584.129          33.331  
R08  20816760.557     -400598.3130       1215.888          29.554  
C06  39603622.782        8703.9761        -42.770          19.643  
C09  39268091.766     -234515.1561        771.640          20.594  
C14  27065862.993     2202597.6781      -3432.300          14.559  
> 2018  7  4 14 13  4.0002092  0 18
G07  24439975.157      215777.4951       -799.117          20.233  
G08  22398643.642     -651793.5770       2170.706          23.090  
G10  21275109.948     -423675.1520       1325.824          33.443  
G13  25328091.127      318189.0110      -1129.437          23.276  
G15  24425097.657       85984.6920       -366.030          23.317  
G16  21409948.501      901729.2731      -3040.139          17.524  
G18  24597404.571     -923911.1191       3098.493          15.305  
G20  20847371.165      205030.1830       -763.083          30.628  
G21  22883759.403      878629.8550      -2906.221          25.620  
G26  23246788.883     1248027.5070      -4135.122          25.026  
R15  21840330.854     -318071.0941        937.320          19.629  
R01  22597880.313    -1117480.9791       3682.496          14.597  
R23  19684456.434      486638.3160      -1653.063          30.276  
R07  21968292.468      750730.0190      -2584.785          33.512  
R08  20816427.187     -401813.8230       1215.302          29.527  
C06  39603521.153        8748.3891        -43.795          18.507  
C09  39267839.340     -235291.8891        775.751          20.590  
C14  27066414.611     2206028.3021      -3433.163          14.762  
> 2018  7  4 14 13  5.0002088  0 18
G07  24440022.524      216578.5181       -799.466          20.833  
G08  22398122.902     -653964.3611       2168.857          22.573  
G10  21274755.893     -425000.7900       1325.516          33.394  
G13  25328188.560      319318.8690      -1129.948          23.813  
G15  24425058.684       86349.8440       -365.381          23.652  
G16  21410418.576      904767.3381      -3040.058          19.086  
G18  24596723.443     -927009.1311       3098.935          15.185  
G20  20847410.438      205793.8780       -763.998          30.474  
G21  22884200.098      881536.2000      -2906.360          26.160  
G26  23247465.515     1252162.8940      -4135.388          24.602  
R15  21840047.849     -319016.0601        936.870          20.076  
R01  22597074.171    -1121223.9611       3682.602          14.905  
R23  19684660.293      488291.3710      -1653.346          30.038  
R07  21968662.411      753315.1730      -2585.536          33.307  
R08  20816084.225     -403028.7570       1214.555          29.369  
C06  39603421.622        8792.9481        -44.541          19.536  
C09  39267582.119     -236068.4031        779.068          20.349  
C14  27066965.630     2209464.2901      -3433.844          15.397  
> 2018  7  4 14 13  6.0002085  0 18
G07  24440065.994      217380.1311       -801.377          18.995  
G08  22397595.267     -656135.2681       2167.192          22.441  
G10  21274395.243     -426326.0710       1325.111          33.431  
G13  25328297.085      320449.2250      -1130.949          23.486  
G15  24425013.715       86715.6880       -366.216          24.386  
G16  21410893.447      907805.8121      -3039.740          18.856  
G18  24596028.524     -930110.8871       3099.722          14.686  
G20  20847447.612      206558.0870       -764.641          30.558  
G21  22884651.286      884442.5140      -2906.659          26.063  
G26  23248143.345     1256298.3170      -4135.159          24.765  
R15  21839760.948     -319952.5931        935.540          20.022  
R01  22596298.608    -1124906.3801       3682.335          14.359  
R23  19684860.854      489944.6840      -1653.472          30.144  
R07  21969036.253      755900.9240      -2586.083          33.407  
R08  20815748.157     -404242.9910       1213.954          28.944  
C06  39603322.390        8837.4721        -44.209          19.723  
C09  39267325.796     -236845.0411        778.525          20.569  
C14  27067510.652     2212904.2391      -3434.019          16.416  
> 2018  7  4 14 13  7.0002081  0 18
G07  24440110.364      218181.9761       -802.068          18.122  
G08  22397072.429     -658305.8911       2171.641          21.993  
G10  21274037.590     -427650.9390       1324.617          33.545  
G13  25328407.408      321579.8300      -1130.416          24.328  
G15  24424975.941       87081.7660       -365.959          23.762  
G16  21411365.320      910844.4771      -3038.559          19.010  
G18  24595321.913     -933212.6561       3101.693          14.900  
G20  20847487.785      207322.7110       -764.980          30.714  
G21  22885094.079      887348.7160      -2906.126          25.740  
G26  23248827.771     1260433.8540      -4135.684          25.386  
R15  21839474.047     -320881.2431        933.527          19.269  
R01  22595506.856    -1128588.0251       3683.293          14.685  
R23  19685061.416      491598.1990      -1653.359          30.263  
R07  21969417.289      758487.3260      -2586.806          33.314  
R08  20815421.983     -405456.5790       1213.261          29.216  
C06  39603223.159        8882.0001        -45.121          19.728  
C09  39267068.874     -237621.7011        775.343          20.675  
C14  27068064.369     2216338.0601      -3434.742          16.108  
> 2018  7  4 14 13  8.0002077  0 18
G07  24440158.330      218984.5471       -802.746          20.699  
G08  22396551.390     -660476.5361       2175.992          22.477  
G10  21273676.340     -428975.2630       1323.906          33.595  
G13  25328511.736      322711.1760      -1131.799          24.615  
G15  24424942.064       87448.5770       -367.117          23.929  
G16  21411836.594      913884.0731      -3040.392          17.795  
G18  24594618.600     -936311.1881       3101.721          14.661  
G20  20847523.160      208087.8850       -765.590          30.750  
G21  22885543.468      890255.0480      -2906.375          26.288  
G26  23249511.898     1264569.4300      -4135.778          25.274  
R15  21839193.441     -321815.1591        932.687          19.824  
R01  22594655.146    -1132269.9061       3680.112          14.507  
R23  19685258.979      493252.0860      -1654.102          30.355  
R07  21969797.126      761074.4060      -2587.561          33.346  
R08  20815082.318     -406669.4090       1212.233          29.514  
C06  39603125.727        8926.6691        -44.856          19.397  
C09  39266810.153     -238398.1771        774.848          21.191  
C14  27068624.681     2219772.0381      -3434.248          15.313  
> 2018  7  4 14 13  9.0002074  0 18
G07  24440200.901      219787.4641       -803.701          20.481  
G08  22396035.447     -662647.1031       2173.199          22.621  
G10  21273314.191     -430299.3120       1323.938          33.510  
G13  25328624.458      323842.8430      -1131.753          24.778  
G15  24424903.991       87815.7920       -367.860          24.195  
G16  21412303.671      916923.6141      -3041.426          18.698  
G18  24593913.488     -939410.8011       3100.809          14.751  
G20  20847563.632      208853.5690       -765.895          30.817  
G21  22885988.660      893161.3600      -2906.901          26.369  
G26  23250190.028     1268705.0780      -4135.991          24.847  
R15  21838906.540     -322750.9581        933.109          19.743  
R01  22593866.392    -1135951.7661       3681.098          14.901  
R23  19685469.133      494906.2030      -1654.667          30.299  
R07  21970166.770      763661.9940      -2587.856          33.184  
R08  20814741.754     -407881.6970       1211.796          29.422  
C06  39603027.395        8971.4231        -44.633          18.833  
C09  39266554.130     -239174.7001        776.986          21.663  
C14  27069185.593     2223206.0211      -3434.144          15.508  
> 2018  7  4 14 13 10.0002070  0 18
G07  24440244.970      220590.9471       -805.864          21.578  
G08  22395521.603     -664817.6781       2165.357          22.849  
G10  21272955.939     -431622.8570       1323.057          33.428  
G13  25328733.283      324975.0450      -1132.339          24.614  
G15  24424866.217       88183.5220       -368.252          24.222  
G16  21412772.846      919964.1111      -3041.378          18.032  
G18  24593215.871     -942511.5031       3099.728          15.001  
G20  20847601.106      209619.8540       -766.804          30.811  
G21  22886435.650      896067.6490      -2906.617          26.036  
G26  23250872.656     1272840.8320      -4136.373          24.781  
R15  21838625.334     -323690.6401        932.450          18.730  
R01  22593048.258    -1139632.2701       3681.014          14.876  
R23  19685669.994      496560.5420      -1654.738          30.263  
R07  21970534.615      766250.3240      -2588.896          33.113  
R08  20814412.282     -409093.2300       1211.210          29.346  
C06  39602926.664        9016.1571        -44.460          18.348  
C09  39266294.210     -239951.3981        779.241          19.834  
C14  27069741.408     2226640.8221      -3435.077          13.604  
> 2018  7  4 14 13 11.0002067  0 18
G07  24440292.338      221394.8201       -807.255          21.437  
G08  22395000.864     -666988.0450       2170.390          23.024  
G10  21272595.589     -432945.9270       1322.783          33.369  
G13  25328845.405      326107.7990      -1133.141          24.780  
G15  24424827.844       88551.5890       -368.139          24.761  
G16  21413243.220      923003.2421      -3039.893          17.761  
G18  24592516.155     -945613.2801       3100.302          14.916  
G20  20847642.178      210386.6030       -767.070          30.479  
G21  22886880.542      898973.9430      -2906.225          26.062  
G26  23251548.388     1276976.5910      -4135.562          24.310  
R15  21838349.825     -324632.0031        932.254          18.883  
R01  22592255.007    -1143314.1691       3681.180          14.146  
R23  19685871.455      498215.0900      -1654.808          30.313  
R07  21970913.253      768839.3270      -2589.366          33.358  
R08  20814073.817     -410304.0590       1210.623          29.420  
C06  39602828.033        9060.9261        -45.291          18.911  
C09  39266037.588     -240727.7811        778.106          19.943  
C14  27070295.724     2230076.5981      -3434.655          12.391  
> 2018  7  4 14 13 12.0002063  0 18
G07  24440342.403      222199.0231       -806.211          22.101  
G08  22394478.325     -669158.4350       2170.207          23.164  
G10  21272234.339     -434268.7450       1322.605          33.654  
G13  25328948.534      327240.8570      -1133.508          24.979  
G15  24424789.170       88920.4070       -369.188          24.521  
G16  21413718.091      926043.2991      -3041.694          18.518  
G18  24591817.039     -948708.9111       3099.292          14.625  
G20  20847678.752      211153.7750       -767.281          30.228  
G21  22887324.235      901880.2080      -2906.330          26.385  
G26  23252223.521     1281112.4370      -4135.946          23.976  
R15  21838065.922     -325571.1511        931.309          19.007  
R01  22591495.633    -1146994.8781       3680.773          13.289  
R23  19686074.414      499869.9650      -1655.064          29.941  
R07  21971308.380      771428.8860      -2589.877          33.314  
R08  20813740.148     -411514.2570       1209.911          29.469  
C06  39602730.300        9101.2331        -44.852          18.189  
C09  39265780.666     -241504.2541        778.305          20.667  
C14  27070848.542     2233514.9031      -3434.836           9.128  
> 2018  7  4 14 13 13.0002059  0 17
G07  24440388.871      223003.8421       -805.157          22.270  
G08  22393948.892     -671328.7250       2170.320          23.004  
G10  21271879.684     -435591.0510       1321.941          33.659  
G13  25329051.363      328374.5110      -1134.209          24.895  
G15  24424753.795       89289.4160       -368.731          24.384  
G16  21414188.466      929089.1901      -3041.437          18.939  
G18  24591114.925     -951808.0361       3100.129          14.064  
G20  20847717.725      211921.5860       -768.113          30.384  
G21  22887774.823      904786.5160      -2906.713          25.997  
G26  23252902.850     1285248.4460      -4136.811          24.566  
R15  21837791.911     -326501.3291        927.789          19.368  
R23  19686274.376      501525.1180      -1655.648          29.807  
R07  21971678.923      774019.2030      -2590.498          33.349  
R08  20813411.875     -412723.7600       1209.088          29.540  
C06  39602630.469        9143.6361        -46.315          19.220  
C09  39265522.245     -242280.6911        778.263          20.459  
C14  27071392.065     2236954.8711      -3434.003          11.196  
> 2018  7  4 14 13 14.0002056  0 17
G07  24440433.540      223808.9441       -803.934          22.286  
G08  22393426.354     -673499.0101       2171.611          22.701  
G10  21271519.933     -436912.8990       1321.508          33.706  
G13  25329163.185      329508.5290      -1134.136          24.742  
G15  24424723.516       89659.1330       -370.116          24.604  
G16  21414663.937      932139.0631      -3042.052          19.407  
G18  24590386.430     -954908.9041       3100.500          13.204  
G20  20847754.000      212689.8910       -768.600          30.550  
G21  22888214.319      907692.7670      -2906.307          26.244  
G26  23253579.182     1289384.3850      -4136.213          24.553  
R15  21837518.501     -327429.0761        928.700          17.556  
R23  19686469.841      503180.4450      -1655.873          30.040  
R07  21972049.766      776610.0310      -2591.124          33.601  
R08  20813079.705     -413932.5300       1208.350          29.404  
C06  39602531.538        9188.5591        -46.682          18.714  
C09  39265265.023     -243057.2071        778.234          20.557  
C14  27071933.490     2240391.7711      -3433.829           9.874  
> 2018  7  4 14 13 15.0002052  0 17
G07  24440477.310      224614.5011       -805.368          22.854  
G08  22392918.505     -675669.2571       2168.851          22.783  
G10  21271163.480     -438234.4820       1321.145          33.890  
G13  25329267.813      330643.1040      -1135.135          24.898  
G15  24424687.241       90029.2080       -370.462          24.839  
G16  21415134.611      935185.9721      -3041.202          18.483  
G18  24589720.890     -958008.4101       3101.007          13.166  
G20  20847790.875      213458.7250       -769.394          30.353  
G21  22888658.312      910598.9920      -2906.448          26.095  
G26  23254259.711     1293520.3790      -4135.887          23.915  
R15  21837223.805     -328351.0941        927.776          18.172  
R23  19686689.588      504836.0040      -1656.164          30.164  
R07  21972423.008      779201.4940      -2591.639          33.462  
R08  20812747.535     -415140.7070       1207.462          29.458  
C06  39602432.007        9233.5631        -44.771          18.438  
C09  39265008.700     -243833.6731        777.156          21.120  
C14  27072489.905     2243831.5171      -3434.503          11.197  
> 2018  7  4 14 13 16.0002049  0 17
G07  24440525.576      225420.5871       -807.785          22.362  
G08  22392395.967     -677839.3470       2169.899          23.360  
G10  21270805.228     -439555.5370       1320.910          33.937  
G13  25329379.336      331778.0940      -1135.481          25.070  
G15  24424650.666       90399.7520       -371.082          24.543  
G16  21415606.484      938231.2481      -3043.591          18.061  
G18  24589019.976     -961110.1931       3098.685          12.831  
G20  20847830.747      214227.9830       -769.731          30.421  
G21  22889111.298      913505.2150      -2906.252          26.310  
G26  23254939.940     1297656.5100      -4136.268          23.925  
R15  21836940.501     -329280.7241        927.611          19.086  
R23  19686879.957      506491.8210      -1656.316          30.238  
R07  21972807.342      781793.6770      -2592.327          33.678  
R08  20812415.365     -416348.2050       1207.126          29.260  
C06  39602333.675        9278.4581        -45.886          19.446  
C09  39264753.277     -244610.1641        777.387          20.288  
C14  27073031.330     2247268.3461      -3435.383          11.191  
> 2018  7  4 14 13 17.0002045  0 16
G07  24440574.143      226226.9311       -808.110          22.693  
G08  22391880.624     -680009.5600       2169.802          23.115  
G10  21270443.378     -440876.3630       1320.469          34.080  
G13  25329483.064      332913.4070      -1135.967          24.718  
G15  24424611.693       90770.6100       -371.023          24.030  
G16  21416080.156      941275.9881      -3045.018          18.526  
G18  24588331.952     -964212.3241       3099.943          12.380  
G20  20847874.817      214997.6700       -770.009          30.675  
G21  22889549.894      916411.3200      -2906.154          26.032  
G26  23255628.264     1301792.5780      -4136.329          23.451  
R15  21836663.492     -330213.6571        926.972          18.803  
R23  19687068.526      508147.7900      -1656.286          30.079  
R07  21973179.384      784386.3570      -2593.151          33.543  
R08  20812083.195     -417555.1660       1206.534          29.334  
C06  39602234.743        9323.3761        -46.328          19.857  
C09  39264496.055     -245386.7811        777.587          20.752  
> 2018  7  4 14 13 18.0002042  0 16
G07  24440620.610      227033.8500       -807.066          23.187  
G08  22391354.788     -682179.5490       2169.784          23.965  
G10  21270088.724     -442196.5680       1320.003          33.774  
G13  25329590.389      334049.2820      -1135.753          24.572  
G15  24424570.622       91142.1170       -371.574          24.154  
G16  21416550.231      944315.6641      -3045.941          17.688  
G18  24587628.039     -967314.8601       3100.725          11.685  
G20  20847915.888      215768.0590       -770.914          30.678  
G21  22890001.082      919317.5630      -2906.268          26.125  
G26  23256302.497     1305928.8500      -4136.553          24.297  
R15  21836385.885     -331141.4391        927.533          18.935  
R23  19687273.884      509804.1550      -1656.507          30.047  
R07  21973564.318      786979.8260      -2593.949          33.780  
R08  20811752.823     -418761.2670       1205.538          29.405  
C06  39602137.011        9368.4311        -46.579          20.318  
C09  39264240.632     -246163.1681        776.562          20.294  
> 2018  7  4 14 13 19.0002038  0 16
G07  24440671.575      227841.2941       -806.817          22.455  
G08  22390843.042     -684349.5840       2170.057          23.973  
G10  21269725.076     -443516.3930       1319.342          33.803  
G13  25329713.005      335185.7510      -1137.023          25.075  
G15  24424528.351       91514.1850       -372.044          24.064  
G16  21417022.404      947362.6201      -3045.834          18.206  
G20  20847952.463      216538.8030       -770.939          30.716  
G21  22890450.171      922223.7670      -2906.256          26.287  
G26  23256985.724     1310065.2110      -4137.041          23.792  
R15  21836102.581     -332063.2871        926.335          17.662  
R23  19687477.143      511460.7610      -1656.903          29.872  
R07  21973929.165      789573.9800      -2594.266          33.346  
R08  20811416.156     -419966.6770       1204.900          29.257  
C06  39602038.080        9413.6001        -46.775          18.733  
C09  39263983.110     -246939.6051        776.875          20.560  
C14  27074705.371     2257574.9111      -3436.289          14.009  
> 2018  7  4 14 13 20.0002034  0 17
G07  24440719.242      228649.2271       -810.175          22.467  
G08  22390322.602     -686519.3530       2169.583          23.025  
G10  21269365.325     -444835.8240       1319.113          33.997  
G13  25329819.131      336322.6670      -1137.289          25.047  
G15  24424493.575       91886.7670       -372.918          24.656  
G16  21417492.778      950412.2331      -3046.015          18.926  
G18  24586243.898     -973515.3411       3099.903          12.439  
G20  20847991.436      217310.2760       -772.004          30.524  
G21  22890887.568      925130.0490      -2906.490          25.921  
G26  23257655.160     1314201.6591      -4136.664          23.265  
R15  21835825.573     -332985.5221        926.290          18.592  
R23  19687684.600      513117.6740      -1656.941          29.662  
R07  21974306.304      792168.7950      -2595.390          33.307  
R08  20811085.785     -421171.3720       1204.141          29.194  
C06  39601940.347        9458.6961        -44.850          18.654  
C09  39263727.387     -247716.0121        775.869          19.782  
C14  27075259.088     2261006.6481      -3435.593          13.730  
> 2018  7  4 14 13 21.0002031  0 17
G07  24440771.706      229457.4481       -811.656          22.634  
G08  22389795.567     -688689.3550       2170.394          23.812  
G10  21269013.069     -446154.9120       1318.697          34.214  
G13  25329926.157      337459.8880      -1137.764          25.245  
G15  24424455.202       92259.5650       -373.611          24.016  
G16  21417959.255      953453.7131      -3046.230          18.640  
G18  24585536.088     -976615.9191       3098.020          12.282  
G20  20848031.008      218082.0770       -772.512          30.472  
G21  22891340.854      928036.1210      -2906.268          26.327  
G26  23258344.983     1318337.8801      -4136.263          22.981  
R15  21835540.770     -333909.9761        925.766          18.199  
R23  19687892.955      514774.6190      -1657.224          29.723  
R07  21974691.837      794763.9980      -2595.689          33.588  
R08  20810756.913     -422375.5950       1203.811          29.121  
C06  39601841.715        9503.6661        -45.499          19.577  
C09  39263472.264     -248492.5011        774.104          20.658  
C14  27075809.207     2264434.4111      -3435.043          14.520  
> 2018  7  4 14 13 22.0002027  0 17
G07  24440802.884      230265.8071       -807.479          22.102  
G08  22389278.125     -690859.3120       2170.066          23.818  
G10  21268653.917     -447473.7520       1318.556          34.283  
G13  25330034.082      338597.4490      -1137.803          24.918  
G15  24424420.725       92632.7060       -372.728          24.572  
G16  21418433.527      956500.6661      -3046.474          19.085  
G18  24584838.770     -979718.5781       3100.982          11.761  
G20  20848067.883      218854.1190       -772.362          30.387  
G21  22891781.849      930942.0480      -2905.921          26.131  
G26  23259023.713     1322474.1110      -4136.299          23.693  
R15  21835274.854     -334834.3341        925.907          17.768  
R23  19688091.118      516431.6560      -1656.900          30.135  
R07  21975065.978      797359.7420      -2595.861          33.761  
R08  20810415.749     -423579.2480       1203.441          29.520  
C06  39601744.283        9548.7831        -46.112          19.361  
C09  39263215.941     -249269.1461        774.993          19.841  
C14  27076361.125     2267870.8251      -3435.522          12.973  
> 2018  7  4 14 13 23.0002024  0 16
G07  24440846.654      231074.7771       -809.395          22.033  
G08  22388753.189     -693029.0900       2168.514          23.920  
G10  21268295.665     -448792.1330       1317.800          34.091  
G13  25330143.806      339735.5330      -1138.719          24.864  
G15  24424385.650       93006.4730       -374.245          24.330  
G16  21418903.901      959547.9461      -3046.623          18.581  
G20  20848109.254      219626.8550       -773.206          30.518  
G21  22892229.140      933848.0610      -2906.549          26.071  
G26  23259703.642     1326610.4540      -4136.684          23.677  
R15  21835005.640     -335754.6981        923.649          17.302  
R23  19688294.977      518089.1350      -1658.245          30.239  
R07  21975450.912      799956.1820      -2597.356          33.610  
R08  20810088.076     -424782.2380       1202.465          29.343  
C06  39601645.651        9593.7451        -45.219          19.135  
C09  39262960.218     -250045.6821        775.510          19.922  
C14  27076915.142     2271304.6741      -3434.878          15.504  
> 2018  7  4 14 13 24.0002020  0 17
G07  24440897.918      231884.3221       -812.143          21.896  
G08  22388229.451     -695198.9570       2169.980          23.507  
G10  21267935.315     -450110.0140       1317.817          34.461  
G13  25330255.029      340874.1270      -1138.777          24.878  
G15  24424345.777       93380.8420       -374.664          24.746  
G16  21419376.674      962592.7091      -3044.699          19.192  
G18  24583451.331     -985920.0621       3101.546          11.216  
G20  20848147.028      220400.1560       -773.454          30.635  
G21  22892675.231      936754.0860      -2905.704          26.226  
G26  23260383.572     1330747.0321      -4137.547          22.836  
R15  21834721.137     -336673.1911        921.885          17.101  
R23  19688491.041      519746.8280      -1657.671          30.172  
R07  21975824.154      802553.3050      -2597.404          33.516  
R08  20809761.002     -425984.5080       1202.119          29.481  
C06  39601547.019        9638.9471        -44.737          19.006  
C09  39262703.896     -250822.3001        775.512          20.519  
C14  27077461.064     2274734.7961      -3435.001          16.359  
> 2018  7  4 14 13 25.0002016  0 16
G07  24440947.984      232694.2401       -812.168          21.514  
G08  22387713.209     -697368.8330       2169.864          23.171  
G10  21267579.761     -451427.5980       1317.186          34.227  
G13  25330359.957      342013.1160      -1139.599          24.835  
G15  24424312.800       93755.4360       -375.006          24.265  
G16  21419847.948      965641.5691      -3044.520          18.826  
G20  20848185.701      221173.8830       -774.302          30.588  
G21  22893117.724      939660.0150      -2906.076          26.693  
G26  23261059.604     1334883.4850      -4137.146          23.106  
R15  21834433.636     -337591.5991        921.790          17.479  
R23  19688696.399      521404.6650      -1658.029          29.853  
R07  21976193.798      805151.0120      -2598.024          33.533  
R08  20809419.539     -427186.1550       1201.139          29.264  
C06  39601449.287        9683.8451        -44.749          17.646  
C09  39262446.374     -251598.7071        775.322          20.577  
C14  27078009.984     2278162.7411      -3434.909          19.141  
> 2018  7  4 14 13 26.0002013  0 16
G07  24440995.351      233504.4211       -809.967          21.805  
G08  22387195.467     -699538.6640       2169.606          23.770  
G10  21267225.706     -452744.9180       1317.066          33.988  
G13  25330472.679      343152.4490      -1139.752          24.713  
G15  24424277.724       94130.4540       -375.198          24.186  
G16  21420322.219      968691.3841      -3045.564          19.105  
G20  20848228.871      221947.9700       -774.440          30.807  
G21  22893565.015      942565.8680      -2905.682          26.453  
G26  23261737.134     1339019.9220      -4137.160          23.042  
R15  21834147.035     -338506.0981        921.927          16.808  
R23  19688905.954      523062.6930      -1658.367          29.479  
R07  21976582.928      807749.3180      -2598.789          33.494  
R08  20809084.371     -428387.2210       1200.508          29.293  
C06  39601351.255        9729.0851        -44.904          18.507  
C09  39262190.651     -252375.4851        774.684          21.092  
C14  27078562.201     2281597.9301      -3435.140          19.192  
> 2018  7  4 14 13 27.0002009  0 16
G07  24441041.819      234315.4651       -810.908          21.200  
G08  22386678.325     -701708.0780       2169.438          23.248  
G10  21266862.957     -454061.3370       1316.113          34.367  
G13  25330583.302      344292.6560      -1140.354          24.888  
G15  24424242.649       94506.4950       -376.563          23.627  
G16  21420795.892      971736.7691      -3047.115          19.949  
G20  20848272.341      222723.0380       -775.633          30.687  
G21  22894010.207      945472.1630      -2906.635          26.854  
G26  23262422.160     1343156.7600      -4136.550          23.113  
R15  21833866.429     -339431.1981        918.762          16.374  
R23  19689108.014      524721.3580      -1659.018          29.606  
R07  21976957.369      810348.5880      -2599.675          33.518  
R08  20808756.098     -429587.1140       1198.844          29.475  
C06  39601253.223        9774.5871        -44.974          19.342  
C09  39261934.029     -253151.7181        774.866          20.458  
C14  27079114.719     2285033.6701      -3435.800          19.358  
> 2018  7  4 14 13 28.0002006  0 16
G07  24441087.087      235126.9691       -809.677          20.873  
G08  22386159.384     -703877.2031       2167.291          22.242  
G10  21266504.106     -455377.2670       1315.812          34.485  
G13  25330695.125      345433.4980      -1141.315          25.072  
G15  24424206.973       94883.0250       -377.316          24.228  
G16  21421268.664      974780.5641      -3047.012          19.502  
G20  20848311.314      223498.7080       -776.174          30.399  
G21  22894457.197      948378.4710      -2906.498          26.734  
G26  23263101.490     1347293.8521      -4141.418          22.861  
R15  21833577.729     -340351.9151        919.285          15.460  
R23  19689307.376      526380.4240      -1659.378          29.693  
R07  21977339.604      812948.6190      -2600.466          33.778  
R08  20808431.123     -430786.3760       1198.840          29.378  
C06  39601155.491        9820.1571        -45.103          19.137  
C09  39261678.905     -253927.8551        775.661          20.673  
C14  27079668.436     2288469.4521      -3436.065          19.970  
> 2018  7  4 14 13 29.0002002  0 17
G07  24441135.054      235939.0581       -815.328          21.335  
G08  22385629.651     -706046.3641       2168.264          22.426  
G10  21266147.053     -456692.7490       1315.232          34.402  
G13  25330802.151      346574.6850      -1141.404          25.826  
G15  24424170.099       95259.9130       -376.921          23.871  
G16  21421741.737      977831.8491      -3048.293          20.252  
G18  24579959.348    -1001425.1241       3102.844           9.689  
G20  20848352.386      224274.8480       -776.163          30.150  
G21  22894908.085      951284.7470      -2906.212          26.529  
G26  23263787.115     1351430.8401      -4137.381          22.461  
R15  21833304.618     -341276.3851        917.975          15.033  
R23  19689515.432      528039.6210      -1659.251          29.855  
R07  21977712.246      815549.1980      -2600.755          33.617  
R08  20808100.752     -431984.8300       1198.248          29.287  
C06  39601055.959        9867.1741        -44.713          19.855  
C09  39261421.384     -254703.9721        776.136          20.025  
C14  27080221.553     2291905.3751      -3435.719          19.856  
> 2018  7  4 14 13 30.0001999  0 16
G07  24441184.220      236751.3861       -814.201          21.749  
G08  22385114.907     -708215.5771       2167.232          22.596  
G10  21265791.799     -458007.9650       1315.083          34.456  
G13  25330920.269      347716.3630      -1142.148          25.619  
G15  24424135.623       95637.3420       -377.899          24.387  
G16  21422215.109      980879.5201      -3048.595          20.749  
G20  20848389.860      225051.4380       -777.009          30.641  
G21  22895355.375      954191.0140      -2906.600          26.256  
G26  23264467.045     1355568.0751      -4135.554          22.501  
R15  21833019.515     -342199.1811        918.187          14.442  
R23  19689712.696      529699.0900      -1659.450          29.562  
R07  21978087.287      818150.5000      -2601.702          33.712  
R08  20807774.877     -433182.7540       1197.523          29.358  
C06  39600956.728        9912.4201        -44.711          18.861  
C09  39261165.061     -255480.1431        775.522          19.286  
C14  27080773.770     2295341.3011      -3435.581          20.260  
