     2              OBSERVATION DATA    G (GPS)             RINEX VERSION / TYPE
TerraSat GeoGenius GPS+GLONASS Decoder  11-Jun-99 12:23:09  PGM / RUN BY / DATE
K116____                      K1163260                      MARKER NAME
                                                            OBSERVER / AGENCY
      9227          TRIMBLE              722 306            REC # / TYPE / VERS
00000000            EXT_COMP_L12_GP                         ANT # / TYPE
  4157401.3385   823307.2093  4751176.1458                  APPROX POSITION XYZ
        0.0000        0.0000        0.0000                  ANTENNA: DELTA H/E/N
     1     1     0                                          WAVELENGTH FACT L1/2
     5    C1    P2    L1    L2    D1                        # / TYPES OF OBSERV
     5                                                      INTERVAL
  1998    11    22    11    15   20.000000        GPS       TIME OF FIRST OBS
                                                            END OF HEADER
 98 11 22 11 15 20.0000000  0  8G26G13G10G17G18G02G19G27
  23271216.102    23271220.543    -4476620.09709  -3325753.07809     -2758.266  
  20554653.953    20554656.426   -15091044.71804  -9837207.99308       968.406  
  20698335.547    20698340.234   -13810244.82805  -5603566.51402       863.859  
  24674174.203                     -242126.89303         0.00000     -1636.828  
  24397515.672    24397522.363    24352147.81509  18998038.04409      3599.813  
  22722004.555    22722010.250    -9963827.91409  -7597651.78009     -2331.438  
  22248673.086    22248678.570    -4780131.13209  -3557756.32909      2860.281  
  20438650.297    20438654.480   -18052059.65102 -13890575.58401       523.063  
 98 11 22 11 15 25.0000000  0  8G26G13G10G17G18G02G19G27
  23268592.008    23268596.988    -4490411.06309  -3336499.27509     -2758.500  
  20555576.078    20555578.457   -15086198.44104  -9833431.67608       969.750  
  20699158.695    20699163.359   -13805918.56304  -5600195.40302       866.297  
  24672618.305                     -250305.23103         0.00000     -1634.813  
  24400940.914    24400945.449    24370147.02909  19012063.38909      3599.516  
  22719786.867    22719792.551    -9975481.73609  -7606732.67809     -2330.453  
  22251394.805    22251400.242    -4765828.17809  -3546611.17509      2860.547  
  20439148.930    20439153.090   -18049439.49901 -13888533.90801       524.656  
 98 11 22 11 15 30.0000000  0  8G26G13G10G17G18G02G19G27
  23265967.305    23265973.633    -4504204.28009  -3347247.21709     -2758.234  
  20556499.438    20556501.793   -15081346.18405  -9829650.69708       971.703  
  20699984.172    20699988.684   -13801581.10905  -5596815.57202       869.250  
  24671063.805                     -258474.30805         0.00000     -1632.234  
  24404365.563    24404373.359    24388144.00209  19026086.97309      3599.844  
  22717570.039    22717575.746    -9987131.63609  -7615810.51809     -2328.953  
  22254116.672    22254122.156    -4751525.07309  -3535465.90809      2861.266  
  20439648.727    20439652.852   -18046812.20701 -13886486.66801       526.813  
 98 11 22 11 15 35.0000000  0  8G26G13G10G17G18G02G19G27
  23263343.063    23263348.102    -4517995.10309  -3357993.30009     -2758.656  
  20557424.852    20557427.207   -15076483.25405  -9825861.40208       972.922  
  20700812.484    20700817.020   -13797228.02905  -5593423.56402       871.438  
  24669511.914                     -266629.58803         0.00000     -1630.438  
  24407790.750    24407797.938    24406143.56309  19040112.59509      3599.422  
  22715354.734    22715360.559    -9998773.04309  -7624881.74009     -2328.172  
  22256839.570    22256845.066    -4737217.20509  -3524316.92509      2861.297  
  20440150.867    20440154.922   -18044173.28801 -13884430.36801       528.172  
 98 11 22 11 15 40.0000000  0  8G26G13G10G17G18G02G19G27
  23260718.148    23260723.258    -4531787.44409  -3368740.56709     -2758.297  
  20558351.445    20558353.766   -15071613.69206  -9822066.94108       974.906  
  20701643.078    20701647.543   -13792863.26804  -5590022.45202       874.469  
  24667961.734                     -274775.07603         0.00000     -1627.734  
  24411216.023    24411222.539    24424141.73109  19054137.11609      3599.828  
  22713140.133    22713146.109   -10010409.78309  -7633949.32009     -2326.531  
  22259562.414    22259567.699    -4722908.27309  -3513167.11609      2862.234  
  20440654.445    20440658.676   -18041527.07301 -13882368.38401       530.313  
 98 11 22 11 15 45.0000000  0  8G26G13G10G17G18G02G19G27
  23258093.813    23258098.535    -4545578.69509  -3379486.98409     -2758.234  
  20559279.930    20559282.238   -15066734.67805  -9818265.11308       976.688  
  20702476.625    20702481.289   -13788484.02204  -5586610.05401       877.234  
  24666413.484                     -282907.76505         0.00000     -1625.313  
  24414641.164    24414649.629    24442141.39309  19068162.80309      3600.016  
  22710927.398    22710933.363   -10022039.04909  -7643011.07509     -2325.188  
  22262286.047    22262291.461    -4708595.34109  -3502014.19409      2862.906  
  20441159.883    20441164.137   -18038870.81401 -13880298.57501       532.188  
 98 11 22 11 15 50.0000000  0  8G26G13G10G17G18G02G19G27
  23255469.039    23255473.398    -4559371.61309  -3390234.70309     -2758.594  
  20560209.711    20560212.008   -15061848.66905  -9814457.83507       978.063  
  20703312.102    20703316.695   -13784092.75904  -5583188.29301       879.609  
  24664869.500                     -291030.06805         0.00000     -1623.250  
  24418065.742    24418073.469    24460139.99509  19082187.65009      3599.766  
  22708715.109    22708720.992   -10033663.53209  -7652069.11009     -2324.266  
  22265010.031    22265015.387    -4694280.97509  -3490860.15309      2863.156  
  20441666.875    20441671.199   -18036206.98801 -13878222.86701       533.672  
 98 11 22 11 15 55.0000000  0  8G26G13G10G17G18G02G19G27
  23252844.445    23252849.133    -4573164.51709  -3400982.41709     -2758.875  
  20561141.070    20561143.426   -15056954.37904  -9810644.10008       979.344  
  20704150.539    20704155.238   -13779688.00104  -5579756.01201       881.984  
  24663324.750                     -299140.18505         0.00000     -1621.109  
  24421491.125    24421499.344    24478138.93409  19096212.79109      3599.516  
  22706504.203    22706509.840   -10045281.67109  -7661122.20409     -2323.297  
  22267734.305    22267739.578    -4679963.61209  -3479703.77009      2863.484  
  20442175.555    20442179.785   -18033534.09401 -13876140.09301       535.188  
 98 11 22 11 16  0.0000000  0  8G26G13G10G17G18G02G19G27
  23250219.602    23250224.629    -4586960.33409  -3411732.40309     -2759.156  
  20562073.102    20562075.352   -15052055.02504  -9806826.42507       980.641  
  20704990.609    20704995.285   -13775272.92705  -5576315.69601       884.297  
  24661784.031                     -307241.13307         0.00000     -1619.016  
  24424916.172    24424924.648    24496135.14909  19110235.79509      3599.203  
  22704294.203    22704299.969   -10056896.32909  -7670172.58109     -2322.328  
  22270459.094    22270464.402    -4665646.21409  -3468547.36409      2863.766  
  20442685.453    20442689.695   -18030854.94701 -13874052.44501       536.703  
 98 11 22 11 16  5.0000000  0  8G26G13G10G17G18G02G19G27
  23247593.797    23247599.363    -4600755.95409  -3422482.22709     -2759.109  
  20563007.070    20563009.332   -15047147.85504  -9803002.66208       982.219  
  20705833.047    20705837.723   -13770845.02405  -5572865.38301       886.828  
  24660244.305                     -315330.31507         0.00000     -1616.625  
  24428339.977    24428348.781    24514131.33409  19124258.76909      3599.219  
  22702085.172    22702090.914   -10068504.90109  -7679218.21509     -2321.141  
  22273184.047    22273189.121    -4651325.88209  -3457388.67209      2864.359  
  20443196.891    20443201.133   -18028166.88001 -13871957.84901       538.484  
 98 11 22 11 16 10.0000000  0  8G26G13G10G17G18G02G19G27
  23244968.766    23244974.227    -4614551.17809  -3433231.74609     -2759.156  
  20563942.617    20563944.984   -15042232.90704  -9799172.83508       983.594  
  20706678.047    20706682.582   -13766404.38805  -5569405.15001       889.219  
  24658706.469                     -323407.33405         0.00000     -1614.359  
  24431765.023    24431774.168    24532127.34309  19138281.58709      3599.000  
  22699877.422    22699883.023   -10080107.50809  -7688259.20609     -2320.094  
  22275909.539    22275914.426    -4637002.36509  -3446227.49409      2864.859  
  20443709.961    20443714.285   -18025470.03702 -13869856.41401       540.063  
 98 11 22 11 16 15.0000000  0  8G26G13G10G17G18G02G19G27
  23242343.320    23242348.453    -4628347.70709  -3443982.29109     -2759.484  
  20564878.797    20564881.094   -15037311.94706  -9795338.32608       984.766  
  20707525.133    20707529.727   -13761952.94606  -5565936.49602       891.313  
  24657173.445                     -331473.81505         0.00000     -1612.266  
  24435188.977    24435197.383    24550121.25209  19152302.78609      3598.531  
  22697670.305    22697675.754   -10091705.91609  -7697296.92209     -2319.313  
  22278635.578    22278640.605    -4622677.24309  -3435065.07009      2865.141  
  20444224.672    20444228.984   -18022766.39902 -13867749.68401       541.344  
 98 11 22 11 16 20.0000000  0  8G26G13G10G17G18G02G19G27
  23239718.258    23239723.520    -4642143.30809  -3454732.09709     -2758.828  
  20565816.961    20565819.176   -15032382.68106  -9791497.33708       986.875  
  20708374.750    20708379.297   -13757488.62106  -5562457.80301       894.344  
  24655639.984                     -339527.37207         0.00000     -1609.234  
  24438613.227    24438622.301    24568115.28109  19166324.10009      3599.000  
  22695464.492    22695470.234   -10103297.92309  -7706329.65309     -2317.578  
  22281362.695    22281367.992    -4608348.22009  -3423899.60309      2866.391  
  20444740.734    20444744.871   -18020053.88501 -13865636.03701       543.594  
 98 11 22 11 16 25.0000000  0  8G26G13G10G17G18G02G19G27
  23237092.883    23237098.414    -4655939.85009  -3465482.63309     -2759.781  
  20566756.063    20566758.254   -15027447.13905  -9787651.46008       987.344  
  20709226.469    20709230.805   -13753013.26206  -5558970.51101       895.797  
  24654109.336                     -347570.03607         0.00000     -1607.844  
  24442037.438    24442047.379    24586107.44609  19180343.93409      3597.875  
  22693259.039    22693264.957   -10114885.57909  -7715358.98909     -2317.484  
  22284089.555    22284095.121    -4594017.28709  -3412732.64609      2866.000  
  20445258.250    20445262.281   -18017334.26701 -13863516.85601       544.266  
 98 11 22 11 16 30.0000000  0  8G26G13G10G17G18G02G19G27
  23234466.930    23234472.344    -4669738.55909  -3476234.87409     -2759.313  
  20567696.328    20567698.391   -15022506.65305  -9783801.73408       989.250  
  20710079.797    20710084.074   -13748528.18807  -5555475.64702       898.641  
  24652581.336                     -355603.29307         0.00000     -1605.063  
  24445460.008    24445469.445    24604096.34009  19194361.22609      3598.094  
  22691054.625    22691060.391   -10126470.35009  -7724386.07809     -2316.016  
  22286816.594    22286822.242    -4579685.84509  -3401565.30009      2866.984  
  20445776.961    20445781.086   -18014608.90101 -13861393.19701       546.313  
 98 11 22 11 16 35.0000000  0  8G26G13G10G17G18G02G19G27
  23231841.828    23231847.313    -4683534.21609  -3486984.72209     -2758.734  
  20568638.313    20568640.445   -15017556.13605  -9779944.19008       991.234  
  20710936.125    20710940.414   -13744028.14406  -5551969.12001       901.609  
  24651055.656                     -363622.00509         0.00000     -1602.156  
  24448883.383    24448891.953    24622086.94309  19208379.83709      3598.375  
  22688851.781    22688857.441   -10138047.08509  -7733406.90809     -2314.438  
  22289544.953    22289550.461    -4565348.74009  -3390393.53209      2868.109  
  20446297.586    20446301.758   -18011872.49401 -13859260.93201       548.516  
 98 11 22 11 16 40.0000000  0  8G26G13G10G17G18G02G19G27
  23229216.883    23229222.461    -4697327.03709  -3497732.36309     -2759.219  
  20569582.305    20569584.414   -15012595.73106  -9776078.94409       992.141  
  20711795.250    20711799.598   -13739513.11606  -5548450.91601       903.594  
  24649532.195    24649540.355     -371626.20609     -3739.96819     -1600.313  
  24452307.234    24452315.910    24640079.04909  19222399.64309      3597.656  
  22686650.172    22686655.785   -10149615.95509  -7742421.61409     -2313.906  
  22292274.203    22292279.828    -4551005.98309  -3379217.36509      2868.219  
  20446820.594    20446824.695   -18009124.96802 -13857120.00501       549.688  
 98 11 22 11 16 45.0000000  0  8G26G13G10G17G18G02G19G27
  23226591.594    23226596.961    -4711122.81109  -3508482.32209     -2759.141  
  20570527.008    20570529.188   -15007631.38106  -9772210.62108       993.563  
  20712656.414    20712660.703   -13734988.73004  -5544925.42301       906.109  
  24648010.703    24648015.215     -379621.43809     -9969.97809     -1597.828  
  24455730.844    24455736.363    24658067.06709  19236416.25009      3597.500  
  22684449.273    22684454.887   -10161182.83109  -7751434.76109     -2312.859  
  22295003.680    22295009.070    -4536663.27709  -3368041.23509      2868.828  
  20447344.477    20447348.648   -18006372.06802 -13854974.88901       551.406  
 98 11 22 11 16 50.0000000  0  8G26G13G10G17G18G02G19G27
  23223966.367    23223971.195    -4724919.09509  -3519232.67009     -2759.422  
  20571472.797    20571474.988   -15002660.65905  -9768337.33208       994.672  
  20713519.469    20713523.992   -13730452.54904  -5541390.73801       908.297  
  24646491.609    24646498.266     -387605.18509    -16191.05409     -1595.750  
  24459153.125    24459159.910    24676053.51809  19250431.65509      3597.016  
  22682249.172    22682254.809   -10172745.07509  -7760444.29509     -2312.109  
  22297733.320    22297738.242    -4522318.06609  -3356863.15309      2869.188  
  20447869.523    20447873.660   -18003611.42302 -13852823.73701       552.781  
 98 11 22 11 16 55.0000000  0  8G26G13G10G17G18G02G19G27
  23221341.133    23221346.383    -4738716.38709  -3529983.80509     -2759.594  
  20572419.836    20572422.027   -14997684.03004  -9764459.44208       995.875  
  20714384.938    20714389.262   -13725904.97302  -5537847.17301       910.641  
  24644974.102    24644981.957     -395578.06709    -22403.72009     -1593.516  
  24462575.508    24462582.848    24694037.98109  19264445.49309      3596.656  
  22680049.383    22680054.785   -10184303.16909  -7769450.59709     -2311.234  
  22300463.555    22300468.758    -4507970.76109  -3345683.43809      2869.625  
  20448396.430    20448400.531   -18000843.49402 -13850666.91401       554.281  
 98 11 22 11 17  0.0000000  0  8G26G13G10G17G18G02G19G27
  23218715.172    23218720.129    -4752514.07909  -3540735.23209     -2760.031  
  20573368.023    20573370.438   -14992701.01305  -9760576.57408       996.797  
  20715252.617    20715256.953   -13721345.41403  -5534294.27001       912.656  
  24643459.414    24643462.250     -403539.46009    -28607.47309     -1591.594  
  24465997.625    24466005.012    24712020.98709  19278458.21109      3596.016  
  22677850.742    22677856.063   -10195856.71209  -7778453.36009     -2310.734  
  22303193.883    22303199.180    -4493620.98809  -3334501.79509      2869.766  
  20448924.563    20448928.500   -17998067.65502 -13848503.92601       555.500  
 98 11 22 11 17  5.0000000  0  8G26G13G10G17G18G02G19G27
  23216089.477    23216094.961    -4766313.55209  -3551488.06309     -2759.422  
  20574317.352    20574319.813   -14987713.11905  -9756689.90808       998.688  
  20716122.344    20716126.891   -13716775.48903  -5530733.29201       915.625  
  24641945.969    24641949.813     -411490.89809    -34803.36509     -1588.672  
  24469419.359    24469426.430    24730001.29509  19292468.77709      3596.406  
  22675652.945    22675658.242   -10207407.63709  -7787454.08309     -2309.344  
  22305925.211    22305930.426    -4479270.09709  -3323319.28809      2870.906  
  20449454.055    20449457.945   -17995285.48403 -13846335.99901       557.672  
 98 11 22 11 17 10.0000000  0  8G26G13G10G17G18G02G19G27
  23213463.938    23213468.625    -4780110.26109  -3562238.74309     -2759.656  
  20575268.023    20575270.426   -14982716.03105  -9752796.07607       999.719  
  20716994.484    20716999.125   -13712190.70804  -5527160.73501       917.859  
  24640435.516    24640442.254     -419427.87309    -40988.02109     -1586.563  
  24472841.031    24472847.488    24747983.31709  19306480.73409      3595.969  
  22673456.031    22673461.844   -10218951.80909  -7796449.53909     -2308.766  
  22308657.094    22308662.648    -4464913.87909  -3312132.63509      2871.141  
  20449985.438    20449989.352   -17992492.63103 -13844159.75401       559.047  
 98 11 22 11 17 15.0000000  0  8G26G13G10G17G18G02G19G27
  23210838.203    23210842.797    -4793908.04909  -3572990.26009     -2759.656  
  20576220.102    20576222.480   -14977713.63205  -9748898.10608      1001.047  
  20717869.078    20717873.707   -13707594.69004  -5523579.42302       920.344  
  24638927.172    24638935.602     -427354.03709    -47164.26009     -1584.141  
  24476262.469    24476268.480    24765963.34309  19320491.13209      3595.828  
  22671259.633    22671265.398   -10230493.12609  -7805442.76209     -2307.969  
  22311389.359    22311394.867    -4450556.51209  -3300945.07909      2871.594  
  20450518.094    20450521.961   -17989692.81002 -13841978.07601       560.672  
 98 11 22 11 17 20.0000000  0  8G26G13G10G17G18G02G19G27
  23208212.594    23208217.293    -4807705.84509  -3583741.79609     -2759.750  
  20577173.195    20577175.645   -14972704.55104  -9744994.92908      1002.281  
  20718746.117    20718750.910   -13702986.24604  -5519988.42701       922.719  
  24637421.266    24637429.215     -435268.16309    -53331.11909     -1581.828  
  24479684.133    24479689.734    24783942.68809  19334500.98709      3595.625  
  22669064.125    22669069.609   -10242030.32109  -7814432.77309     -2307.219  
  22314121.867    22314127.387    -4436196.77309  -3289755.67409      2871.953  
  20451052.391    20451056.234   -17986884.81803 -13839790.03101       562.203  
 98 11 22 11 17 25.0000000  0  8G26G13G10G17G18G02G19G27
  23205586.414    23205591.230    -4821504.93209  -3594494.32009     -2760.141  
  20578127.375    20578129.906   -14967690.29204  -9741087.71608      1003.188  
  20719625.273    20719629.973   -13698367.00405  -5516389.01902       924.766  
  24635916.906    24635923.656     -443171.78709    -59489.77809     -1579.828  
  24483105.289    24483111.488    24801919.87809  19348509.14309      3595.031  
  22666869.539    22666875.070   -10253564.50409  -7823420.45009     -2306.703  
  22316854.492    22316860.234    -4421836.07609  -3278565.52709      2872.094  
  20451588.211    20451592.008   -17984070.13603 -13837596.77301       563.438  
 98 11 22 11 17 30.0000000  0  8G26G13G10G17G18G02G19G27
  23202960.172    23202965.762    -4835305.44409  -3605247.94409     -2759.984  
  20579082.773    20579085.293   -14962670.88405  -9737176.49208      1004.672  
  20720506.109    20720510.703   -13693736.90805  -5512781.15602       927.375  
  24634415.117    24634420.695     -451064.73509    -65640.09009     -1577.250  
  24486525.336    24486533.824    24819894.91809  19362515.64209      3595.063  
  22664675.375    22664680.953   -10265095.58409  -7832405.71309     -2305.641  
  22319587.680    22319593.316    -4407474.10309  -3267374.38509      2872.813  
  20452125.211    20452129.148   -17981248.64002 -13835398.20701       565.250  
 98 11 22 11 17 35.0000000  0  8G26G13G10G17G18G02G19G27
  23200334.148    23200339.117    -4849107.95909  -3616003.13209     -2760.484  
  20580038.664    20580041.172   -14957646.88005  -9733261.68609      1005.469  
  20721389.242    20721393.754   -13689096.51404  -5509165.26602       929.328  
  24632915.445    24632920.402     -458947.68209    -71782.60209     -1575.391  
  24489945.148    24489953.941    24837867.26809  19376520.06509      3594.391  
  22662481.492    22662487.141   -10276624.07209  -7841388.94809     -2305.234  
  22322320.914    22322326.105    -4393111.14209  -3256182.47309      2872.906  
  20452663.305    20452667.113   -17978420.95502 -13833194.82001       566.344  
 98 11 22 11 17 40.0000000  0  8G26G13G10G17G18G02G19G27
  23197707.258    23197713.398    -4862911.63609  -3626759.25209     -2761.000  
  20580995.906    20580998.320   -14952617.31705  -9729342.54509      1006.328  
  20722274.602    20722279.090   -13684444.76704  -5505540.52903       931.359  
  24631417.813    24631423.848     -466819.64309    -77916.59409     -1573.422  
  24493365.102    24493373.684    24855837.62409  19390522.91609      3593.719  
  22660288.242    22660293.762   -10288148.81509  -7850369.26609     -2304.703  
  22325054.375    22325059.719    -4378746.06809  -3244988.91309      2873.125  
  20453202.883    20453206.797   -17975586.24502 -13830985.96001       567.516  
 98 11 22 11 17 45.0000000  0  8G26G13G10G17G18G02G19G27
  23195080.711    23195087.191    -4876715.20809  -3637515.27909     -2760.922  
  20581954.086    20581956.477   -14947580.96905  -9725418.12209      1007.734  
  20723162.063    20723166.715   -13679780.35905  -5501905.92702       933.922  
  24629921.438    24629927.215     -474679.27909    -84040.97109     -1570.906  
  24496785.023    24496791.715    24873807.18109  19404525.14909      3593.625  
  22658096.250    22658101.617   -10299668.37509  -7859345.54109     -2303.594  
  22327788.563    22327793.906    -4364377.46009  -3233792.59709      2873.859  
  20453743.734    20453747.648   -17972743.17002 -13828770.57801       569.234  
 98 11 22 11 17 50.0000000  0  8G26G13G10G17G18G02G19G27
  23192452.664    23192458.957    -4890521.54409  -3648273.44709     -2761.250  
  20582913.234    20582915.625   -14942541.02806  -9721490.89608      1008.609  
  20724051.586    20724056.355   -13675106.30105  -5498263.80302       936.063  
  24628427.633    24628434.516     -482529.46109    -90158.01309     -1568.813  
  24500203.711    24500211.438    24891773.11309  19418524.55209      3593.125  
  22655904.617    22655910.008   -10311185.48309  -7868319.91009     -2302.875  
  22330522.773    22330527.941    -4350008.25109  -3222595.81009      2874.188  
  20454285.852    20454289.836   -17969894.69402 -13826550.98601       570.516  
 98 11 22 11 17 55.0000000  0  8G26G13G10G17G18G02G19G27
  23189826.227    23189831.582    -4904327.49909  -3659031.33109     -2760.859  
  20583873.477    20583875.797   -14937494.73106  -9717558.72108      1010.203  
  20724943.375    20724948.180   -13670419.38704  -5494611.66302       939.000  
  24626936.297    24626942.555     -490367.20709    -96265.35809     -1565.984  
  24503622.320    24503628.730    24909738.51309  19432523.55609      3593.344  
  22653714.008    22653719.586   -10322696.86209  -7877289.81509     -2301.359  
  22333257.836    22333262.840    -4335635.47409  -3211396.24309      2875.234  
  20454829.320    20454833.340   -17967037.93702 -13824324.94401       572.500  
 98 11 22 11 18  0.0000000  0  8G26G13G10G17G18G02G19G27
  23187198.758    23187204.266    -4918132.83609  -3669788.72109     -2761.141  
  20584834.992    20584837.266   -14932441.68806  -9713621.28608      1011.172  
  20725837.945    20725842.820   -13665718.97805  -5490949.01003       941.313  
  24625447.313    24625454.359     -498191.96709   -102362.58109     -1563.766  
  24507041.211    24507047.926    24927703.88609  19446522.50309      3592.969  
  22651524.727    22651530.352   -10334201.85009  -7886254.73509     -2300.484  
  22335993.734    22335998.750    -4321258.62009  -3200193.50009      2875.656  
  20455374.617    20455378.707   -17964172.33402 -13822092.00801       573.906  
 98 11 22 11 18  5.0000000  0  8G26G13G10G17G18G02G19G27
  23184571.914    23184577.516    -4931938.72009  -3680546.55309     -2761.375  
  20585797.688    20585799.949   -14927382.91006  -9709679.38309      1012.172  
  20726734.875    20726739.703   -13661006.27104  -5487276.77403       943.609  
  24623960.789    24623968.199     -506004.77609   -108450.45909     -1561.531  
  24510459.523    24510465.523    24945668.10309  19460520.57309      3592.563  
  22649336.344    22649341.758   -10345701.60809  -7895215.58309     -2299.578  
  22338730.016    22338735.160    -4306878.79109  -3188988.44409      2876.109  
  20455921.445    20455925.535   -17961298.73002 -13819852.83801       575.344  
 98 11 22 11 18 10.0000000  0  8G26G13G10G17G18G02G19G27
  23181944.148    23181950.090    -4945745.93909  -3691305.40609     -2761.609  
  20586761.273    20586763.523   -14922319.45706  -9705733.83908      1013.141  
  20727633.570    20727638.352   -13656282.38504  -5483595.82402       945.875  
  24622475.766    24622483.668     -513806.99709   -114530.10409     -1559.422  
  24513877.758    24513884.566    24963629.97509  19474516.84009      3592.125  
  22647148.797    22647154.293   -10357197.09109  -7904173.10309     -2298.688  
  22341466.906    22341471.828    -4292497.02909  -3177781.88309      2876.531  
  20456469.531    20456473.621   -17958418.43202 -13817608.45001       576.703  
 98 11 22 11 18 15.0000000  0  8G26G13G10G17G18G02G19G27
  23179317.016    23179322.113    -4959552.08109  -3702063.42609     -2761.375  
  20587726.266    20587728.422   -14917249.01307  -9701782.84509      1014.563  
  20728535.164    20728539.969   -13651545.01705  -5479904.37102       948.594  
  24620993.469    24621000.516     -521596.51609   -120599.84109     -1556.891  
  24517295.219    24517300.586    24981591.88409  19488513.09309      3592.172  
  22644962.281    22644967.941   -10368685.92809  -7913125.44309     -2297.328  
  22344204.609    22344209.637    -4278110.98909  -3166571.98409      2877.422  
  20457019.242    20457023.438   -17955529.29101 -13815357.17601       578.484  
 98 11 22 11 18 20.0000000  0  8G26G13G10G17G18G02G19G27
  23176689.484    23176694.734    -4973358.62109  -3712821.74509     -2761.063  
  20588692.063    20588694.289   -14912172.92607  -9697827.45609      1016.078  
  20729438.922    20729443.621   -13646795.64605  -5476203.56203       951.359  
  24619512.383    24619516.355     -529375.18309   -126661.12809     -1554.375  
  24520713.680    24520720.809    24999552.43309  19502508.29009      3592.234  
  22642777.289    22642783.148   -10380169.76709  -7922073.88009     -2295.984  
  22346942.664    22346947.563    -4263722.01509  -3155359.79609      2878.391  
  20457570.578    20457574.809   -17952632.95501 -13813100.29001       580.266  
 98 11 22 11 18 25.0000000  0  8G26G13G10G17G18G02G19G27
  23174062.563    23174067.848    -4987163.51209  -3723578.77909     -2761.078  
  20589659.625    20589661.922   -14907088.87407  -9693865.85708      1017.344  
  20730345.438    20730350.125   -13642032.09305  -5472491.70303       953.891  
  24618035.063    24618042.613     -537140.82009   -132712.24409     -1552.078  
  24524131.625    24524137.848    25017513.70609  19516504.03909      3592.078  
  22640593.344    22640599.016   -10391646.38609  -7931016.69809     -2294.844  
  22349681.711    22349686.785    -4249327.94309  -3144143.63609      2879.063  
  20458123.414    20458127.820   -17949727.35201 -13810836.18301       581.797  
 98 11 22 11 18 30.0000000  0  8G26G13G10G17G18G02G19G27
  23171435.188    23171440.730    -5000971.57009  -3734338.30109     -2762.391  
  20590627.484    20590629.723   -14902001.59007  -9689901.74309      1017.313  
  20731253.586    20731258.145   -13637258.94005  -5468772.36303       955.125  
  24616559.883    24616567.070     -544898.14009   -138756.89109     -1551.094  
  24527548.664    24527554.266    25035471.11409  19530496.80709      3590.641  
  22638409.945    22638415.559   -10403120.20209  -7939957.33309     -2294.953  
  22352421.094    22352426.285    -4234933.40309  -3132927.11109      2878.484  
  20458677.289    20458681.660   -17946817.13401 -13808568.48401       582.047  
 98 11 22 11 18 35.0000000  0  8G26G13G10G17G18G02G19G27
  23168807.172    23168811.813    -5014782.09809  -3745099.74509     -2761.375  
  20591596.438    20591598.734   -14896910.46207  -9685934.63308      1019.578  
  20732163.867    20732168.414   -13632475.38304  -5465044.91703       958.734  
  24615084.945    24615091.613     -552646.61009   -144794.68909     -1547.844  
  24530965.703    24530971.281    25053425.51309  19544487.21909      3591.547  
  22636227.258    22636233.117   -10414590.47709  -7948895.20509     -2292.719  
  22355160.531    22355166.063    -4220537.70809  -3121709.69109      2880.234  
  20459232.234    20459236.547   -17943901.45202 -13806296.52801       584.672  
 98 11 22 11 18 40.0000000  0  8G26G13G10G17G18G02G19G27
  23166179.477    23166183.906    -5028590.40809  -3755859.46309     -2761.797  
  20592566.914    20592569.188   -14891810.75307  -9681960.84009      1020.438  
  20733076.930    20733081.570   -13627676.69304  -5461305.68103       960.891  
  24613613.422    24613619.879     -560381.54909   -150821.89509     -1546.000  
  24534382.336    24534388.723    25071381.72009  19558479.07509      3591.063  
  22634045.945    22634051.852   -10426052.48309  -7957826.63009     -2291.953  
  22357900.664    22357905.844    -4206136.43309  -3110487.92409      2880.469  
  20459789.023    20459793.266   -17940975.37104 -13804016.46601       585.906  
 98 11 22 11 18 45.0000000  0  8G26G13G10G17G18G02G19G27
  23163550.883    23163555.313    -5042402.93809  -3766622.47409     -2762.313  
  20593537.766    20593539.992   -14886708.81907  -9677985.31009      1021.250  
  20733991.891    20733996.637   -13622869.23504  -5457559.60903       963.016  
  24612143.063    24612148.535     -568109.30209   -156843.49009     -1544.172  
  24537798.961    24537805.031    25089333.40909  19572467.39709      3590.516  
  22631865.273    22631871.133   -10437512.54409  -7966756.54209     -2291.172  
  22360641.281    22360646.555    -4191735.91309  -3099266.74309      2880.656  
  20460346.500    20460350.742   -17938045.08603 -13801733.12801       587.109  
 98 11 22 11 18 50.0000000  0  8G26G13G10G17G18G02G19G27
  23160922.680    23160928.516    -5056216.30509  -3777386.10709     -2762.656  
  20594509.750    20594512.105   -14881601.13106  -9674005.29509      1022.219  
  20734909.328    20734914.133   -13618049.38304  -5453803.88203       965.313  
  24610674.516    24610681.832     -575826.07609   -162856.56409     -1542.156  
  24541214.359    24541220.535    25107284.04809  19586454.87109      3590.125  
  22629685.422    22629691.305   -10448967.03309  -7975682.11809     -2290.219  
  22363382.070    22363387.590    -4177332.63809  -3088043.41509      2881.047  
  20460905.586    20460909.617   -17935107.07703 -13799443.76901       588.500  
 98 11 22 11 18 55.0000000  0  8G26G13G10G17G18G02G19G27
  23158293.813    23158298.641    -5070030.56509  -3788150.46109     -2763.047  
  20595482.750    20595485.176   -14876487.84306  -9670020.91908      1023.109  
  20735828.727    20735833.543   -13613217.34105  -5450038.65802       967.516  
  24609207.344    24609215.633     -583532.02809   -168861.16509     -1540.219  
  24544630.477    24544637.320    25125233.57609  19600441.48809      3589.688  
  22627506.734    22627512.699   -10460415.94709  -7984603.35309     -2289.328  
  22366123.594    22366129.453    -4162926.61609  -3076817.95009      2881.375  
  20461466.203    20461470.105   -17932161.36203 -13797148.40901       589.797  
 98 11 22 11 19  0.0000000  0  8G26G13G10G17G18G02G19G27
  23155665.453    23155670.551    -5083841.51609  -3798912.22809     -2761.656  
  20596457.625    20596460.051   -14871364.69806  -9666028.86008      1025.828  
  20736751.211    20736756.086   -13608369.14105  -5446260.84202       971.469  
  24607744.063    24607748.961     -591223.02109   -174854.17809     -1536.516  
  24548046.375    24548053.055    25143186.20109  19614430.50309      3591.031  
  22625329.984    22625335.949   -10471855.15709  -7993517.01209     -2286.656  
  22368865.906    22368871.566    -4148513.75309  -3065587.14909      2883.453  
  20462028.945    20462032.871   -17929203.95602 -13794843.94101       592.844  
 98 11 22 11 19  5.0000000  0  8G26G13G10G17G18G02G19G27
  23153037.695    23153043.016    -5097650.10409  -3809672.15909     -2761.453  
  20597434.281    20597436.801   -14866232.64807  -9662029.86308      1027.328  
  20737676.664    20737681.480   -13603505.89105  -5442471.29802       974.156  
  24606282.773    24606288.621     -598900.25809   -180836.47209     -1534.078  
  24551462.906    24551469.199    25161141.07109  19628421.31709      3591.219  
  22623154.914    22623160.645   -10483285.61809  -8002423.85609     -2285.188  
  22371609.906    22371615.355    -4134095.27409  -3054351.97309      2884.297  
  20462593.656    20462597.723   -17926236.00002 -13792531.24701       594.656  
 98 11 22 11 19 10.0000000  0  8G26G13G10G17G18G02G19G27
  23150409.875    23150414.680    -5111459.77209  -3820432.91909     -2761.781  
  20598411.727    20598414.270   -14861095.03406  -9658026.52908      1028.359  
  20738604.375    20738609.133   -13598631.16806  -5438672.81202       976.375  
  24604823.539    24604830.715     -606567.40209   -186810.83009     -1532.141  
  24554879.219    24554886.027    25179094.56009  19642411.02509      3590.797  
  22620980.891    22620986.668   -10494710.84509  -8011326.62909     -2284.281  
  22374354.094    22374359.555    -4119674.56109  -3043115.05309      2884.625  
  20463159.758    20463163.824   -17923260.97703 -13790213.05201       595.984  
 98 11 22 11 19 15.0000000  0  8G26G13G10G17G18G02G19G27
  23147782.125    23147786.977    -5125268.15109  -3831192.69409     -2761.703  
  20599391.109    20599393.641   -14855949.46006  -9654016.99208      1029.750  
  20739534.438    20739539.113   -13593742.52505  -5434863.48002       978.953  
  24603366.727    24603374.535     -614221.99809   -192775.42109     -1529.828  
  24558295.703    24558302.656    25197048.91409  19656401.41209      3590.797  
  22618808.313    22618814.219   -10506128.56509  -8020223.54709     -2282.953  
  22377099.164    22377104.379    -4105249.29209  -3031874.58509      2885.344  
  20463727.633    20463731.570   -17920276.44704 -13787887.44501       597.703  
 98 11 22 11 19 20.0000000  0  8G26G13G10G17G18G02G19G27
  23145154.492    23145159.285    -5139075.59609  -3841951.72509     -2761.625  
  20600371.664    20600374.078   -14850796.26207  -9650001.51708      1031.156  
  20740467.297    20740471.961   -13588840.27705  -5431043.54701       981.578  
  24601913.203    24601920.086     -621864.51109   -198730.57209     -1527.516  
  24561713.203    24561719.215    25215003.58409  19670392.01509      3590.703  
  22616636.617    22616642.582   -10517539.18509  -8029114.93909     -2281.656  
  22379844.906    22379850.438    -4090819.92309  -3020630.92709      2886.063  
  20464297.438    20464301.328   -17917282.81805 -13785554.75001       599.375  
 98 11 22 11 19 25.0000000  0  8G26G13G10G17G18G02G19G27
  23142526.773    23142531.355    -5152885.08409  -3852712.34709     -2762.484  
  20601353.141    20601355.520   -14845638.53706  -9645982.51009      1031.578  
  20741402.328    20741406.957   -13583927.36004  -5427215.30102       983.266  
  24600460.016    24600466.191     -629497.85409   -204678.60309     -1526.141  
  24565128.820    24565134.234    25232955.47509  19684380.45809      3589.688  
  22614466.094    22614471.953   -10528945.65009  -8038003.09109     -2281.266  
  22382590.742    22382596.508    -4076389.52909  -3009386.46709      2885.750  
  20464868.211    20464872.043   -17914283.18104 -13783217.37201       600.141  
 98 11 22 11 19 30.0000000  0  8G26G13G10G17G18G02G19G27
  23139898.398    23139902.945    -5166699.60309  -3863476.89009     -2763.109  
  20602334.969    20602337.348   -14840479.51606  -9641962.49608      1032.219  
  20742338.617    20742343.246   -13579006.63804  -5423380.97302       985.203  
  24599009.234    24599016.469     -637124.92109   -210621.80409     -1524.484  
  24568543.773    24568550.031    25250901.57409  19698364.42109      3588.938  
  22612295.781    22612301.441   -10540350.62909  -8046890.07709     -2280.547  
  22385336.336    22385341.973    -4061961.35109  -2998143.73409      2885.719  
  20465439.586    20465443.477   -17911280.34203 -13780877.49701       601.188  
 98 11 22 11 19 35.0000000  0  8G26G13G10G17G18G02G19G27
  23137269.398    23137274.660    -5180514.89209  -3874242.03909     -2763.031  
  20603317.719    20603320.086   -14835314.86006  -9637938.09508      1033.594  
  20743277.344    20743282.148   -13574073.97004  -5419537.33902       987.813  
  24597560.203    24597568.879     -644741.30809   -216556.62309     -1522.109  
  24571958.539    24571966.242    25268846.29709  19712347.30709      3588.922  
  22610126.602    22610132.309   -10551749.58209  -8055772.37609     -2279.063  
  22388082.258    22388088.258    -4047530.94909  -2986899.26509      2886.422  
  20466012.602    20466016.480   -17908269.96502 -13778531.74901       602.922  
 98 11 22 11 19 40.0000000  0  8G26G13G10G17G18G02G19G27
  23134640.477    23134645.844    -5194329.75609  -3885006.86409     -2763.016  
  20604301.805    20604304.207   -14830143.31506  -9633908.32209      1034.922  
  20744218.492    20744223.367   -13569128.28802  -5415683.56403       990.359  
  24596113.086    24596119.824     -652345.90509   -222482.31009     -1519.813  
  24575373.438    24575381.398    25286790.88209  19726330.07209      3588.797  
  22607958.867    22607964.551   -10563141.27409  -8064649.01209     -2277.688  
  22390829.328    22390835.012    -4033096.98009  -2975652.01709      2887.063  
  20466586.977    20466590.902   -17905250.89302 -13776179.22401       604.609  
 98 11 22 11 19 45.0000000  0  8G26G13G10G17G18G02G19G27
  23132011.695    23132017.871    -5208144.35809  -3895771.47909     -2763.000  
  20605287.305    20605289.719   -14824965.05006  -9629873.31008      1036.188  
  20745162.289    20745167.094   -13564169.55303  -5411819.62002       992.922  
  24594667.930    24594675.563     -659938.56909   -228398.70909     -1517.453  
  24578787.789    24578795.328    25304735.11209  19740312.59309      3588.688  
  22605792.406    22605798.055   -10574525.77409  -8073520.04409     -2276.328  
  22393576.672    22393582.227    -4018659.49109  -2964402.02609      2887.719  
  20467163.313    20467167.402   -17902223.13002 -13773819.93401       606.281  
 98 11 22 11 19 50.0000000  0  8G26G13G10G17G18G02G19G27
  23129382.711    23129388.688    -5221961.71109  -3906538.22909     -2763.531  
  20606273.273    20606275.758   -14819783.21406  -9625835.52008      1036.938  
  20746107.688    20746112.375   -13559200.67503  -5407947.76802       995.016  
  24593225.242    24593232.102     -667522.32409   -234308.12309     -1515.656  
  24582202.008    24582208.938    25322675.97809  19754292.43009      3588.047  
  22603626.945    22603632.711   -10585906.31509  -8082387.99009     -2275.484  
  22396323.891    22396329.270    -4004221.60209  -2953151.72409      2887.813  
  20467740.453    20467744.613   -17899189.86502 -13771456.35301       607.406  
 98 11 22 11 19 55.0000000  0  8G26G13G10G17G18G02G19G27
  23126752.602    23126758.906    -5235778.69609  -3917304.69609     -2763.109  
  20607260.492    20607262.977   -14814594.70905  -9621792.53408      1038.609  
  20747055.836    20747060.664   -13554218.55303  -5404065.59502       997.984  
  24591783.641    24591790.922     -675094.10309   -240208.18109     -1512.906  
  24585616.555    24585625.629    25340616.54109  19768272.07409      3588.297  
  22601462.414    22601468.086   -10597279.66909  -8091250.33909     -2273.719  
  22399072.031    22399077.938    -3989780.45309  -2941898.88709      2888.766  
  20468319.234    20468323.477   -17896148.06502 -13769086.12201       609.453  
 98 11 22 11 20  0.0000000  0  8G26G13G10G17G18G02G19G27
  23124123.383    23124128.973    -5249596.76709  -3928072.01209     -2763.734  
  20608249.008    20608251.504   -14809401.08806  -9617745.56309      1039.203  
  20748006.023    20748010.758   -13549224.71204  -5400174.29102       999.906  
  24590345.523    24590350.563     -682655.26509   -246099.96709     -1511.188  
  24589029.297    24589037.293    25358555.30309  19782250.29209      3587.563  
  22599299.219    22599304.656   -10608647.50009  -8100108.38309     -2273.063  
  22401820.422    22401826.270    -3975337.85509  -2930644.91509      2888.609  
  20468899.594    20468903.918   -17893099.20902 -13766710.39001       610.453  
 98 11 22 11 20  5.0000000  0  8G26G13G10G17G18G02G19G27
  23121493.250    23121498.102    -5263416.50609  -3938840.63609     -2763.969  
  20609237.930    20609240.391   -14804203.25906  -9613695.30908      1040.125  
  20748958.328    20748962.922   -13544219.92704  -5396274.45902      1002.203  
  24588907.938    24588914.844     -690206.45409   -251984.00609     -1509.109  
  24592442.984    24592449.781    25376491.70309  19796226.69309      3587.219  
  22597136.664    22597142.160   -10620010.75609  -8108962.86409     -2272.078  
  22404568.852    22404574.465    -3960894.73109  -2919390.53809      2888.828  
  20469481.055    20469485.262   -17890043.97402 -13764329.68801       611.828  
 98 11 22 11 20 10.0000000  0  8G26G13G10G17G18G02G19G27
  23118863.273    23118868.266    -5277237.39909  -3949610.15209     -2763.875  
  20610228.188    20610230.578   -14799000.33506  -9609641.08508      1041.547  
  20749912.961    20749917.637   -13539203.40704  -5392365.48403      1004.891  
  24587473.844    24587481.512     -697747.09509   -257859.79809     -1506.672  
  24595855.813    24595863.855    25394426.41409  19810201.74609      3587.156  
  22594975.477    22594981.207   -10631368.99609  -8117813.43609     -2270.750  
  22407317.422    22407323.035    -3946450.32009  -2908135.15309      2889.422  
  20470063.602    20470067.727   -17886981.73302 -13761943.52601       613.563  
 98 11 22 11 20 15.0000000  0  8G26G13G10G17G18G02G19G27
  23116232.992    23116238.383    -5291058.29709  -3960379.66809     -2764.203  
  20611219.477    20611221.785   -14793790.90006  -9605581.78709      1042.547  
  20750869.953    20750874.547   -13534174.08205  -5388446.53303      1007.125  
  24586040.008    24586048.449     -705276.11609   -263726.55909     -1504.641  
  24599269.156    24599278.172    25412360.27409  19824176.16509      3586.656  
  22592815.234    22592821.258   -10642721.33309  -8126659.39809     -2269.906  
  22410066.531    22410072.262    -3932003.52409  -2896877.91009      2889.609  
  20470647.867    20470652.016   -17883911.61502 -13759551.22501       614.813  
 98 11 22 11 20 20.0000000  0  8G26G13G10G17G18G02G19G27
  23113603.492    23113609.082    -5304878.01209  -3971148.26409     -2763.813  
  20612212.367    20612214.734   -14788573.55207  -9601516.32309      1044.266  
  20751829.750    20751834.320   -13529130.97305  -5384516.84103      1010.000  
  24584609.234    24584615.375     -712792.25709   -269583.26209     -1501.938  
  24602681.266    24602689.262    25430294.30209  19838150.71809      3586.844  
  22590656.328    22590662.117   -10654066.82209  -8135500.02409     -2268.438  
  22412816.523    22412822.172    -3917553.12509  -2885617.85709      2890.438  
  20471233.789    20471237.879   -17880832.30702 -13757151.76601       616.781  
 98 11 22 11 20 25.0000000  0  8G26G13G10G17G18G02G19G27
  23110973.477    23110978.152    -5318697.84609  -3981916.94109     -2763.984  
  20613206.250    20613208.547   -14783349.99107  -9597446.01909      1045.313  
  20752791.563    20752796.273   -13524075.69504  -5380577.66402      1012.266  
  24583182.297    24583187.207     -720297.17809   -275431.28009     -1499.875  
  24606094.164    24606101.316    25448226.87709  19852124.11209      3586.375  
  22588498.172    22588504.031   -10665407.17809  -8144336.65709     -2267.563  
  22415566.672    22415571.945    -3903100.84509  -2874356.34809      2890.641  
  20471821.289    20471825.426   -17877745.41302 -13754746.39401       618.109  
 98 11 22 11 20 30.0000000  0  8G26G13G10G17G18G02G19G27
  23108344.594    23108349.914    -5332514.80109  -3992683.39009     -2763.234  
  20614201.930    20614204.285   -14778117.44306  -9593368.71309      1047.266  
  20753756.633    20753761.473   -13519005.34705  -5376626.74702      1015.453  
  24581756.742    24581762.719     -727787.97809   -281268.27209     -1496.891  
  24609506.563    24609512.949    25466161.00909  19866098.76009      3586.875  
  22586341.664    22586347.500   -10676739.40309  -8153166.95609     -2265.781  
  22418317.625    22418322.898    -3888643.78409  -2863091.10809      2891.750  
  20472410.742    20472414.914   -17874648.14203 -13752332.93801       620.391  
 98 11 22 11 20 35.0000000  0  8G26G13G10G17G18G02G19G27
  23105715.367    23105721.004    -5346331.33509  -4003449.50709     -2763.281  
  20615198.930    20615201.367   -14772878.38407  -9589286.33109      1048.469  
  20754724.016    20754728.785   -13513922.19904  -5372665.85502      1017.922  
  24580333.406    24580340.215     -735266.85309   -287095.95909     -1494.563  
  24612919.242    24612926.195    25484094.40509  19880072.82309      3586.609  
  22584186.125    22584192.090   -10688066.03709  -8161992.89709     -2264.766  
  22421069.180    22421074.359    -3874184.40209  -2851824.05309      2892.109  
  20473001.500    20473005.684   -17871542.54703 -13749912.99701       621.969  
 98 11 22 11 20 40.0000000  0  8G26G13G10G17G18G02G19G27
  23103086.008    23103091.445    -5360148.12609  -4014215.81109     -2763.063  
  20616197.094    20616199.508   -14767633.28907  -9585199.24409      1049.969  
  20755693.539    20755698.320   -13508826.75404  -5368695.37702      1020.656  
  24578912.781    24578918.137     -742734.18909   -292914.65009     -1491.969  
  24616331.445    24616339.629    25502026.38409  19894045.73309      3586.578  
  22582031.867    22582037.855   -10699387.58009  -8170814.86109     -2263.438  
  22423820.922    22423826.031    -3859723.23009  -2840555.60809      2892.750  
  20473594.008    20473598.051   -17868429.05202 -13747486.89701       623.844  
 98 11 22 11 20 45.0000000  0  8G26G13G10G17G18G02G19G27
  23100456.844    23100462.281    -5373964.67609  -4024981.93409     -2763.219  
  20617196.398    20617198.801   -14762381.55707  -9581106.98908      1051.078  
  20756665.852    20756670.727   -13503718.36405  -5364714.81403      1023.047  
  24577494.172    24577499.961     -750189.19209   -298723.71609     -1489.672  
  24619743.641    24619752.082    25519957.31809  19908017.84509      3586.156  
  22579878.930    22579884.613   -10710703.24009  -8179632.25109     -2262.484  
  22426573.484    22426578.652    -3845259.88609  -2829285.46609      2892.938  
  20474188.047    20474192.090   -17865306.88602 -13745054.04001       625.375  
 98 11 22 11 20 50.0000000  0  8G26G13G10G17G18G02G19G27
  23097827.563    23097833.117    -5387780.43109  -4035747.43209     -2763.375  
  20618197.172    20618199.539   -14757122.84707  -9577009.29508      1052.141  
  20757640.398    20757645.168   -13498596.62405  -5360723.84903      1025.406  
  24576077.477    24576084.570     -757631.26009   -304522.70109     -1487.391  
  24623155.258    24623163.219    25537887.72809  19921989.58109      3585.703  
  22577726.391    22577732.180   -10722012.76709  -8188444.86209     -2261.594  
  22429326.328    22429331.754    -3830794.27309  -2818013.56609      2893.016  
  20474783.969    20474788.082   -17862175.53504 -13742614.02701       626.922  
 98 11 22 11 20 55.0000000  0  8G26G13G10G17G18G02G19G27
  23095197.891    23095203.480    -5401596.34209  -4046513.05409     -2763.063  
  20619199.133    20619201.453   -14751858.02507  -9572906.83709      1053.734  
  20758617.258    20758621.934   -13493462.29004  -5356723.07103      1028.266  
  24574662.938    24574668.691     -765061.21209   -310312.26409     -1484.641  
  24626567.031    24626575.180    25555816.53809  19935960.07209      3585.750  
  22575575.461    22575581.262   -10733317.12409  -8197253.44009     -2260.203  
  22432079.188    22432084.918    -3816327.52809  -2806740.78309      2893.609  
  20475381.492    20475385.676   -17859035.88704 -13740167.54901       628.891  
 98 11 22 11 21  0.0000000  0  8G26G13G10G17G18G02G19G27
  23092569.180    23092574.641    -5415412.44109  -4057278.82409     -2762.859  
  20620202.070    20620204.449   -14746587.01408  -9568799.55508      1055.188  
  20759596.680    20759601.238   -13488315.53104  -5352712.61203      1030.984  
  24573251.992    24573258.957     -772479.17309   -316092.50209     -1482.016  
  24629978.266    24629986.367    25573743.63109  19949929.22009      3585.641  
  22573425.180    22573430.594   -10744616.41609  -8206058.07209     -2258.969  
  22434832.125    22434837.633    -3801859.74709  -2795467.19309      2894.047  
  20475980.492    20475984.465   -17855888.18004 -13737714.79101       630.719  
 98 11 22 11 21  5.0000000  0  8G26G13G10G17G18G02G19G27
  23089939.828    23089945.160    -5429228.25509  -4068044.37209     -2763.609  
  20621206.211    20621208.508   -14741309.44808  -9564687.17009      1055.672  
  20760578.430    20760583.094   -13483155.78505  -5348692.03103      1032.750  
  24571842.555    24571849.258     -779884.83109   -321863.13109     -1480.391  
  24633390.813    24633397.234    25591669.43709  19963897.34309      3584.531  
  22571276.055    22571281.586   -10755910.20909  -8214858.42109     -2258.703  
  22437585.625    22437591.086    -3787390.48009  -2784192.43909      2893.484  
  20476581.047    20476585.031   -17852732.07704 -13735255.49001       631.547  
 98 11 22 11 21 10.0000000  0  8G26G13G10G17G18G02G19G27
  23087310.516    23087316.047    -5443048.50809  -4078813.38209     -2764.391  
  20622211.008    20622213.316   -14736030.21106  -9560573.47809      1056.109  
  20761561.828    20761566.516   -13477987.93504  -5344665.14203      1034.469  
  24570434.516    24570439.871     -787283.18509   -327628.07009     -1478.859  
  24636800.578    24636807.754    25609589.08209  19977860.67209      3583.406  
  22569126.930    22569132.801   -10767203.33509  -8223658.24409     -2258.453  
  22440338.391    22440343.371    -3772924.64509  -2772920.35709      2892.922  
  20477182.336    20477186.309   -17849572.68703 -13732793.62701       632.313  
 98 11 22 11 21 15.0000000  0  8G26G13G10G17G18G02G19G27
  23084680.500    23084685.891    -5456867.49309  -4089581.39109     -2763.750  
  20623217.039    20623219.371   -14730743.72807  -9556454.14409      1057.953  
  20762547.938    20762552.590   -13472806.35304  -5340627.54502      1037.625  
  24569028.617    24569034.945     -794668.88609   -333383.14709     -1475.938  
  24640209.969    24640218.762    25627508.13109  19991823.53509      3583.672  
  22566979.258    22566985.270   -10778490.28109  -8232453.25309     -2256.844  
  22443091.250    22443096.746    -3758456.62209  -2761646.57509      2893.750  
  20477785.273    20477789.305   -17846404.30003 -13730324.75101       634.500  
 98 11 22 11 21 20.0000000  0  8G26G13G10G17G18G02G19G27
  23082051.477    23082057.570    -5470685.08909  -4100348.32809     -2763.078  
  20624224.391    20624226.664   -14725449.84106  -9552329.04009      1059.828  
  20763536.609    20763541.285   -13467610.81903  -5336579.07902      1040.828  
  24567626.367    24567633.578     -802041.77209   -339128.25709     -1473.000  
  24643619.766    24643629.039    25645426.66109  20005786.01009      3584.000  
  22564832.484    22564838.414   -10789771.00609  -8241243.41309     -2255.219  
  22445845.000    22445850.332    -3743986.32409  -2750371.02409      2894.594  
  20478390.000    20478393.996   -17843226.86902 -13727848.83201       636.703  
 98 11 22 11 21 25.0000000  0  8G26G13G10G17G18G02G19G27
  23079421.852    23079427.570    -5484501.69409  -4111114.49809     -2763.203  
  20625233.055    20625235.316   -14720148.80406  -9548198.36409      1060.953  
  20764527.852    20764532.656   -13462401.45004  -5332519.83502      1043.281  
  24566224.906    24566231.977     -809402.11809   -344863.53509     -1470.813  
  24647029.375    24647036.469    25663344.48709  20019747.95409      3583.531  
  22562686.953    22562692.777   -10801045.78709  -8250028.94409     -2254.328  
  22448599.203    22448604.945    -3729513.87609  -2739093.79009      2894.750  
  20478996.109    20479000.094   -17840040.68703 -13725366.09401       638.125  
 98 11 22 11 21 30.0000000  0  8G26G13G10G17G18G02G19G27
  23076792.508    23076798.988    -5498318.06009  -4121880.49209     -2763.250  
  20626243.078    20626245.398   -14714841.33807  -9544062.67809      1062.109  
  20765521.820    20765526.613   -13457178.82203  -5328450.25902      1045.844  
  24564827.484    24564833.238     -816750.58809   -350589.64209     -1468.531  
  24650438.672    24650446.199    25681260.99109  20033708.86509      3583.141  
  22560542.406    22560548.336   -10812315.24609  -8258810.32809     -2253.391  
  22451353.750    22451359.563    -3715039.78409  -2727815.28309      2894.953  
  20479604.195    20479608.121   -17836846.43604 -13722877.06601       639.625  
 98 11 22 11 21 35.0000000  0  8G26G13G10G17G18G02G19G27
  23074163.641    23074169.570    -5512135.22909  -4132647.09809     -2763.469  
  20627254.023    20627256.449   -14709528.67507  -9539922.94509      1063.109  
  20766518.211    20766522.887   -13451944.05704  -5324371.22202      1048.203  
  24563430.711    24563436.793     -824088.27109   -356307.35009     -1466.406  
  24653847.773    24653856.086    25699175.07009  20047667.83409      3582.641  
  22558398.531    22558404.355   -10823580.52309  -8267588.44909     -2252.578  
  22454108.063    22454113.582    -3700565.41209  -2716536.55609      2894.922  
  20480213.172    20480217.238   -17833645.29003 -13720382.66501       640.984  
 98 11 22 11 21 40.0000000  0  8G26G13G10G17G18G02G19G27
  23071534.211    23071540.012    -5525954.10309  -4143415.03709     -2763.438  
  20628265.938    20628268.293   -14704211.65606  -9535779.81409      1064.344  
  20767516.148    20767520.836   -13446698.32804  -5320283.64702      1050.734  
  24562036.305    24562042.598     -831415.96109   -362017.25109     -1464.031  
  24657255.570    24657264.012    25717085.80409  20061624.20409      3582.328  
  22556255.484    22556261.297   -10834842.50209  -8276363.99709     -2251.578  
  22456862.125    22456867.527    -3686091.71009  -2705258.34309      2895.172  
  20480823.586    20480827.547   -17830438.07603 -13717883.53801       642.547  
 98 11 22 11 21 45.0000000  0  8G26G13G10G17G18G02G19G27
  23068904.406    23068910.031    -5539770.97809  -4154181.41609     -2763.297  
  20629279.281    20629281.625   -14698886.48106  -9531630.32609      1065.719  
  20768517.273    20768522.020   -13441438.06302  -5316184.74302      1053.375  
  24560644.859    24560651.813     -838729.91109   -367716.43709     -1461.563  
  24660663.578    24660672.582    25734996.93409  20075580.92309      3582.125  
  22554113.828    22554119.617   -10846097.43909  -8285134.05909     -2250.422  
  22459617.023    22459622.848    -3671614.85809  -2693977.67809      2895.531  
  20481435.508    20481439.434   -17827221.02304 -13715376.74201       644.250  
 98 11 22 11 21 50.0000000  0  8G26G13G10G17G18G02G19G27
  23066275.320    23066280.992    -5553588.25309  -4164948.09909     -2763.703  
  20630293.742    20630296.168   -14693555.44407  -9527476.27409      1066.625  
  20769520.555    20769525.395   -13436165.72204  -5312076.42401      1055.484  
  24559255.516    24559262.914     -846032.69309   -373406.90109     -1459.641  
  24664071.945    24664082.098    25752905.92609  20089535.95309      3581.391  
  22551972.852    22551978.758   -10857348.01509  -8293900.73009     -2249.906  
  22462371.781    22462377.453    -3657137.44309  -2682696.57909      2895.344  
  20482049.086    20482053.082   -17823996.75204 -13712864.32001       645.344  
 98 11 22 11 21 55.0000000  0  8G26G13G10G17G18G02G19G27
  23063645.883    23063650.793    -5567405.82709  -4175715.01809     -2763.516  
  20631309.273    20631311.711   -14688218.13908  -9523317.33309      1068.109  
  20770526.266    20770531.000   -13430881.22104  -5307958.63102      1058.141  
  24557867.836    24557875.375     -853324.39509   -379088.70509     -1457.219  
  24667479.570    24667491.141    25770812.80409  20103489.29809      3581.172  
  22549832.656    22549838.691   -10868594.29809  -8302664.05209     -2248.813  
  22465126.969    22465132.781    -3642658.97709  -2671414.65809      2895.828  
  20482664.250    20482668.164   -17820765.43104 -13710346.40701       647.000  
 98 11 22 11 22  0.0000000  0  8G26G13G10G17G18G02G19G27
  23061016.797    23061022.258    -5581223.22709  -4186481.80009     -2763.281  
  20632326.203    20632328.523   -14682874.08307  -9519153.13309      1069.672  
  20771534.023    20771538.863   -13425584.00704  -5303830.93302      1060.906  
  24556482.078    24556490.379     -860604.72909   -384761.69309     -1454.734  
  24670886.781    24670896.383    25788717.84109  20117441.22009      3580.984  
  22547693.508    22547699.484   -10879835.97609  -8311423.78409     -2247.688  
  22467882.484    22467888.121    -3628179.02109  -2660131.58009      2896.344  
  20483280.484    20483284.352   -17817526.66903 -13707822.69301       648.688  
 98 11 22 11 22  5.0000000  0  8G26G13G10G17G18G02G19G27
  23058387.117    23058392.508    -5595042.97509  -4197250.41509     -2764.172  
  20633343.852    20633346.242   -14677526.04907  -9514985.83609      1069.984  
  20772544.063    20772548.797   -13420276.78402  -5299695.43702      1062.406  
  24555098.680    24555106.430     -867876.26109   -390427.83309     -1453.438  
  24674294.172    24674302.941    25806618.19809  20131389.55709      3579.563  
  22545554.664    22545560.652   -10891075.82609  -8320182.08609     -2247.844  
  22470637.727    22470643.211    -3613700.19709  -2648849.37809      2895.609  
  20483897.695    20483901.691   -17814283.31002 -13705295.39901       649.094  
 98 11 22 11 22 10.0000000  0  8G26G13G10G17G18G02G19G27
  23055756.547    23055762.125    -5608863.60309  -4208019.71709     -2763.969  
  20634362.656    20634365.012   -14672172.73107  -9510814.42209      1071.469  
  20773556.016    20773560.680   -13414958.55303  -5295551.36401      1065.000  
  24553716.516    24553724.535     -875137.74509   -396086.14509     -1451.031  
  24677698.453    24677706.742    25824515.31109  20145335.38409      3579.328  
  22543416.289    22543421.891   -10902312.60709  -8328938.00109     -2246.766  
  22473393.383    22473398.844    -3599221.26409  -2637567.09909      2896.047  
  20484516.016    20484520.129   -17811034.05602 -13702763.51501       650.703  
 98 11 22 11 22 15.0000000  0  8G26G13G10G17G18G02G19G27
  23053127.242    23053132.551    -5622682.11909  -4218787.38409     -2763.875  
  20635382.859    20635385.168   -14666810.99908  -9506636.45109      1072.813  
  20774570.469    20774575.109   -13409626.52802  -5291396.54401      1067.406  
  24552337.734    24552345.871     -882386.18409   -401734.27709     -1448.750  
  24681105.094    24681112.539    25842412.13909  20159280.93609      3578.953  
  22541279.336    22541285.102   -10913543.24109  -8337689.13209     -2245.906  
  22476149.063    22476154.617    -3584739.28209  -2626282.44109      2896.313  
  20485136.031    20485140.168   -17807775.84402 -13700224.65001       652.172  
 98 11 22 11 22 20.0000000  0  8G26G13G10G17G18G02G19G27
  23050498.023    23050503.414    -5636499.59709  -4229554.23709     -2763.516  
  20636404.789    20636407.039   -14661441.85108  -9502452.70209      1074.453  
  20775587.672    20775592.301   -13404281.87401  -5287231.87701      1070.047  
  24550960.320    24550965.395     -889622.62409   -407373.05009     -1446.234  
  24684509.797    24684517.512    25860307.56109  20173225.36409      3578.813  
  22539143.094    22539149.117   -10924769.04809  -8346436.50309     -2244.813  
  22478905.039    22478910.559    -3570255.36209  -2614996.27409      2896.859  
  20485757.500    20485761.520   -17804509.76803 -13697679.65201       653.859  
 98 11 22 11 22 25.0000000  0  8G26G13G10G17G18G02G19G27
  23047868.000    23047873.543    -5650319.16309  -4240322.71909     -2764.266  
  20637427.211    20637429.566   -14656068.44209  -9498265.62609      1074.969  
  20776606.602    20776611.207   -13398927.91103  -5283059.96703      1071.578  
  24549584.742    24549590.191     -896850.29609   -413005.00309     -1444.797  
  24687915.063    24687923.469    25878198.44909  20187166.28209      3577.578  
  22537007.148    22537012.926   -10935992.94409  -8355182.37509     -2244.703  
  22481660.984    22481666.703    -3555772.47609  -2603710.90309      2896.359  
  20486379.898    20486383.754   -17801239.08904 -13695131.07001       654.469  
 98 11 22 11 22 30.0000000  0  8G26G13G10G17G18G02G19G27
  23045238.695    23045244.578    -5664137.96509  -4251090.59209     -2763.578  
  20638451.047    20638453.250   -14650687.86408  -9494072.97209      1076.906  
  20777627.734    20777632.574   -13393561.87301  -5278878.63202      1074.484  
  24548211.492    24548218.352     -904066.42609   -418627.93809     -1441.984  
  24691319.469    24691329.668    25896087.64909  20201105.87809      3577.766  
  22534872.180    22534877.617   -10947211.94909  -8363924.43609     -2243.219  
  22484417.336    22484422.797    -3541287.71909  -2592424.07809      2897.188  
  20487003.531    20487007.375   -17797961.00404 -13692576.71601       656.453  
 98 11 22 11 22 35.0000000  0  8G26G13G10G17G18G02G19G27
  23042609.703    23042615.270    -5677953.10609  -4261855.61109     -2762.391  
  20639476.758    20639478.797   -14645297.57709  -9489872.75308      1079.266  
  20778651.656    20778656.684   -13388181.19201  -5274685.88601      1077.844  
  24546841.438    24546847.379     -911268.24109   -424239.75709     -1438.672  
  24694723.430    24694731.836    25913978.04309  20215046.40609      3578.453  
  22532738.703    22532743.871   -10958423.24609  -8372660.49509     -2241.234  
  22487174.352    22487179.836    -3526798.52409  -2581133.80009      2898.531  
  20487629.406    20487633.215   -17794672.66005 -13690014.36801       658.969  
 98 11 22 11 22 40.0000000  0  8G26G13G10G17G18G02G19G27
  23039981.070    23039986.555    -5691764.03809  -4272617.36309     -2762.516  
  20640504.484    20640506.289   -14639897.27608  -9485664.71105      1080.313  
  20779678.492    20779683.930   -13382785.31101  -5270481.33201      1079.984  
  24545473.742    24545480.281     -918455.19909   -429840.00109     -1436.625  
  24698127.875    24698136.539    25931870.33609  20228988.44109      3577.922  
  22530606.781    22530612.289   -10969626.09409  -8381389.97009     -2240.438  
  22489932.648    22489937.957    -3512304.38609  -2569839.66709      2898.594  
  20488257.375    20488261.137   -17791373.26405 -13687443.40701       660.234  
 98 11 22 11 22 45.0000000  0  8G26G13G10G17G18G02G19G27
  23037352.281    23037357.871    -5705579.30809  -4283382.48709     -2763.328  
  20641532.297    20641534.102   -14634495.53509  -9481455.53402      1080.688  
  20780706.617    20780711.855   -13377382.62501  -5266271.47509      1081.375  
  24544106.969    24544111.855     -925635.73309   -435435.19809     -1435.328  
  24701531.617    24701540.410    25949756.05609  20242925.33109      3576.641  
  22528475.016    22528480.605   -10980828.66809  -8390119.23509     -2240.328  
  22492689.984    22492695.316    -3497813.72109  -2558548.24009      2897.953  
  20488885.523    20488889.250   -17788071.46305 -13684870.57201       660.766  
 98 11 22 11 22 50.0000000  0  8G26G13G10G17G18G02G19G27
  23034723.328    23034729.199    -5719394.29909  -4294147.39909     -2762.188  
  20642561.555    20642563.852   -14629087.15909  -9477241.22909      1083.125  
  20781736.930    20781741.781   -13371968.25101  -5262052.47801      1084.813  
  24542743.070    24542748.590     -932805.05009   -441021.68209     -1431.969  
  24704935.000    24704944.684    25967639.91009  20256860.75009      3577.328  
  22526344.336    22526349.961   -10992026.13009  -8398844.50909     -2238.219  
  22495447.922    22495453.477    -3483321.62609  -2547255.70209      2899.313  
  20489515.258    20489518.949   -17784762.42603 -13682292.10001       663.313  
 98 11 22 11 22 55.0000000  0  8G26G13G10G17G18G02G19G27
  23032095.078    23032101.125    -5733206.37009  -4304910.04009     -2762.156  
  20643592.383    20643594.633   -14623669.33409  -9473019.56808      1084.500  
  20782769.883    20782774.688   -13366539.48101  -5257822.24501      1087.188  
  24541381.578    24541388.695     -939960.34809   -446597.22809     -1429.688  
  24708338.117    24708346.512    25985524.26609  20270796.58109      3576.906  
  22524214.977    22524220.414   -11003215.73209  -8407563.66509     -2237.141  
  22498206.438    22498212.133    -3468825.56709  -2535960.07009      2899.594  
  20490146.813    20490150.668   -17781443.44802 -13679705.88301       664.766  
 98 11 22 11 23  0.0000000  0  8G26G13G10G17G18G02G19G27
  23029466.945    23029472.875    -5747017.42109  -4315671.87109     -2762.266  
  20644625.055    20644627.188   -14618243.88209  -9468791.95509      1085.703  
  20783805.430    20783810.188   -13361098.25702  -5253582.31501      1089.328  
  24540022.375    24540029.480     -947103.53209   -452163.33709     -1427.578  
  24711740.813    24711747.105    26003407.16809  20284731.31109      3576.266  
  22522086.805    22522092.008   -11014399.31709  -8416278.13209     -2236.266  
  22500965.258    22500970.977    -3454327.37509  -2524662.77509      2899.703  
  20490779.828    20490783.801   -17778116.60803 -13677113.53801       666.000  
 98 11 22 11 23  5.0000000  0  8G26G13G10G17G18G02G19G27
  23026839.156    23026845.156    -5760828.14709  -4326433.45809     -2762.391  
  20645658.563    20645660.777   -14612811.56409  -9464558.98509      1086.859  
  20784842.719    20784847.559   -13355645.48602  -5249333.39601      1091.406  
  24538665.188    24538673.289     -954235.39709   -457720.63109     -1425.547  
  24715143.586    24715152.145    26021287.96909  20298664.37209      3575.625  
  22519959.516    22519964.754   -11025577.72909  -8424988.56809     -2235.469  
  22503724.656    22503730.645    -3439827.74109  -2513364.36709      2899.797  
  20491414.391    20491418.352   -17774782.71504 -13674515.70001       667.188  
 98 11 22 11 23 10.0000000  0  8G26G13G10G17G18G02G19G27
  23024210.070    23024216.152    -5774640.81609  -4337196.55309     -2762.500  
  20646693.266    20646695.469   -14607374.70209  -9460322.46009      1088.063  
  20785882.281    20785886.992   -13350183.48003  -5245077.29402      1093.563  
  24537309.617    24537317.766     -961358.29809   -463270.92209     -1423.453  
  24718544.961    24718551.535    26039164.50209  20312594.09509      3575.094  
  22517833.078    22517838.703   -11036753.30909  -8433696.79109     -2234.594  
  22506483.781    22506489.500    -3425328.67609  -2502066.39509      2900.000  
  20492049.656    20492053.559   -17771444.12904 -13671914.20301       668.406  
 98 11 22 11 23 15.0000000  0  8G26G13G10G17G18G02G19G27
  23021581.531    23021587.086    -5788454.36209  -4347960.34709     -2762.703  
  20647729.039    20647731.102   -14601932.02409  -9456081.41208      1089.219  
  20786923.586    20786928.320   -13344711.08704  -5240813.09401      1095.609  
  24535955.914    24535962.535     -968471.17509   -468813.42509     -1421.469  
  24721946.734    24721956.664    26057037.96209  20326521.45409      3574.484  
  22515707.164    22515713.012   -11047924.82809  -8442401.85009     -2233.797  
  22509242.852    22509248.441    -3410828.75909  -2490767.75909      2900.188  
  20492686.094    20492689.938   -17768099.88803 -13669308.30001       669.500  
 98 11 22 11 23 20.0000000  0  8G26G13G10G17G18G02G19G27
  23018952.914    23018958.410    -5802268.19409  -4358724.36209     -2762.750  
  20648766.078    20648768.223   -14596482.78209  -9451835.24709      1090.531  
  20787967.109    20787971.691   -13339227.68003  -5236540.31402      1097.797  
  24534604.117    24534611.047     -975573.40309   -474347.62009     -1419.359  
  24725347.914    24725357.059    26074909.11109  20340446.99209      3574.047  
  22513582.070    22513587.707   -11059091.49909  -8451103.13509     -2232.813  
  22512002.516    22512008.000    -3396326.97409  -2479467.66509      2900.578  
  20493323.633    20493327.406   -17764749.28303 -13666697.43801       670.781  
 98 11 22 11 23 25.0000000  0  8G26G13G10G17G18G02G19G27
  23016324.055    23016329.516    -5816082.04209  -4369488.37309     -2762.328  
  20649804.086    20649806.242   -14591026.66809  -9447583.72608      1092.328  
  20789012.773    20789017.285   -13333732.96403  -5232258.72101      1100.500  
  24533255.422    24533261.434     -982664.49709   -479873.16309     -1416.672  
  24728748.344    24728756.492    26092778.42109  20354371.14509      3574.094  
  22511458.305    22511464.047   -11070252.85709  -8459800.28309     -2231.297  
  22514762.617    22514768.195    -3381823.00509  -2468165.87409      2901.453  
  20493962.430    20493966.262   -17761391.98504 -13664081.35901       672.563  
 98 11 22 11 23 30.0000000  0  8G26G13G10G17G18G02G19G27
  23013695.641    23013701.348    -5829895.08509  -4380251.76309     -2762.141  
  20650844.023    20650846.203   -14585562.79309  -9443326.16609      1093.953  
  20790060.563    20790065.215   -13328226.16402  -5227967.70602      1102.953  
  24531907.781    24531913.582     -989743.47009   -485389.23809     -1414.188  
  24732148.570    24732157.797    26110646.62209  20368294.41809      3573.922  
  22509335.258    22509340.730   -11081407.93309  -8468492.53509     -2229.984  
  22517523.336    22517528.926    -3367315.78509  -2456861.54409      2902.203  
  20494602.727    20494606.582   -17758027.08104 -13661459.35401       674.141  
 98 11 22 11 23 35.0000000  0  8G26G13G10G17G18G02G19G27
  23011067.813    23011073.297    -5843704.97009  -4391012.69309     -2761.781  
  20651885.625    20651887.746   -14580088.66408  -9439060.61208      1095.750  
  20791111.414    20791116.137   -13322704.89801  -5223665.42201      1105.563  
  24530563.453    24530569.172     -996807.83409   -490893.94609     -1411.531  
  24735549.500    24735558.703    26128516.01209  20382218.59109      3573.875  
  22507214.648    22507220.543   -11092554.26909  -8477177.97509     -2228.500  
  22520285.156    22520290.406    -3352802.70009  -2445552.64809      2903.094  
  20495245.086    20495248.813   -17754652.10003 -13658829.49901       675.844  
 98 11 22 11 23 40.0000000  0  8G26G13G10G17G18G02G19G27
  23008439.633    23008445.316    -5857513.57809  -4401772.63309     -2762.188  
  20652928.969    20652931.078   -14574606.22308  -9434788.57809      1096.719  
  20792164.375    20792169.063   -13317171.12102  -5219353.39102      1107.422  
  24529222.203    24529229.121    -1003859.40109   -496388.69109     -1409.609  
  24738949.359    24738958.984    26146384.85809  20396142.35509      3573.094  
  22505094.695    22505100.672   -11103693.59009  -8485857.94409     -2227.750  
  22523047.508    22523052.957    -3338285.78609  -2434240.76909      2903.156  
  20495888.945    20495892.695   -17751269.23202 -13656193.49301       676.781  
 98 11 22 11 23 45.0000000  0  8G26G13G10G17G18G02G19G27
  23005812.102    23005817.012    -5871323.34309  -4412533.46909     -2761.766  
  20653973.172    20653975.375   -14569117.95408  -9430512.00409      1098.516  
  20793219.336    20793224.117   -13311627.30601  -5215033.53502      1110.047  
  24527881.453    24527889.320    -1010900.47309   -501875.23609     -1406.875  
  24742349.078    24742356.711    26164250.66009  20410063.76009      3573.141  
  22502975.711    22502981.582   -11114828.20609  -8494534.24209     -2226.156  
  22525810.063    22525815.207    -3323767.57809  -2422927.87809      2904.063  
  20496533.625    20496537.398   -17747880.82802 -13653553.17701       678.531  
 98 11 22 11 23 50.0000000  0  8G26G13G10G17G18G02G19G27
  23003184.266    23003189.492    -5885132.77209  -4423294.04809     -2761.719  
  20655019.133    20655021.395   -14563622.58108  -9426229.89509      1099.953  
  20794276.539    20794281.344   -13306072.23301  -5210704.90801      1112.266  
  24526544.141    24526551.234    -1017929.76709   -507352.58209     -1404.531  
  24745748.117    24745755.902    26182114.63509  20423983.69909      3572.719  
  22500858.094    22500863.977   -11125956.76409  -8503205.82909     -2224.969  
  22528573.555    22528578.840    -3309246.78609  -2411612.97009      2904.547  
  20497179.672    20497183.621   -17744485.55302 -13650907.50601       679.859  
 98 11 22 11 23 55.0000000  0  8G26G13G10G17G18G02G19G27
  23000555.930    23000561.613    -5898942.35809  -4434054.75609     -2762.016  
  20656065.984    20656068.316   -14558120.40509  -9421942.48609      1101.000  
  20795335.523    20795340.270   -13300506.37401  -5206367.87701      1114.172  
  24525208.789    24525215.965    -1024947.52709   -512820.96909     -1402.469  
  24749146.922    24749155.363    26199976.11209  20437901.70509      3571.969  
  22498741.180    22498746.969   -11137079.80109  -8511873.11809     -2224.141  
  22531336.773    22531342.059    -3294724.03309  -2400296.54509      2904.672  
  20497826.805    20497830.801   -17741083.83701 -13648256.81201       680.906  
 98 11 22 11 24  0.0000000  0  8G26G13G10G17G18G02G19G27
  22997928.391    22997933.348    -5912750.28409  -4444814.16409     -2761.719  
  20657114.633    20657116.895   -14552609.78509  -9417648.49508      1102.672  
  20796397.039    20796401.809   -13294927.82001  -5202020.95401      1116.703  
  24523875.727    24523882.313    -1031951.90509   -518278.93709     -1399.813  
  24752546.773    24752556.281    26217836.91909  20451819.16709      3571.797  
  22496626.117    22496632.047   -11148195.57909  -8520534.74509     -2222.703  
  22534101.242    22534106.633    -3280197.35609  -2388977.06109      2905.453  
  20498475.836    20498479.891   -17737673.98701 -13645599.78601       682.484  
 98 11 22 11 24  5.0000000  0  8G26G13G10G17G18G02G19G27
  22995300.586    22995305.895    -5926559.71209  -4455574.74409     -2762.031  
  20658164.258    20658166.520   -14547093.90908  -9413350.40609      1103.672  
  20797460.586    20797465.402   -13289339.42201  -5197666.36201      1118.641  
  24522545.188    24522551.363    -1038945.90109   -523728.80609     -1397.781  
  24755945.008    24755953.250    26235694.05709  20465733.81809      3571.031  
  22494511.555    22494517.238   -11159307.01309  -8529192.97809     -2221.875  
  22536865.625    22536870.992    -3265669.73109  -2377656.83709      2905.609  
  20499125.508    20499129.656   -17734259.11501 -13642938.84801       683.438  
 98 11 22 11 24 10.0000000  0  8G26G13G10G17G18G02G19G27
  22992672.820    22992678.012    -5940370.08709  -4466336.05909     -2762.156  
  20659215.070    20659217.484   -14541572.43207  -9409047.95508      1104.875  
  20798525.867    20798530.906   -13283740.69501  -5193303.71901      1120.813  
  24521216.367    24521222.391    -1045929.19709   -529170.32509     -1395.563  
  24759342.461    24759350.633    26253548.01909  20479646.00909      3570.484  
  22492398.039    22492403.559   -11170413.67309  -8537847.49809     -2220.828  
  22539630.320    22539635.816    -3251140.76509  -2366335.56409      2905.953  
  20499776.547    20499780.684   -17730838.81701 -13640273.68101       684.641  
 98 11 22 11 24 15.0000000  0  8G26G13G10G17G18G02G19G27
  22990044.938    22990050.246    -5954180.90909  -4477097.72209     -2761.922  
  20660267.109    20660269.500   -14536044.90109  -9404740.78908      1106.375  
  20799593.383    20799598.316   -13278131.02701  -5188932.55001      1123.313  
  24519889.750    24519896.867    -1052901.13609   -534602.99909     -1392.953  
  24762738.289    24762745.039    26271399.52609  20493556.25509      3570.375  
  22490285.422    22490291.094   -11181514.75209  -8546497.66909     -2219.359  
  22542395.531    22542400.816    -3236609.85309  -2355012.77609      2906.625  
  20500428.594    20500432.777   -17727412.34801 -13637603.70001       686.203  
 98 11 22 11 24 20.0000000  0  8G26G13G10G17G18G02G19G27
  22987416.320    22987421.336    -5967993.35409  -4487860.65709     -2762.422  
  20661319.703    20661322.047   -14530512.65509  -9400429.94809      1107.156  
  20800662.609    20800667.719   -13272511.56501  -5184553.75101      1125.109  
  24518564.547    24518570.359    -1059862.60909   -540027.53509     -1390.969  
  24766135.500    24766140.469    26289247.63009  20507463.84309      3569.531  
  22488173.688    22488179.594   -11192611.18109  -8555144.22109     -2218.563  
  22545160.781    22545165.973    -3222078.50609  -2343689.64909      2906.563  
  20501081.609    20501085.652   -17723980.69701 -13634929.68501       687.094  
 98 11 22 11 24 25.0000000  0  8G26G13G10G17G18G02G19G27
  22984787.688    22984792.668    -5981805.03109  -4498622.99709     -2762.500  
  20662373.594    20662375.891   -14524973.45308  -9396113.68408      1108.313  
  20801734.375    20801739.613   -13266879.92101  -5180165.45801      1127.344  
  24517241.789    24517247.426    -1066810.99509   -545441.86509     -1388.609  
  24769532.102    24769537.691    26307094.79409  20521370.66909      3569.141  
  22486063.555    22486069.355   -11203700.46809  -8563785.20509     -2217.359  
  22547926.898    22547931.926    -3207544.39909  -2332364.37009      2906.875  
  20501735.961    20501740.063   -17720541.37201 -13632249.68901       688.438  
 98 11 22 11 24 30.0000000  0  8G26G13G10G17G18G02G19G27
  22982158.578    22982163.535    -5995620.20609  -4509388.06009     -2763.484  
  20663428.461    20663430.898   -14519431.20007  -9391795.04309      1108.672  
  20802807.797    20802812.918   -13261239.96101  -5175770.68801      1128.734  
  24515922.094    24515927.977    -1073750.37609   -550849.15409     -1387.063  
  24772927.563    24772934.336    26324937.01409  20535273.67809      3567.859  
  22483953.813    22483959.531   -11214786.52109  -8572423.66909     -2216.969  
  22550692.000    22550697.367    -3193011.51309  -2321040.04509      2906.344  
  20502391.234    20502395.254   -17717098.18501 -13629566.68501       688.906  
 98 11 22 11 24 35.0000000  0  8G26G13G10G17G18G02G19G27
  22979529.594    22979534.551    -6009437.47909  -4520154.75809     -2763.625  
  20664484.031    20664486.340   -14513884.36708  -9387472.83708      1109.891  
  20803882.969    20803888.008   -13255589.99901  -5171368.12201      1131.094  
  24514603.609    24514608.859    -1080679.17209   -556248.20409     -1384.609  
  24776321.492    24776328.301    26342775.79909  20549174.08809      3567.500  
  22481845.273    22481851.227   -11225867.81609  -8581058.42609     -2215.703  
  22553457.570    22553462.914    -3178478.46109  -2309715.59009      2906.734  
  20503047.469    20503051.336   -17713649.79902 -13626879.63101       690.266  
 98 11 22 11 24 40.0000000  0  8G26G13G10G17G18G02G19G27
  22976900.000    22976905.145    -6023257.51809  -4530923.60309     -2764.203  
  20665540.164    20665542.531   -14508333.55209  -9383147.52608      1110.625  
  20804959.906    20804964.980   -13249930.15501  -5166957.86201      1133.031  
  24513286.430    24513293.770    -1087597.88509   -561639.38809     -1382.656  
  24779716.391    24779721.828    26360610.74809  20563071.46109      3566.672  
  22479737.398    22479743.340   -11236944.84809  -8589689.86009     -2214.906  
  22556223.117    22556228.309    -3163945.50309  -2298391.20709      2906.656  
  20503704.742    20503708.609   -17710196.70002 -13624188.90201       691.172  
 98 11 22 11 24 45.0000000  0  8G26G13G10G17G18G02G19G27
  22974269.523    22974274.855    -6037079.29609  -4541693.81109     -2764.281  
  20666597.359    20666599.633   -14502777.84809  -9378818.40408      1111.906  
  20806038.922    20806043.832   -13244259.30901  -5162539.02001      1135.563  
  24511971.914    24511980.145    -1094505.65709   -567022.09609     -1380.203  
  24783109.453    24783115.828    26378443.00109  20576966.67309      3566.453  
  22477630.539    22477636.480   -11248016.49309  -8598317.09909     -2213.531  
  22558989.148    22558994.668    -3149411.52309  -2287066.02609      2907.172  
  20504362.664    20504366.578   -17706737.87902 -13621493.71401       692.609  
 98 11 22 11 24 50.0000000  0  8G26G13G10G17G18G02G19G27
  22971639.750    22971644.391    -6050898.78709  -4552462.23509     -2764.234  
  20667656.227    20667658.512   -14497213.03309  -9374482.18208      1113.313  
  20807121.211    20807126.063   -13238573.15101  -5158108.24901      1138.203  
  24510659.883    24510666.199    -1101398.45009   -572393.10609     -1377.625  
  24786502.867    24786510.641    26396276.65209  20590862.99709      3566.313  
  22475525.461    22475531.145   -11259078.69009  -8606936.97409     -2212.031  
  22561755.742    22561761.191    -3134872.53009  -2275736.94509      2907.750  
  20505022.758    20505026.555   -17703269.18001 -13618790.82801       694.188  
 98 11 22 11 24 55.0000000  0  8G26G13G10G17G18G02G19G27
  22969009.625    22969014.395    -6064720.54409  -4563232.43309     -2764.625  
  20668716.164    20668718.391   -14491643.52109  -9370142.30309      1114.313  
  20808205.195    20808209.988   -13232876.14501  -5153669.02401      1140.422  
  24509350.383    24509357.453    -1108280.59309   -577755.79209     -1375.406  
  24789895.766    24789901.766    26414107.19409  20604756.84809      3565.719  
  22473421.359    22473427.020   -11270135.84209  -8615552.92209     -2210.984  
  22564522.484    22564527.664    -3120332.89509  -2264407.36009      2907.938  
  20505683.922    20505687.730   -17699794.84401 -13616083.55301       695.375  
 98 11 22 11 25  0.0000000  0  8G26G13G10G17G18G02G19G27
  22966379.180    22966383.727    -6078543.01609  -4574003.19409     -2764.375  
  20669777.180    20669779.195   -14486067.66209  -9365797.47509      1116.016  
  20809291.688    20809296.480   -13227166.72301  -5149220.12501      1143.344  
  24508043.367    24508050.648    -1115150.37009   -583108.87209     -1372.516  
  24793288.539    24793293.367    26431936.04509  20618649.44509      3565.813  
  22471318.570    22471324.418   -11281186.25409  -8624163.61409     -2209.203  
  22567289.953    22567295.191    -3105790.94509  -2253075.97809      2908.828  
  20506346.617    20506350.672   -17696313.25201 -13613370.62201       697.234  
 98 11 22 11 25  5.0000000  0  8G26G13G10G17G18G02G19G27
  22963748.719    22963753.465    -6092367.06109  -4584775.17309     -2764.891  
  20670839.258    20670841.262   -14480485.96808  -9361448.10108      1117.031  
  20810380.391    20810385.184   -13221445.55201  -5144762.06901      1145.500  
  24506738.008    24506744.465    -1122008.49909   -588452.85609     -1370.359  
  24796680.289    24796685.188    26449762.46409  20632540.12509      3565.141  
  22469216.781    22469222.723   -11292230.68609  -8632769.64009     -2208.219  
  22570057.367    22570063.051    -3091247.39609  -2241743.34809      2908.938  
  20507010.234    20507014.336   -17692825.19301 -13610652.65201       698.359  
 98 11 22 11 25 10.0000000  0  7G26G13G10G17G02G19G27
  22961118.172    22961122.965    -6106192.04809  -4595547.88309     -2764.906  
  20671902.719    20671904.898   -14474897.90907  -9357093.77008      1118.391  
  20811471.344    20811476.020   -13215712.08201  -5140294.43001      1148.094  
  24505435.805    24505442.922    -1128854.34109   -593787.28209     -1367.781  
  22467116.523    22467122.254   -11303268.79709  -8641370.74909     -2206.828  
  22572825.109    22572830.488    -3076701.89809  -2230409.19009      2909.469  
  20507675.211    20507679.301   -17689329.97901 -13607929.10701       699.922  
 98 11 22 11 25 15.0000000  0  7G26G13G10G17G02G19G27
  22958487.609    22958492.895    -6120017.71109  -4606321.11909     -2765.328  
  20672967.305    20672969.590   -14469303.68907  -9352734.63908      1119.328  
  20812565.039    20812569.645   -13209966.04601  -5135816.99901      1150.344  
  24504135.633    24504142.078    -1135687.81209   -599112.05009     -1365.594  
  22465017.172    22465022.867   -11314300.43909  -8649966.81909     -2205.813  
  22575593.750    22575599.188    -3062154.16309  -2219073.29709      2909.672  
  20508341.953    20508346.102   -17685827.40201 -13605199.82701       701.125  
 98 11 22 11 25 20.0000000  0  7G26G13G10G17G02G19G27
  22955855.961    22955860.789    -6133845.20409  -4617095.78809     -2765.734  
  20674032.758    20674035.078   -14463704.51807  -9348371.64807      1120.281  
  20813660.469    20813665.086   -13204208.49501  -5131330.59701      1152.609  
  24502836.953    24502843.305    -1142510.10809   -604428.13509     -1363.391  
  22462918.867    22462924.434   -11325326.76209  -8658558.74209     -2204.781  
  22578362.477    22578367.867    -3047605.16009  -2207736.41309      2909.859  
  20509009.672    20509013.797   -17682318.54501 -13602465.65301       702.344  
 98 11 22 11 25 25.0000000  0  7G26G13G10G17G02G19G27
  22953224.367    22953229.254    -6147674.48309  -4627871.84609     -2766.047  
  20675099.344    20675101.641   -14458100.43407  -9344004.83307      1121.266  
  20814758.180    20814762.938   -13198439.41801  -5126835.21501      1154.938  
  24501540.680    24501546.973    -1149321.27809   -609735.54009     -1361.141  
  22460821.828    22460827.477   -11336347.58709  -8667146.37609     -2203.625  
  22581130.820    22581136.270    -3033055.13909  -2196398.73709      2910.063  
  20509678.508    20509682.680   -17678803.34501 -13599726.53301       703.656  
 98 11 22 11 25 30.0000000  0  7G26G13G10G17G02G19G27
  22950592.328    22950597.355    -6161505.21309  -4638649.04109     -2766.344  
  20676166.539    20676168.754   -14452491.24207  -9339634.03207      1122.297  
  20815858.516    20815863.367   -13192658.48901  -5122330.59801      1157.328  
  24500247.109    24500251.832    -1156121.08309   -615034.09809     -1358.859  
  22458725.539    22458731.082   -11347362.47309  -8675729.38209     -2202.438  
  22583900.094    22583905.215    -3018503.96909  -2185060.16509      2910.297  
  20510348.703    20510352.934   -17675281.60401 -13596982.31501       704.953  
 98 11 22 11 25 35.0000000  0  7G26G13G10G17G02G19G27
  22947959.930    22947964.934    -6175338.23809  -4649428.00709     -2766.609  
  20677234.867    20677237.164   -14446877.91507  -9335260.01007      1123.297  
  20816960.398    20816965.227   -13186866.67801  -5117817.50001      1159.672  
  24498955.258    24498962.363    -1162910.42809   -620324.48409     -1356.609  
  22456630.516    22456635.977   -11358372.29409  -8684308.44609     -2201.250  
  22586668.734    22586674.230    -3003952.71709  -2173721.52409      2910.453  
  20511019.961    20511024.063   -17671754.25301 -13594233.72601       706.250  
 98 11 22 11 25 40.0000000  0  7G26G13G10G17G02G19G27
  22945327.398    22945332.262    -6189171.88809  -4660207.47509     -2766.609  
  20678303.992    20678306.277   -14441258.78007  -9330881.46308      1124.547  
  20818065.023    20818069.734   -13181062.26901  -5113294.58401      1162.281  
  24497664.641    24497671.852    -1169687.65109   -625605.43509     -1354.078  
  22454536.516    22454542.035   -11369375.47509  -8692882.33409     -2199.844  
  22589438.406    22589443.270    -2989399.94609  -2162381.70809      2910.828  
  20511692.484    20511696.563   -17668219.55701 -13591479.41401       707.813  
 98 11 22 11 25 45.0000000  0  7G26G13G10G17G02G19G27
  22942694.844    22942699.426    -6203009.04609  -4670989.67409     -2767.813  
  20679373.781    20679375.961   -14435637.04407  -9326500.88708      1124.594  
  20819171.367    20819176.137   -13175248.15401  -5108764.10301      1163.797  
  24496377.672    24496383.695    -1176455.67209   -630879.20309     -1352.703  
  22452443.336    22452449.125   -11380375.21809  -8701453.54409     -2199.609  
  22592207.117    22592212.016    -2974848.71209  -2151043.08409      2910.094  
  20512365.969    20512369.965   -17664680.64001 -13588721.81401       708.203  
 98 11 22 11 25 50.0000000  0  7G26G13G10G17G02G19G27
  22940061.148    22940066.258    -6216846.61209  -4681772.18509     -2767.406  
  20680444.789    20680447.145   -14430009.78207  -9322116.01007      1126.125  
  20820280.117    20820284.875   -13169421.02501  -5104223.48301      1166.875  
  24495092.266    24495099.383    -1183211.37509   -636143.40009     -1349.781  
  22450351.438    22450357.133   -11391368.48209  -8710019.70509     -2197.875  
  22594976.711    22594981.633    -2960296.07109  -2139703.36509      2910.781  
  20513040.797    20513044.887   -17661134.22301 -13585958.37001       710.172  
 98 11 22 11 25 55.0000000  0  7G26G13G10G17G02G19G27
  22937427.938    22937432.930    -6230685.23909  -4692555.52909     -2768.063  
  20681516.414    20681518.922   -14424377.74407  -9317727.40908      1126.656  
  20821391.609    20821396.367   -13163581.56002  -5099673.25001      1168.906  
  24493809.273    24493815.941    -1189955.42509   -641398.51109     -1347.875  
  22448260.641    22448266.500   -11402356.13109  -8718581.48909     -2197.188  
  22597745.930    22597750.840    -2945742.91709  -2128363.25309      2910.453  
  20513716.828    20513720.965   -17657581.01001 -13583189.62901       711.094  
 98 11 22 11 26  0.0000000  0  7G26G13G10G17G02G19G27
  22934793.914    22934799.223    -6244524.52309  -4703339.39409     -2767.797  
  20682589.023    20682591.602   -14418740.43906  -9313334.70207      1128.125  
  20822505.070    20822509.887   -13157729.19701  -5095112.96601      1171.906  
  24492527.516    24492534.055    -1196687.25009   -646644.09109     -1345.000  
  22446171.008    22446176.938   -11413337.72209  -8727138.55909     -2195.594  
  22600515.352    22600520.742    -2931188.90309  -2117022.46009      2911.031  
  20514394.578    20514398.773   -17654020.48201 -13580415.18901       712.984  
 98 11 22 11 26  5.0000000  0  7G26G13G10G17G02G19G27
  22932160.805    22932166.148    -6258363.69309  -4714123.16709     -2767.719  
  20683663.164    20683665.719   -14413097.04905  -9308937.25307      1129.391  
  20823621.336    20823626.188   -13151863.07202  -5090541.95901      1174.734  
  24491249.438    24491256.082    -1203406.07409   -651879.52609     -1342.344  
  22444082.328    22444088.270   -11424312.65609  -8735690.44009     -2194.219  
  22603285.297    22603290.535    -2916633.10309  -2105680.28009      2911.469  
  20515073.570    20515077.719   -17650451.71201 -13577634.32601       714.703  
 98 11 22 11 26 10.0000000  0  7G26G13G10G17G02G19G27
  22929527.109    22929532.629    -6272202.46609  -4724906.62309     -2767.531  
  20684738.289    20684740.855   -14407447.12707  -9304534.71907      1130.828  
  20824740.297    20824745.277   -13145982.83102  -5085959.95601      1177.641  
  24489973.375    24489979.996    -1210111.43409   -657104.48709     -1339.516  
  22441995.133    22442000.805   -11435280.60909  -8744236.87909     -2192.703  
  22606055.711    22606061.207    -2902075.06009  -2094336.35309      2912.000  
  20515754.578    20515758.902   -17646874.38401 -13574846.79601       716.500  
 98 11 22 11 26 15.0000000  0  7G26G13G10G17G02G19G27
  22926893.813    22926899.098    -6286040.99109  -4735689.89209     -2768.016  
  20685814.609    20685817.082   -14401790.71406  -9300127.12108      1131.563  
  20825862.063    20825866.832   -13140088.51602  -5081366.98601      1179.906  
  24488700.109    24488705.559    -1216803.18709   -662318.82309     -1337.375  
  22439909.555    22439915.285   -11446241.58009  -8752777.88009     -2191.844  
  22608826.234    22608831.590    -2887514.93709  -2082990.80709      2911.891  
  20516436.867    20516441.250   -17643288.62801 -13572052.70001       717.625  
 98 11 22 11 26 20.0000000  0  7G26G13G10G17G02G19G27
  22924260.039    22924265.406    -6299881.61009  -4746474.79009     -2768.344  
  20686891.711    20686894.219   -14396130.37506  -9295716.46607      1132.469  
  20826985.727    20826990.496   -13134182.64902  -5076765.01301      1182.328  
  24487428.547    24487434.090    -1223484.09109   -667524.72709     -1335.109  
  22437824.492    22437830.328   -11457197.93009  -8761315.27309     -2190.797  
  22611596.938    22611602.164    -2872955.15309  -2071645.53409      2911.906  
  20517120.086    20517124.492   -17639697.04301 -13569254.06101       718.922  
 98 11 22 11 26 25.0000000  0  7G26G13G10G17G02G19G27
  22921626.078    22921630.918    -6313722.82409  -4757260.14209     -2768.328  
  20687969.828    20687972.453   -14390464.31306  -9291301.35307      1133.766  
  20828112.172    20828116.918   -13128263.84502  -5072152.95901      1185.016  
  24486159.320    24486164.488    -1230152.79409   -672721.12609     -1332.547  
  22435740.703    22435746.434   -11468148.07409  -8769847.83609     -2189.438  
  22614367.813    22614372.805    -2858394.27609  -2060299.39309      2912.266  
  20517804.969    20517809.258   -17636097.98201 -13566449.59801       720.531  
 98 11 22 11 26 30.0000000  0  7G26G13G10G17G02G19G27
  22918991.938    22918996.730    -6327564.54809  -4768045.90009     -2768.500  
  20689049.406    20689052.031   -14384792.12006  -9286881.46207      1134.938  
  20829241.055    20829245.813   -13122331.95302  -5067530.70701      1187.578  
  24484892.836    24484899.516    -1236809.09109   -677907.86609     -1330.125  
  22433658.273    22433664.004   -11479091.89209  -8778375.47009     -2188.250  
  22617138.758    22617143.680    -2843832.10009  -2048952.24309      2912.453  
  20518491.508    20518495.574   -17632491.25001 -13563639.15501       722.016  
 98 11 22 11 26 35.0000000  0  7G26G13G10G17G02G19G27
  22916357.844    22916363.328    -6341407.88309  -4778832.91109     -2768.813  
  20690129.688    20690132.102   -14379114.80906  -9282457.58407      1136.063  
  20830372.039    20830376.879   -13116387.92902  -5062899.00101      1190.109  
  24483628.188    24483635.434    -1243453.69009   -683085.46209     -1327.641  
  22431576.961    22431582.680   -11490030.30909  -8786898.89909     -2187.078  
  22619910.305    22619915.156    -2829269.53809  -2037604.78609      2912.625  
  20519178.906    20519182.938   -17628877.77702 -13560823.46201       723.453  
 98 11 22 11 26 40.0000000  0  7G26G13G10G17G02G19G27
  22913723.117    22913728.145    -6355252.21609  -4789620.70909     -2769.016  
  20691211.148    20691213.598   -14373431.51406  -9278029.04307      1137.203  
  20831505.547    20831510.504   -13110430.96502  -5058257.21101      1192.625  
  24482366.445    24482372.152    -1250085.65009   -688253.21909     -1325.203  
  22429496.531    22429502.250   -11500962.69209  -8795417.62609     -2185.953  
  22622681.461    22622686.301    -2814705.73909  -2026256.37309      2912.828  
  20519868.055    20519872.051   -17625256.75102 -13558001.87801       724.906  
 98 11 22 11 26 45.0000000  0  7G26G13G10G17G02G19G27
  22911088.391    22911092.996    -6369097.55809  -4800409.28609     -2768.891  
  20692293.711    20692296.055   -14367742.22806  -9273595.83307      1138.734  
  20832641.773    20832646.672   -13104461.22101  -5053605.46701      1195.484  
  24481106.703    24481112.844    -1256705.28409   -693411.35409     -1322.438  
  22427417.195    22427423.055   -11511889.31309  -8803931.86009     -2184.484  
  22625453.273    22625458.418    -2800140.63609  -2014906.95009      2913.406  
  20520558.398    20520562.359   -17621628.29002 -13555174.50201       726.703  
 98 11 22 11 26 50.0000000  0  7G26G13G10G17G02G19G27
  22908453.961    22908458.813    -6382943.12109  -4811198.03509     -2769.391  
  20693377.797    20693380.223   -14362046.10407  -9269157.29507      1139.641  
  20833780.266    20833785.281   -13098477.97602  -5048943.20001      1197.734  
  24479849.969    24479855.453    -1263312.15609   -698559.56409     -1320.375  
  22425339.039    22425344.711   -11522809.46509  -8812441.05709     -2183.641  
  22628225.367    22628230.465    -2785573.51109  -2003555.95309      2913.359  
  20521250.398    20521254.289   -17617991.73902 -13552340.82501       727.844  
 98 11 22 11 26 55.0000000  0  7G26G13G10G17G02G19G27
  22905818.773    22905823.930    -6396789.93909  -4821987.75309     -2769.469  
  20694462.703    20694465.164   -14356344.34508  -9264714.36508      1140.891  
  20834921.133    20834926.031   -13092482.47801  -5044271.38301      1200.313  
  24478594.102    24478601.219    -1269907.57409   -703698.87409     -1317.953  
  22423262.141    22423267.813   -11533724.33909  -8820946.13909     -2182.453  
  22630997.367    22631002.301    -2771005.51309  -1992204.26809      2913.672  
  20521943.945    20521947.895   -17614348.24901 -13549501.74301       729.391  
 98 11 22 11 27  0.0000000  0  7G26G13G10G17G02G19G27
  22903183.633    22903188.730    -6410636.50309  -4832777.28009     -2769.188  
  20695549.063    20695551.441   -14350635.69108  -9260266.06208      1142.531  
  20836064.703    20836069.566   -13086473.61401  -5039589.15302      1203.203  
  24477341.836    24477347.016    -1276490.42109   -708828.34309     -1315.203  
  22421186.266    22421192.195   -11544632.54709  -8829446.03009     -2180.859  
  22633770.188    22633775.484    -2756435.44109  -1980850.96909      2914.297  
  20522638.836    20522642.680   -17610696.36101 -13546656.11501       731.313  
 98 11 22 11 27  5.0000000  0  7G26G13G10G17G02G19G27
  22900548.375    22900553.438    -6424483.77209  -4843567.35809     -2769.641  
  20696636.375    20696638.742   -14344921.08708  -9255813.12408      1143.406  
  20837210.414    20837215.102   -13080452.62502  -5034897.47301      1205.281  
  24476090.938    24476097.301    -1283061.66909   -713948.78109     -1313.203  
  22419111.516    22419117.258   -11555535.00109  -8837941.42909     -2180.031  
  22636542.820    22636547.871    -2741864.59909  -1969497.06709      2914.109  
  20523335.102    20523339.063   -17607037.09101 -13543804.73201       732.484  
 98 11 22 11 27 10.0000000  0  7G26G13G10G17G02G19G27
  22897914.031    22897918.918    -6438330.15909  -4854356.75209     -2769.688  
  20697725.242    20697727.492   -14339198.97808  -9251354.33808      1144.672  
  20838358.813    20838363.512   -13074418.14701  -5030195.28401      1207.719  
  24474843.055    24474849.594    -1289619.67009   -719058.92309     -1310.766  
  22417038.086    22417043.734   -11566430.17209  -8846431.16109     -2178.797  
  22639316.000    22639321.074    -2727291.62209  -1958141.50309      2914.297  
  20524033.242    20524037.297   -17603368.81201 -13540946.33001       734.063  
 98 11 22 11 27 15.0000000  0  7G26G13G10G17G02G19G27
  22895278.961    22895283.660    -6452179.19309  -4865148.21609     -2770.016  
  20698815.016    20698817.313   -14333473.08608  -9246892.60408      1145.594  
  20839508.820    20839513.672   -13068373.93402  -5025485.51101      1209.859  
  24473597.664    24473605.121    -1296167.77409   -724161.33109     -1308.609  
  22414965.641    22414971.523   -11577321.69809  -8854918.05109     -2177.891  
  22642088.734    22642093.750    -2712720.13809  -1946787.09709      2914.172  
  20524732.367    20524736.398   -17599695.06701 -13538083.67401       735.313  
 98 11 22 11 27 20.0000000  0  7G26G13G10G17G02G19G27
  22892643.414    22892647.855    -6466027.87709  -4875939.39109     -2768.953  
  20699905.836    20699908.156   -14327740.35209  -9242425.53808      1148.000  
  20840661.563    20840666.578   -13062316.90102  -5020765.74701      1213.469  
  24472353.734    24472359.969    -1302703.23009   -729253.90309     -1305.063  
  22412894.219    22412899.938   -11588206.55209  -8863399.74009     -2175.547  
  22644861.945    22644866.820    -2698147.26809  -1935431.62009      2915.469  
  20525432.805    20525436.871   -17596013.12601 -13535214.62701       737.953  
 98 11 22 11 27 25.0000000  0  7G26G13G10G17G02G19G27
  22890008.313    22890012.508    -6479873.96909  -4886728.54809     -2769.313  
  20700998.453    20701000.668   -14321998.44009  -9237951.32008      1148.922  
  20841816.898    20841821.750   -13056244.71501  -5016034.17601      1215.563  
  24471112.586    24471118.738    -1309223.94309   -734334.98209     -1303.063  
  22410824.477    22410830.148   -11599082.58309  -8871874.55409     -2174.703  
  22647635.789    22647640.816    -2683570.71609  -1924073.26709      2915.313  
  20526135.508    20526139.586   -17592321.01301 -13532337.65401       739.063  
 98 11 22 11 27 30.0000000  0  7G26G13G10G17G02G19G27
  22887373.961    22887377.746    -6493719.25409  -4897517.06909     -2769.000  
  20702092.523    20702094.820   -14316249.46309  -9233471.59608      1150.469  
  20842975.055    20842979.883   -13050159.52001  -5011292.46901      1218.313  
  24469874.086    24469880.578    -1315731.94009   -739406.13309     -1300.375  
  22408756.203    22408761.582   -11609951.86709  -8880344.11309     -2173.219  
  22650409.797    22650414.824    -2668992.36609  -1912713.51709      2915.813  
  20526839.773    20526843.875   -17588620.81301 -13529454.38101       740.797  
 98 11 22 11 27 35.0000000  0  7G26G13G10G17G02G19G27
  22884739.438    22884744.664    -6507563.99409  -4908305.17309     -2768.813  
  20703187.859    20703190.086   -14310493.62708  -9228986.52807      1151.969  
  20844135.445    20844140.227   -13044061.65802  -5006540.89001      1220.906  
  24468638.258    24468643.742    -1322227.53209   -744467.62509     -1297.797  
  22406689.383    22406694.879   -11620814.62809  -8888808.59209     -2171.813  
  22653184.211    22653189.086    -2654412.59709  -1901352.65509      2916.172  
  20527545.094    20527549.324   -17584912.95601 -13526565.14101       742.406  
 98 11 22 11 27 40.0000000  0  7G26G13G10G17G02G19G27
  22882104.609    22882109.906    -6521408.46709  -4919093.07309     -2769.125  
  20704284.508    20704286.805   -14304730.87306  -9224496.06908      1152.969  
  20845298.117    20845303.086   -13037951.59001  -5001779.80001      1222.953  
  24467404.844    24467410.375    -1328710.75309   -749519.48309     -1295.672  
  22404623.469    22404629.000   -11631670.98509  -8897268.07809     -2170.906  
  22655958.813    22655964.156    -2639831.75609  -1889990.96609      2916.000  
  20528252.078    20528256.344   -17581197.77101 -13523670.18702       743.500  
 98 11 22 11 27 45.0000000  0  7G26G13G10G17G02G19G27
  22879470.273    22879475.066    -6535253.56109  -4929881.45509     -2768.875  
  20705382.195    20705384.598   -14298962.24607  -9220001.03608      1154.500  
  20846463.094    20846468.121   -13031830.54202  -4997010.15701      1225.516  
  24466173.156    24466178.887    -1335182.55609   -754562.46909     -1293.016  
  22402558.375    22402563.766   -11642522.03909  -8905723.43009     -2169.500  
  22658733.578    22658739.027    -2625250.86309  -1878629.23709      2916.391  
  20528960.313    20528964.367   -17577476.37301 -13520770.39401       745.109  
 98 11 22 11 27 50.0000000  0  7G26G13G10G17G02G19G27
  22876835.430    22876840.668    -6549099.11809  -4940670.18509     -2769.406  
  20706481.070    20706483.531   -14293187.47607  -9215501.21608      1155.328  
  20847629.844    20847634.977   -13025698.27701  -4992231.76801      1227.313  
  24464943.469    24464949.785    -1341642.65009   -759596.30009     -1291.094  
  22400494.461    22400500.063   -11653367.80009  -8914174.65809     -2168.891  
  22661508.133    22661513.934    -2610669.48309  -1867267.12909      2916.047  
  20529669.813    20529673.867   -17573748.56801 -13517865.61001       745.953  
 98 11 22 11 27 55.0000000  0  7G26G13G10G17G02G19G27
  22874201.000    22874206.051    -6562944.93309  -4951459.12409     -2768.906  
  20707581.156    20707583.594   -14287406.30607  -9210996.40908      1157.109  
  20848799.000    20848804.098   -13019554.62001  -4987444.50901      1230.125  
  24463716.406    24463722.043    -1348090.82109   -764620.82309     -1288.172  
  22398431.461    22398437.156   -11664208.24409  -8922621.74709     -2167.297  
  22664283.000    22664288.461    -2596087.47109  -1855904.52009      2916.734  
  20530380.414    20530384.469   -17570014.15501 -13514955.67201       747.797  
 98 11 22 11 28  0.0000000  0  7G26G13G10G17G02G19G27
  22871566.414    22871571.617    -6576786.68609  -4962244.90109     -2768.469  
  20708683.414    20708685.816   -14281614.58408  -9206483.38008      1158.875  
  20849971.063    20849976.172   -13013395.34403  -4982645.07301      1232.891  
  24462493.320    24462499.016    -1354522.92009   -769632.86209     -1285.344  
  22396370.641    22396376.160   -11675039.18009  -8931061.42709     -2165.766  
  22667058.930    22667063.992    -2581500.52609  -1844538.07309      2917.359  
  20531093.297    20531097.504   -17566268.88001 -13512037.27801       749.625  
 98 11 22 11 28  5.0000000  0  7G26G13G10G17G02G19G27
  22868932.289    22868937.352    -6590628.41809  -4973030.65209     -2768.422  
  20709786.742    20709789.227   -14275816.36008  -9201965.28508      1160.250  
  20851145.359    20851150.387   -13007224.48101  -4977836.61001      1235.266  
  24461270.789    24461276.801    -1360942.91009   -774635.43209     -1282.844  
  22394310.633    22394316.059   -11685864.51209  -8939496.74109     -2164.531  
  22669834.961    22669840.422    -2566912.64709  -1833170.89909      2917.594  
  20531806.953    20531811.172   -17562516.56601 -13509113.39501       751.125  
 98 11 22 11 28 10.0000000  0  7G26G13G10G17G02G19G27
  22866298.531    22866303.746    -6604470.38709  -4983816.58809     -2768.703  
  20710891.203    20710893.570   -14270011.76708  -9197442.22508      1161.297  
  20852321.656    20852326.684   -13001042.39602  -4973019.40601      1237.250  
  24460051.438    24460057.906    -1367351.11309   -779628.84309     -1280.750  
  22392251.766    22392257.426   -11696684.24909  -8947927.69309     -2163.656  
  22672610.992    22672616.453    -2552324.12209  -1821803.22609      2917.500  
  20532522.563    20532526.805   -17558757.33401 -13506184.12401       752.250  
 98 11 22 11 28 15.0000000  0  7G26G13G10G17G02G19G27
  22863664.539    22863670.059    -6618312.86609  -4994602.92609     -2768.484  
  20711996.984    20711999.305   -14264200.74408  -9192914.15208      1162.906  
  20853500.211    20853505.215   -12994849.44801  -4968193.73701      1239.719  
  24458833.891    24458840.773    -1373747.79009   -784613.26909     -1278.125  
  22390193.898    22390199.324   -11707498.53109  -8956354.39109     -2162.266  
  22675387.344    22675392.688    -2537735.07509  -1810435.13909      2917.906  
  20533239.086    20533243.234   -17554991.49601 -13503249.70101       753.891  
 98 11 22 11 28 20.0000000  0  7G26G13G10G17G02G19G27
  22861030.586    22861035.930    -6632155.12409  -5005389.08609     -2768.734  
  20713104.109    20713106.406   -14258382.67208  -9188380.59108      1164.000  
  20854681.008    20854686.000   -12988645.14201  -4963359.21501      1241.656  
  24457619.633    24457626.441    -1380132.37409   -789588.27309     -1276.047  
  22388137.211    22388142.613   -11718306.71809  -8964776.34609     -2161.359  
  22678163.570    22678169.137    -2523144.90809  -1799066.18209      2917.813  
  20533957.352    20533961.453   -17551218.41601 -13500309.63901       755.016  
 98 11 22 11 28 25.0000000  0  7G26G13G10G17G02G19G27
  22858396.023    22858400.793    -6645999.68209  -5016177.03409     -2768.922  
  20714212.242    20714214.574   -14252560.17507  -9183843.58208      1165.156  
  20855863.234    20855868.074   -12982432.23601  -4958517.99101      1243.672  
  24456405.820    24456412.113    -1386507.50809   -794555.91109     -1273.844  
  22386081.164    22386086.555   -11729111.49209  -8973195.64109     -2160.375  
  22680939.586    22680944.848    -2508556.37209  -1787698.49609      2917.766  
  20534675.844    20534679.992   -17547440.73701 -13497365.99201       756.219  
 98 11 22 11 28 30.0000000  0  7G26G13G10G17G02G19G27
  22855761.430    22855765.813    -6659843.47709  -5026964.39709     -2768.844  
  20715321.695    20715324.156   -14246730.08508  -9179300.65608      1166.609  
  20857047.633    20857052.508   -12976207.72101  -4953667.72201      1245.891  
  24455195.430    24455201.430    -1392870.02509   -799513.72209     -1271.422  
  22384026.000    22384031.215   -11739909.46809  -8981609.63809     -2159.094  
  22683716.148    22683721.469    -2493966.47309  -1776329.74809      2917.938  
  20535396.242    20535400.344   -17543655.22901 -13494416.24601       757.734  
 98 11 22 11 28 35.0000000  0  7G26G13G10G17G02G19G27
  22853127.102    22853131.918    -6673687.44809  -5037751.88909     -2769.141  
  20716432.273    20716434.594   -14240893.52709  -9174752.68908      1167.625  
  20858233.906    20858238.617   -12969972.83901  -4948809.37701      1247.656  
  24453986.695    24453992.566    -1399221.34609   -804462.81209     -1269.500  
  22381972.289    22381977.855   -11750701.76509  -8990019.21609     -2158.234  
  22686492.438    22686497.711    -2479376.43409  -1764960.89009      2917.688  
  20536118.031    20536122.273   -17539862.82501 -13491461.12701       758.844  
 98 11 22 11 28 40.0000000  0  7G26G13G10G17G02G19G27
  22850492.391    22850497.313    -6687533.12809  -5048540.70709     -2768.953  
  20717543.914    20717546.305   -14235052.18009  -9170200.99108      1169.109  
  20859421.891    20859426.625   -12963729.21301  -4943944.21701      1249.969  
  24452779.695    24452785.883    -1405563.29009   -809404.58209     -1267.063  
  22379919.469    22379925.258   -11761490.07109  -8998425.68009     -2156.891  
  22689268.852    22689273.926    -2464787.82909  -1753593.15209      2917.922  
  20536840.781    20536844.965   -17536064.88701 -13488501.69401       760.531  
 98 11 22 11 28 45.0000000  0  7G26G13G10G17G02G19G27
  22847857.648    22847862.500    -6701378.20409  -5059329.06709     -2768.953  
  20718656.719    20718659.098   -14229203.73809  -9165643.76608      1170.391  
  20860612.383    20860617.164   -12957474.38601  -4939070.32801      1252.094  
  24451575.227    24451582.461    -1411893.29909   -814337.04509     -1264.797  
  22377867.797    22377873.188   -11772271.94609  -9006827.12709     -2155.719  
  22692045.023    22692050.191    -2450198.32709  -1742224.70709      2917.984  
  20537564.953    20537569.020   -17532258.86201 -13485535.95801       762.000  
 98 11 22 11 28 50.0000000  0  7G26G13G10G17G02G19G27
  22845223.188    22845227.852    -6715221.57809  -5070116.09809     -2768.438  
  20719771.219    20719773.609   -14223347.32408  -9161080.32508      1172.125  
  20861804.977    20861809.793   -12951207.37801  -4934186.94901      1254.672  
  24450373.938    24450379.809    -1418210.32909   -819259.38209     -1262.047  
  22375817.375    22375822.895   -11783046.22709  -9015222.66109     -2154.031  
  22694821.727    22694826.777    -2435606.92509  -1730854.78809      2918.516  
  20538290.961    20538294.969   -17528443.80401 -13482563.18601       763.969  
 98 11 22 11 28 55.0000000  0  7G26G13G10G17G02G19G27
  22842589.516    22842593.969    -6729061.62609  -5080900.53209     -2768.156  
  20720887.289    20720889.691   -14217481.61608  -9156509.64508      1173.547  
  20863000.250    20863005.113   -12944926.73201  -4929292.94101      1257.000  
  24449173.992    24449179.594    -1424513.03609   -824170.60509     -1259.641  
  22373768.844    22373774.363   -11793811.40909  -9023611.10909     -2152.656  
  22697599.039    22697603.984    -2421012.29709  -1719482.34909      2918.719  
  20539018.898    20539022.906   -17524618.31301 -13479582.28001       765.609  
 98 11 22 11 29  0.0000000  0  7G26G13G10G17G02G19G27
  22839955.969    22839960.469    -6742900.66309  -5091684.16509     -2767.547  
  20722004.930    20722007.402   -14211609.16309  -9151933.71009      1175.328  
  20864197.531    20864202.465   -12938634.91901  -4924390.23201      1259.641  
  24447976.805    24447982.969    -1430804.35909   -829072.96009     -1256.984  
  22371721.641    22371727.383   -11804570.11609  -9031994.51109     -2150.938  
  22700376.234    22700381.262    -2406417.14709  -1708109.50709      2919.234  
  20539748.344    20539752.434   -17520785.05301 -13476595.32501       767.578  
 98 11 22 11 29  5.0000000  0  7G26G13G10G17G02G19G27
  22837322.828    22837327.246    -6756737.68609  -5102466.24309     -2767.406  
  20723123.992    20723126.488   -14205729.00409  -9147351.76708      1176.578  
  20865396.945    20865401.762   -12932331.14801  -4919478.20601      1261.734  
  24446782.070    24446786.793    -1437083.61609   -833965.87009     -1254.875  
  22369675.852    22369681.723   -11815321.33609  -9040372.07309     -2149.703  
  22703153.984    22703159.117    -2391820.58009  -1696735.56009      2919.203  
  20540479.391    20540483.469   -17516943.14101 -13473601.62901       769.031  
 98 11 22 11 29 10.0000000  0  7G26G13G10G17G02G19G27
  22834690.078    22834694.449    -6770573.78909  -5113247.60209     -2767.313  
  20724244.133    20724246.570   -14199842.32209  -9142764.74409      1177.828  
  20866598.703    20866603.484   -12926016.43701  -4914557.65601      1263.875  
  24445589.836    24445595.016    -1443351.78509   -838850.15809     -1252.688  
  22367631.047    22367636.883   -11826066.05209  -9048744.56609     -2148.453  
  22705931.781    22705936.914    -2377223.86809  -1685361.50509      2919.203  
  20541211.969    20541216.035   -17513093.75201 -13470602.10501       770.453  
 98 11 22 11 29 15.0000000  0  7G26G13G10G17G02G19G27
  22832057.148    22832061.508    -6784408.54509  -5124027.90809     -2766.781  
  20725365.664    20725367.984   -14193948.43209  -9138172.10509      1179.531  
  20867802.617    20867807.410   -12919690.02901  -4909627.99001      1266.484  
  24444398.727    24444405.078    -1449608.06109   -843725.21209     -1250.016  
  22365587.781    22365593.582   -11836803.63209  -9057111.50809     -2146.766  
  22708709.594    22708714.973    -2362626.34809  -1673986.82409      2919.625  
  20541946.078    20541950.098   -17509236.22001 -13467596.23501       772.344  
 98 11 22 11 29 20.0000000  0  7G26G13G10G17G02G19G27
  22829425.086    22829429.891    -6798241.21109  -5134806.59409     -2766.141  
  20726488.789    20726491.121   -14188046.65309  -9133573.31609      1181.375  
  20869009.023    20869013.875   -12913351.17201  -4904688.62501      1269.219  
  24443210.195    24443216.488    -1455851.34009   -848590.08709     -1247.109  
  22363545.836    22363551.730   -11847533.17809  -9065472.18509     -2144.906  
  22711487.633    22711493.188    -2348027.13609  -1662610.81409      2920.219  
  20542681.773    20542685.816   -17505369.90501 -13464583.52401       774.344  
 98 11 22 11 29 25.0000000  0  7G26G13G10G17G02G19G27
  22826793.328    22826798.121    -6812070.28909  -5145582.47409     -2765.766  
  20727613.633    20727615.918   -14182135.16709  -9128966.96309      1182.938  
  20870217.844    20870222.766   -12906998.04201  -4899738.13801      1271.734  
  24442025.648    24442031.813    -1462079.54709   -853443.21509     -1244.453  
  22361506.031    22361511.715   -11858253.02909  -9073825.30709     -2143.328  
  22714266.141    22714271.930    -2333424.36009  -1651232.02909      2920.594  
  20543419.414    20543423.434   -17501493.07701 -13461562.61901       776.094  
 98 11 22 11 29 30.0000000  0  7G26G13G10G17G02G19G27
  22824161.172    22824166.281    -6825901.87309  -5156360.30809     -2766.313  
  20728739.156    20728741.488   -14176220.18809  -9124357.88709      1183.609  
  20871428.477    20871433.305   -12900636.78301  -4894781.31801      1273.328  
  24440841.852    24440847.758    -1468298.97709   -858289.52309     -1242.750  
  22359466.781    22359472.395   -11868969.52209  -9082175.81209     -2142.703  
  22717044.641    22717050.664    -2318824.00409  -1639855.12409      2920.094  
  20544157.961    20544162.016   -17497611.88301 -13458538.31101       776.938  
 98 11 22 11 29 35.0000000  0  7G26G13G10G17G02G19G27
  22821529.063    22821534.043    -6839733.74209  -5167138.36509     -2766.563  
  20729865.922    20729868.289   -14170299.36609  -9119744.26108      1184.609  
  20872641.109    20872645.785   -12894264.92301  -4889816.23501      1275.297  
  24439659.977    24439665.813    -1474507.34009   -863127.19809     -1240.734  
  22357428.586    22357433.941   -11879680.38209  -9090521.93209     -2141.781  
  22719823.023    22719828.590    -2304223.68409  -1628478.24709      2919.891  
  20544897.688    20544901.707   -17493724.20001 -13455508.94801       778.016  
 98 11 22 11 29 40.0000000  0  7G26G13G10G17G02G19G27
  22818896.766    22818901.605    -6853566.08909  -5177916.78909     -2766.375  
  20730993.680    20730995.906   -14164372.90809  -9115126.24409      1186.000  
  20873855.320    20873860.148   -12887882.48202  -4884842.90401      1277.703  
  24438481.016    24438488.145    -1480705.00209   -867956.54209     -1238.313  
  22355391.266    22355396.539   -11890385.91409  -9098863.89809     -2140.422  
  22722601.492    22722607.000    -2289623.55109  -1617101.53209      2920.156  
  20545638.641    20545642.602   -17489830.48701 -13452474.88701       779.516  
 98 11 22 11 29 45.0000000  0  7G26G13G10G17G02G19G27
  22816265.289    22816269.941    -6867398.83609  -5188695.52809     -2766.438  
  20732122.609    20732124.906   -14158440.93809  -9110503.93209      1187.078  
  20875071.945    20875076.727   -12881489.43602  -4879861.31301      1279.813  
  24437303.336    24437309.980    -1486891.94609   -872777.54709     -1236.156  
  22353355.039    22353360.160   -11901086.24809  -9107201.81309     -2139.406  
  22725379.617    22725385.395    -2275023.60009  -1605724.95309      2920.109  
  20546380.844    20546384.910   -17485930.53201 -13449435.96001       780.781  
 98 11 22 11 29 50.0000000  0  7G26G13G10G17G02G19G27
  22813632.531    22813637.676    -6881230.08909  -5199473.10609     -2766.328  
  20733252.750    20733255.105   -14152501.77409  -9105876.01309      1188.328  
  20876291.031    20876295.684   -12875083.76404  -4874869.88201      1282.219  
  24436128.625    24436135.684    -1493066.19009   -877588.63909     -1233.828  
  22351320.141    22351325.180   -11911779.50109  -9115534.20809     -2138.156  
  22728158.281    22728164.188    -2260422.03109  -1594347.11509      2920.234  
  20547124.891    20547128.945   -17482022.28201 -13446390.56701       782.266  
 98 11 22 11 29 55.0000000  0  7G26G13G10G17G02G19G27
  22811000.516    22811005.543    -6895062.07509  -5210251.25209     -2766.422  
  20734383.992    20734386.148   -14146557.51509  -9101244.12509      1189.391  
  20877512.102    20877516.813   -12868667.33704  -4869870.07101      1284.375  
  24434955.313    24434961.617    -1499229.90109   -882391.54409     -1231.672  
  22349286.203    22349291.324   -11922467.60809  -9123862.59909     -2137.078  
  22730936.875    22730942.441    -2245821.08909  -1582969.74609      2920.156  
  20547869.742    20547873.715   -17478107.76501 -13443340.29301       783.578  
 98 11 22 11 30  0.0000000  0  7G26G13G10G17G02G19G27
  22808368.023    22808372.723    -6908894.76409  -5221029.95109     -2766.453  
  20735515.977    20735518.215   -14140608.25109  -9096608.33508      1190.516  
  20878735.141    20878739.699   -12862240.20005  -4864861.91601      1286.688  
  24433784.586    24433789.789    -1505383.05409   -887186.21909     -1229.391  
  22347253.477    22347258.738   -11933150.57109  -9132186.98209     -2135.906  
  22733715.117    22733720.566    -2231220.58009  -1571592.72709      2920.250  
  20548615.711    20548619.895   -17474186.88001 -13440285.06001       785.000  
 98 11 22 11 30  5.0000000  0  7G26G13G10G17G02G19G27
  22805735.672    22805740.500    -6922727.17409  -5231808.43209     -2766.422  
  20736649.250    20736651.605   -14134653.24609  -9091968.07109      1191.594  
  20879960.375    20879965.027   -12855801.23606  -4859844.54701      1289.000  
  24432615.891    24432622.383    -1511524.85509   -891972.06209     -1227.219  
  22345221.641    22345226.855   -11943827.49209  -9140506.65209     -2134.750  
  22736493.695    22736499.262    -2216619.60009  -1560215.34809      2920.234  
  20549363.336    20549367.461   -17470258.63401 -13437224.08901       786.406  
 98 11 22 11 30 10.0000000  0  7G26G13G10G17G02G19G27
  22803103.563    22803108.672    -6936560.96809  -5242587.98609     -2766.359  
  20737783.188    20737785.566   -14128694.02509  -9087324.52209      1192.813  
  20881187.531    20881192.230   -12849352.01605  -4854819.18001      1291.406  
  24431448.945    24431454.406    -1517656.90509   -896750.26909     -1224.875  
  22343190.625    22343196.027   -11954499.88209  -9148822.79209     -2133.469  
  22739271.750    22739277.563    -2202019.89109  -1548838.95809      2920.375  
  20550111.891    20550116.063   -17466324.57001 -13434158.58601       787.938  
 98 11 22 11 30 15.0000000  0  7G26G13G10G17G02G19G27
  22800471.438    22800476.922    -6950390.00509  -5253363.84409     -2765.609  
  20738919.078    20738921.469   -14122724.48208  -9082672.93109      1194.656  
  20882418.055    20882422.789   -12842886.44106  -4849781.07502      1294.469  
  24430285.188    24430290.883    -1523772.99109   -901516.04409     -1221.922  
  22341162.000    22341167.508   -11965161.43109  -9157130.48909     -2131.500  
  22742050.977    22742056.391    -2187415.25709  -1537458.72509      2921.125  
  20550862.914    20550867.145   -17462378.49301 -13431083.72101       790.156  
 98 11 22 11 30 20.0000000  0  7G26G13G10G17G02G19G27
  22797840.297    22797845.699    -6964217.45709  -5264138.45109     -2765.234  
  20740056.594    20740059.020   -14116747.79307  -9078015.77109      1196.156  
  20883650.977    20883655.617   -12836407.54307  -4844732.58902      1297.234  
  24429123.695    24429129.473    -1529876.11409   -906271.69409     -1219.203  
  22339134.586    22339140.223   -11975815.18709  -9165432.11309     -2129.859  
  22744830.344    22744835.910    -2172808.90409  -1526077.15209      2921.531  
  20551615.250    20551619.328   -17458423.38701 -13428001.81901       792.047  
 98 11 22 11 30 25.0000000  0  7G26G13G10G17G02G19G27
  22795209.289    22795214.352    -6978043.81009  -5274912.21109     -2765.359  
  20741195.148    20741197.691   -14110764.29608  -9073353.30808      1197.188  
  20884886.289    20884890.801   -12829915.70005  -4839674.01002      1299.453  
  24427965.695    24427972.754    -1535966.53909   -911017.46609     -1217.016  
  22337108.641    22337114.324   -11986461.51009  -9173727.94309     -2128.719  
  22747610.305    22747615.824    -2158201.23109  -1514694.55609      2921.469  
  20552369.773    20552373.793   -17454459.74701 -13424913.26701       793.359  
 98 11 22 11 30 30.0000000  0  7G26G13G10G17G02G19G27
  22792577.422    22792582.109    -6991873.00509  -5285688.18109     -2765.750  
  20742334.328    20742336.895   -14104777.83409  -9068688.53608      1197.969  
  20886123.203    20886127.598   -12823414.95706  -4834608.50102      1301.422  
  24426807.617    24426813.934    -1542048.32209   -915756.54009     -1215.125  
  22335083.266    22335088.867   -11997104.34609  -9182021.05309     -2127.844  
  22750389.547    22750394.727    -2143596.07609  -1503313.92109      2921.172  
  20553124.773    20553128.676   -17450491.70701 -13421821.29101       794.422  
 98 11 22 11 30 35.0000000  0  7G26G13G10G17G02G19G27
  22789946.305    22789951.789    -7005701.54309  -5296463.64109     -2765.656  
  20743474.555    20743476.945   -14098785.13909  -9064018.90309      1199.109  
  20887362.727    20887367.238   -12816901.80107  -4829533.31802      1303.891  
  24425652.531    24425659.531    -1548118.19509   -920486.30709     -1212.797  
  22333059.266    22333064.680   -12007740.47909  -9190308.94209     -2126.578  
  22753169.133    22753174.547    -2128990.06109  -1491932.61209      2921.281  
  20553881.336    20553885.344   -17446515.91101 -13418723.26701       795.922  
 98 11 22 11 30 40.0000000  0  7G26G13G10G17G02G19G27
  22787314.828    22787320.031    -7019529.70009  -5307238.80809     -2765.375  
  20744616.148    20744618.574   -14092786.72609  -9059344.81709      1200.484  
  20888604.398    20888609.027   -12810376.33005  -4824448.54101      1306.531  
  24424500.063    24424508.281    -1554176.38509   -925206.97409     -1210.266  
  22331036.484    22331041.816   -12018370.23709  -9198591.86309     -2125.094  
  22755948.250    22755953.629    -2114383.46609  -1480550.85009      2921.578  
  20554639.281    20554643.395   -17442532.78801 -13415619.53001       797.547  
 98 11 22 11 30 45.0000000  0  7G26G13G10G17G02G19G27
  22784683.531    22784688.887    -7033357.05109  -5318013.35509     -2765.281  
  20745758.805    20745761.137   -14086782.09008  -9054665.87909      1201.672  
  20889848.797    20889853.297   -12803838.21405  -4819353.90901      1309.016  
  24423349.820    24423356.664    -1560222.58509   -929918.28009     -1207.922  
  22329015.211    22329020.578   -12028993.11509  -9206869.42609     -2123.750  
  22758728.078    22758733.680    -2099775.85209  -1469168.29209      2921.766  
  20555398.516    20555402.570   -17438542.03801 -13412509.85601       799.031  
 98 11 22 11 30 50.0000000  0  7G26G13G10G17G02G19G27
  22782052.859    22782058.004    -7047182.33509  -5328786.27909     -2765.063  
  20746902.820    20746905.305   -14080769.91407  -9049981.07009      1202.969  
  20891095.414    20891099.961   -12797285.96804  -4814248.26701      1311.672  
  24422201.508    24422207.332    -1566255.56109   -934619.31209     -1205.500  
  22326995.398    22327000.730   -12039607.62509  -9215140.47309     -2122.297  
  22761508.406    22761514.383    -2085165.65809  -1457783.73509      2922.078  
  20556160.047    20556164.195   -17434542.32701 -13409393.20001       800.625  
 98 11 22 11 30 55.0000000  0  7G26G13G10G17G02G19G27
  22779422.203    22779427.254    -7061006.50409  -5339558.33809     -2764.797  
  20748048.227    20748050.805   -14074751.11508  -9045291.09909      1204.359  
  20892344.789    20892349.289   -12790720.46402  -4809132.29101      1314.359  
  24421055.359    24421061.781    -1572276.17409   -939310.71909     -1202.922  
  22324976.758    22324982.008   -12050214.88609  -9223405.86509     -2120.797  
  22764289.016    22764294.605    -2070553.80509  -1446397.87409      2922.484  
  20556922.273    20556926.445   -17430534.76901 -13406270.43001       802.219  
 98 11 22 11 31  0.0000000  0  7G26G13G10G17G02G19G27
  22776791.461    22776796.395    -7074831.32309  -5350330.90709     -2765.016  
  20749194.430    20749196.973   -14068727.23808  -9040597.16908      1205.297  
  20893596.438    20893601.090   -12784143.29403  -4804007.23001      1316.609  
  24419912.156    24419919.297    -1578285.74609   -943993.49309     -1200.781  
  22322959.523    22322964.762   -12060816.54409  -9231666.88809     -2119.750  
  22767069.336    22767074.727    -2055941.88009  -1435011.96109      2922.422  
  20557686.195    20557690.262   -17426521.23601 -13403143.00301       803.297  
 98 11 22 11 31  5.0000000  0  7G26G13G10G17G02G19G27
  22774161.039    22774166.078    -7088654.56809  -5361102.24709     -2764.484  
  20750342.234    20750344.777   -14062695.98809  -9035897.49809      1207.016  
  20894850.711    20894855.340   -12777552.12702  -4798871.25801      1319.656  
  24418771.898    24418778.758    -1584281.69109   -948665.66309     -1197.813  
  22320943.406    22320948.668   -12071410.32309  -9239921.77609     -2117.969  
  22769850.836    22769856.566    -2041327.43409  -1423624.08909      2923.156  
  20558451.680    20558455.734   -17422499.74801 -13400009.37401       805.078  
 98 11 22 11 31 10.0000000  0  7G26G13G10G17G02G19G27
  22771530.313    22771535.316    -7102479.43509  -5371874.84809     -2764.922  
  20751490.750    20751493.164   -14056660.51109  -9031194.53009      1207.734  
  20896106.852    20896111.398   -12770950.13702  -4793726.85201      1321.703  
  24417631.945    24417639.203    -1590267.20509   -953329.68609     -1195.813  
  22318928.391    22318933.559   -12081999.59209  -9248173.14909     -2117.188  
  22772631.711    22772637.113    -2026713.52009  -1412236.63009      2922.969  
  20559217.531    20559221.844   -17418473.62201 -13396872.13401       805.938  
 98 11 22 11 31 15.0000000  0  7G26G13G10G17G02G19G27
  22768899.203    22768904.113    -7116304.77109  -5382647.81609     -2765.266  
  20752640.242    20752642.598   -14050619.76909  -9026487.45709      1208.500  
  20897365.547    20897370.047   -12764336.22204  -4788573.15801      1323.797  
  24416495.047    24416501.082    -1596240.93009   -957984.54409     -1193.734  
  22316914.367    22316919.547   -12092583.31009  -9256420.19709     -2116.359  
  22775412.352    22775417.719    -2012098.96909  -1400848.67409      2922.797  
  20559984.797    20559989.227   -17414441.67201 -13393730.35501       806.797  
 98 11 22 11 31 20.0000000  0  7G26G13G10G17G02G19G27
  22766268.055    22766272.941    -7130131.00709  -5393421.49009     -2765.313  
  20753790.805    20753793.195   -14044574.22309  -9021776.64209      1209.609  
  20898626.250    20898630.715   -12757710.89104  -4783410.56901      1326.250  
  24415360.844    24415366.152    -1602203.14209   -962630.43909     -1191.219  
  22314901.148    22314906.539   -12103161.84909  -9264663.21609     -2115.156  
  22778193.727    22778198.906    -1997484.18909  -1389460.53409      2923.031  
  20560753.164    20560757.418   -17410404.26401 -13390584.32201       808.063  
 98 11 22 11 31 25.0000000  0  7G26G13G10G17G02G19G27
  22763636.992    22763642.031    -7143956.18009  -5404194.33109     -2764.922  
  20754942.336    20754944.797   -14038522.05009  -9017060.66109      1211.094  
  20899889.797    20899894.344   -12751072.34104  -4778237.67801      1329.031  
  24414228.633    24414236.453    -1608151.64309   -967265.63509     -1188.328  
  22312889.484    22312894.711   -12113733.08509  -9272900.53709     -2113.500  
  22780975.289    22780980.656    -1982866.97209  -1378070.50009      2923.688  
  20561523.047    20561527.195   -17406359.33201 -13387432.42601       809.750  
 98 11 22 11 31 30.0000000  0  7G26G13G10G17G02G19G27
  22761006.984    22761012.035    -7157779.45309  -5414965.69609     -2764.297  
  20756095.578    20756098.063   -14032462.48409  -9012338.92309      1212.828  
  20901155.586    20901160.145   -12744419.90605  -4773053.96601      1332.031  
  24413099.609    24413105.738    -1614085.49909   -971889.39809     -1185.141  
  22310879.727    22310885.082   -12124296.22809  -9281131.55609     -2111.641  
  22783757.344    22783762.910    -1968246.61909  -1366678.02309      2924.563  
  20562294.133    20562298.293   -17402306.16901 -13384274.11601       811.625  
 98 11 22 11 31 35.0000000  0  7G26G13G10G17G02G19G27
  22758376.266    22758381.363    -7171604.12909  -5425738.15109     -2765.047  
  20757249.391    20757251.746   -14026398.86909  -9007614.02709      1213.109  
  20902423.477    20902428.117   -12737757.09004  -4767862.16601      1333.578  
  24411972.727    24411980.219    -1620008.02609   -976504.32009     -1183.391  
  22308870.375    22308875.895   -12134854.64709  -9289358.89209     -2111.219  
  22786539.594    22786545.242    -1953626.36509  -1355285.62409      2924.016  
  20563066.445    20563070.594   -17398247.99901 -13381111.90501       812.125  
 98 11 22 11 31 40.0000000  0  7G26G13G10G17G02G19G27
  22755745.328    22755750.613    -7185429.39309  -5436511.06509     -2764.859  
  20758404.094    20758406.414   -14020330.68409  -9002885.57309      1214.375  
  20903693.445    20903698.133   -12731083.52402  -4762661.99001      1336.047  
  24410847.945    24410853.734    -1625918.80609   -981110.12109     -1180.734  
  22306862.219    22306867.563   -12145407.81409  -9297582.13009     -2109.859  
  22789322.070    22789327.695    -1939005.82209  -1343893.00409      2924.391  
  20563839.711    20563843.859   -17394184.29101 -13377945.38401       813.563  
 98 11 22 11 31 45.0000000  0  7G26G13G10G17G02G19G27
  22753114.531    22753120.016    -7199254.15709  -5447283.59409     -2764.656  
  20759559.961    20759562.387   -14014256.81509  -8998152.68909      1215.563  
  20904965.570    20904970.223   -12724398.27102  -4757452.70601      1338.469  
  24409724.633    24409731.066    -1631816.99409   -985706.10309     -1178.141  
  22304855.070    22304860.285   -12155954.91009  -9305800.64409     -2108.563  
  22792104.391    22792110.238    -1924384.05009  -1332499.41909      2924.719  
  20564614.352    20564618.383   -17390113.94401 -13374773.68801       814.969  
 98 11 22 11 31 50.0000000  0  7G26G13G10G17G02G19G27
  22750484.070    22750489.098    -7213076.56509  -5458054.28309     -2764.563  
  20760716.992    20760719.500   -14008175.72109  -8993414.17909      1216.625  
  20906240.188    20906244.770   -12717699.58401  -4752232.95501      1340.766  
  24408605.367    24408613.234    -1637701.03509   -990291.06709     -1175.688  
  22302849.484    22302854.652   -12166494.24009  -9314013.10709     -2107.391  
  22794887.359    22794893.371    -1909759.29109  -1321103.49909      2924.953  
  20565390.492    20565394.430   -17386035.35402 -13371595.56501       816.203  
 98 11 22 11 31 55.0000000  0  7G26G13G10G17G02G19G27
  22747853.570    22747858.340    -7226898.36409  -5468824.50309     -2764.422  
  20761875.234    20761877.613   -14002089.11309  -8988671.36809      1217.734  
  20907517.211    20907521.840   -12710989.18702  -4747004.07901      1343.125  
  24407488.672    24407494.965    -1643572.58309   -994866.33809     -1173.219  
  22300845.008    22300850.234   -12177027.49809  -9322220.83409     -2106.156  
  22797670.680    22797676.469    -1895133.33409  -1309706.65609      2925.172  
  20566167.711    20566171.754   -17381950.38502 -13368412.47301       817.516  
 98 11 22 11 32  0.0000000  0  7G26G13G10G17G02G19G27
  22745223.578    22745228.676    -7240719.45709  -5479594.15709     -2763.875  
  20763034.617    20763037.020   -13995996.91409  -8983924.20109      1219.266  
  20908796.219    20908800.930   -12704266.99402  -4741766.01001      1345.875  
  24406373.008    24406379.879    -1649431.60909   -999431.80309     -1170.266  
  22298841.633    22298846.824   -12187554.48009  -9330423.67309     -2104.484  
  22800454.094    22800459.684    -1880506.15109  -1298308.85409      2925.828  
  20566946.406    20566950.449   -17377858.74602 -13365224.18301       819.281  
 98 11 22 11 32  5.0000000  0  7G26G13G10G17G02G19G27
  22742593.930    22742599.063    -7254538.55209  -5490362.26209     -2763.906  
  20764195.313    20764197.727   -13989897.89509  -8979171.72009      1220.203  
  20910078.055    20910082.789   -12697531.98202  -4736517.95901      1347.984  
  24405260.258    24405268.664    -1655276.65209  -1003986.36009     -1167.891  
  22296839.969    22296845.277   -12198073.78909  -9338620.53409     -2103.375  
  22803238.063    22803243.313    -1865876.35009  -1286909.01909      2925.953  
  20567726.641    20567730.637   -17373758.93302 -13362029.52201       820.500  
 98 11 22 11 32 10.0000000  0  7G26G13G10G17G02G19G27
  22739963.781    22739968.609    -7268360.12809  -5501132.31009     -2764.453  
  20765356.250    20765358.688   -13983796.31309  -8974417.24309      1220.734  
  20911361.273    20911366.043   -12690788.66202  -4731263.42801      1349.625  
  24404150.391    24404157.941    -1661111.94109  -1008533.34909     -1165.953  
  22294838.984    22294844.375   -12208589.58209  -9346814.65509     -2102.672  
  22806021.578    22806026.781    -1851248.27109  -1275510.51909      2925.547  
  20568507.453    20568511.379   -17369655.32301 -13358831.90601       821.234  
 98 11 22 11 32 15.0000000  0  7G26G13G10G17G02G19G27
  22737333.836    22737338.758    -7282180.32609  -5511901.29209     -2763.672  
  20766518.773    20766521.188   -13977688.00309  -8969657.52308      1222.547  
  20912646.789    20912651.652   -12684033.38902  -4725999.58201      1352.438  
  24403042.500    24403049.168    -1666933.56309  -1013069.67509     -1162.734  
  22292839.328    22292844.719   -12219097.94909  -9355002.98809     -2100.734  
  22808805.500    22808810.832    -1836618.12309  -1264110.40209      2926.453  
  20569289.859    20569293.867   -17365543.99802 -13355628.27602       823.234  
 98 11 22 11 32 20.0000000  0  7G26G13G10G17G02G19G27
  22734704.133    22734709.266    -7295998.98109  -5522669.05609     -2763.453  
  20767682.406    20767684.832   -13971572.65109  -8964892.31309      1223.891  
  20913934.375    20913939.250   -12677266.16803  -4720726.42701      1354.734  
  24401937.789    24401944.871    -1672741.19709  -1017595.08909     -1160.031  
  22290840.766    22290845.957   -12229598.78609  -9363185.45809     -2099.313  
  22811590.102    22811595.656    -1821985.69709  -1252708.51909      2926.797  
  20570073.688    20570077.766   -17361424.86102 -13352418.56501       824.719  
 98 11 22 11 32 25.0000000  0  7G26G13G10G17G02G19G27
  22732074.602    22732079.793    -7309816.49009  -5533435.92709     -2763.172  
  20768847.406    20768849.691   -13965450.62409  -8960121.90809      1225.297  
  20915224.266    20915229.188   -12670487.48302  -4715444.33901      1357.094  
  24400834.672    24400842.844    -1678535.44109  -1022110.09709     -1157.297  
  22288843.977    22288849.133   -12240092.54309  -9371362.40809     -2097.813  
  22814374.922    22814380.324    -1807351.49409  -1241305.25109      2927.250  
  20570858.922    20570862.813   -17357298.35303 -13349203.10602       826.266  
 98 11 22 11 32 30.0000000  0  7G26G13G10G17G02G19G27
  22729445.664    22729450.773    -7323631.97609  -5544201.21809     -2763.281  
  20770013.914    20770016.270   -13959320.78409  -8955345.40909      1226.375  
  20916516.695    20916521.582   -12663696.32102  -4710152.53301      1359.125  
  24399735.555    24399743.387    -1684315.23909  -1026613.82709     -1154.875  
  22286848.758    22286853.926   -12250578.14409  -9379533.00509     -2096.688  
  22817160.203    22817165.512    -1792714.33909  -1229899.68109      2927.344  
  20571645.641    20571649.438   -17353163.38103 -13345981.05001       827.469  
 98 11 22 11 32 35.0000000  0  7G26G13G10G17G02G19G27
  22726816.641    22726822.324    -7337448.39109  -5554967.23509     -2763.406  
  20771181.359    20771183.621   -13953186.11209  -8950565.14809      1227.391  
  20917810.859    20917815.805   -12656895.45502  -4704853.16401      1361.109  
  24398638.211    24398645.633    -1690083.52409  -1031108.59109     -1152.563  
  22284854.227    22284859.418   -12261058.62409  -9387699.60809     -2095.609  
  22819945.422    22819950.391    -1778077.23209  -1218494.15609      2927.375  
  20572433.539    20572437.488   -17349022.96302 -13342754.74902       828.594  
 98 11 22 11 32 40.0000000  0  7G26G13G10G17G02G19G27
  22724187.281    22724192.625    -7351264.83209  -5565733.28109     -2763.313  
  20772349.828    20772352.137   -13947045.68909  -8945780.40509      1228.641  
  20919107.148    20919111.953   -12650083.87703  -4699545.44501      1363.359  
  24397541.828    24397548.758    -1695839.53309  -1035593.80509     -1150.000  
  22282860.922    22282866.008   -12271532.93109  -9395861.40409     -2094.250  
  22822730.930    22822736.250    -1763439.32609  -1207087.99509      2927.656  
  20573222.781    20573226.777   -17344876.27802 -13339523.56802       829.938  
 98 11 22 11 32 45.0000000  0  7G26G13G10G17G02G19G27
  22721558.164    22721563.367    -7365080.67409  -5576498.85609     -2763.188  
  20773519.430    20773521.656   -13940898.94909  -8940990.74009      1229.891  
  20920405.523    20920410.293   -12643261.16903  -4694229.05201      1365.547  
  24396449.000    24396456.223    -1701582.85209  -1040069.10509     -1147.531  
  22280869.266    22280874.703   -12282000.44409  -9404017.90909     -2092.922  
  22825516.695    22825522.203    -1748799.95109  -1195680.70009      2927.922  
  20574013.227    20574017.270   -17340722.81103 -13336287.10002       831.281  
 98 11 22 11 32 50.0000000  0  7G26G13G10G17G02G19G27
  22718929.250    22718934.547    -7378896.66809  -5587264.54609     -2762.859  
  20774690.156    20774692.488   -13934746.85609  -8936196.90209      1231.297  
  20921705.789    20921710.582   -12636428.38704  -4688904.80801      1367.922  
  24395358.711    24395366.754    -1707314.56809  -1044535.36909     -1144.813  
  22278878.367    22278884.133   -12292462.25009  -9412169.96209     -2091.453  
  22828302.742    22828308.637    -1734160.19109  -1184273.10909      2928.328  
  20574804.719    20574808.668   -17336563.53504 -13333046.10502       832.781  
 98 11 22 11 32 55.0000000  0  7G26G13G10G17G02G19G27
  22716300.586    22716306.082    -7392710.38609  -5598028.46209     -2762.969  
  20775862.430    20775864.750   -13928586.80709  -8931396.86809      1232.344  
  20923008.445    20923013.168   -12629582.84904  -4683570.62801      1369.938  
  24394270.875    24394278.121    -1713031.76409  -1048990.33409     -1142.453  
  22276889.344    22276895.016   -12302915.86909  -9420315.63209     -2090.359  
  22831088.891    22831094.973    -1719517.61009  -1172863.30409      2928.344  
  20575597.789    20575601.867   -17332395.86502 -13329798.57003       833.922  
 98 11 22 11 33  0.0000000  0  7G26G13G10G17G02G19G27
  22713671.500    22713676.855    -7406525.29109  -5608793.30509     -2763.297  
  20777035.523    20777037.867   -13922422.07109  -8926593.17909      1233.250  
  20924312.867    20924317.473   -12622728.23405  -4678229.37601      1371.609  
  24393185.234    24393190.777    -1718737.72909  -1053436.55409     -1140.266  
  22274901.008    22274906.867   -12313364.59909  -9428457.49609     -2089.453  
  22833875.250    22833881.098    -1704875.76409  -1161454.07309      2928.094  
  20576391.742    20576395.938   -17328223.25401 -13326547.18502       834.844  
 98 11 22 11 33  5.0000000  0  7G26G13G10G17G02G19G27
  22711042.023    22711047.391    -7420342.14109  -5619559.66609     -2763.188  
  20778209.320    20778211.664   -13916253.32909  -8921786.36909      1234.516  
  20925618.641    20925623.258   -12615865.67804  -4672881.93201      1373.688  
  24392101.352    24392107.398    -1724433.26909  -1057874.62909     -1137.703  
  22272913.320    22272919.133   -12323809.34709  -9436596.25709     -2088.203  
  22836661.352    22836667.035    -1690235.43609  -1150046.03909      2928.281  
  20577186.672    20577190.855   -17324046.13001 -13323292.28302       836.250  
 98 11 22 11 33 10.0000000  0  7G26G13G10G17G02G19G27
  22708413.414    22708418.371    -7434156.79109  -5630324.31009     -2762.750  
  20779384.820    20779387.141   -13910076.46309  -8916973.23009      1236.156  
  20926927.063    20926931.633   -12608990.84404  -4667524.92301      1376.172  
  24391019.344    24391025.742    -1730114.24109  -1062301.34609     -1134.766  
  22270927.422    22270933.293   -12334246.15209  -9444728.83209     -2086.609  
  22839447.766    22839453.648    -1675592.45009  -1138635.92609      2928.828  
  20577983.211    20577987.535   -17319860.21301 -13320030.52801       838.031  
 98 11 22 11 33 15.0000000  0  7G26G13G10G17G02G19G27
  22705784.859    22705789.969    -7447970.83509  -5641088.48109     -2762.453  
  20780561.641    20780563.926   -13903893.04109  -8912154.98009      1237.656  
  20928237.258    20928241.828   -12602105.39804  -4662159.64302      1378.453  
  24389940.797    24389947.383    -1735782.14309  -1066717.89709     -1131.984  
  22268942.422    22268948.141   -12344676.75009  -9452856.56809     -2085.188  
  22842234.586    22842240.457    -1660948.34809  -1127224.94309      2929.266  
  20578781.125    20578785.367   -17315667.09701 -13316763.16801       839.656  
 98 11 22 11 33 20.0000000  0  7G26G13G10G17G02G19G27
  22703156.719    22703162.086    -7461782.57909  -5651850.86709     -2762.688  
  20781739.609    20781741.824   -13897701.50809  -8907330.40909      1238.547  
  20929549.773    20929554.438   -12595207.72002  -4656784.83201      1380.188  
  24388865.266    24388871.371    -1741435.61109  -1071123.20709     -1129.813  
  22266959.047    22266964.695   -12355099.45309  -9460978.14709     -2084.328  
  22845021.898    22845027.898    -1646301.28909  -1115811.66309      2929.141  
  20579580.758    20579585.035   -17311465.01401 -13313488.81803       840.766  
 98 11 22 11 33 25.0000000  0  7G26G13G10G17G02G19G27
  22700528.281    22700533.742    -7475593.59709  -5662612.68209     -2762.156  
  20782919.031    20782921.363   -13891503.66509  -8902500.92009      1240.172  
  20930864.531    20930869.254   -12588299.49503  -4651401.80801      1382.672  
  24387791.063    24387797.590    -1747076.50209  -1075518.70109     -1126.922  
  22264976.680    22264982.340   -12365515.92909  -9469094.87609     -2082.688  
  22847809.195    22847815.043    -1631652.92609  -1104397.36309      2929.766  
  20580381.719    20580385.902   -17307255.49401 -13310208.67303       842.625  
 98 11 22 11 33 30.0000000  0  7G26G13G10G17G02G19G27
  22697899.992    22697904.586    -7489404.56009  -5673374.45509     -2762.266  
  20784099.445    20784101.789   -13885300.08909  -8897666.96809      1241.266  
  20932180.711    20932185.586   -12581381.43801  -4646011.11701      1384.563  
  24386720.586    24386726.680    -1752705.56809  -1079904.96709     -1124.672  
  22262995.680    22263001.188   -12375926.79009  -9477207.23009     -2081.625  
  22850596.813    22850602.566    -1617004.22609  -1092982.79709      2929.719  
  20581184.023    20581188.219   -17303039.08002 -13306923.15402       843.953  
 98 11 22 11 33 35.0000000  0  7G26G13G10G17G02G19G27
  22695272.188    22695276.922    -7503214.11209  -5684135.14009     -2761.172  
  20785281.414    20785283.781   -13879089.53809  -8892827.57909      1243.438  
  20933499.258    20933504.191   -12574452.31702  -4640611.80901      1387.547  
  24385652.313    24385659.887    -1758321.69209  -1084281.15809     -1121.359  
  22261015.961    22261021.246   -12386330.71409  -9485314.18609     -2079.500  
  22853384.344    22853390.332    -1602354.10009  -1081567.12009      2930.781  
  20581987.789    20581991.938   -17298814.59501 -13303631.34502       846.313  
 98 11 22 11 33 40.0000000  0  7G26G13G10G17G02G19G27
  22692645.414    22692649.750    -7517019.55309  -5694892.60909     -2761.234  
  20786465.203    20786467.641   -13872869.05109  -8887980.44609      1244.594  
  20934820.422    20934825.320   -12567509.19201  -4635201.58601      1389.516  
  24384586.375    24384591.977    -1763922.34509  -1088645.33809     -1119.094  
  22259038.000    22259043.484   -12396725.03209  -9493413.65109     -2078.406  
  22856173.148    22856179.066    -1587699.71009  -1070148.12009      2930.813  
  20582793.938    20582798.098   -17294579.28701 -13300331.10302       847.625  
 98 11 22 11 33 45.0000000  0  7G26G13G10G17G02G19G27
  22690018.273    22690022.809    -7530825.11709  -5705650.18109     -2760.984  
  20787649.906    20787652.379   -13866642.69509  -8883128.74309      1246.000  
  20936143.766    20936148.723   -12560556.18801  -4629783.66501      1391.719  
  24383523.125    24383529.641    -1769511.57509  -1093000.58309     -1116.578  
  22257061.125    22257066.375   -12407113.99509  -9501508.94209     -2077.141  
  22858961.969    22858967.734    -1573045.14609  -1058728.98209      2931.047  
  20583601.109    20583605.152   -17290337.40701 -13297025.74402       849.172  
 98 11 22 11 33 50.0000000  0  7G26G13G10G17G02G19G27
  22687391.422    22687395.863    -7544629.67109  -5716406.96409     -2760.750  
  20788836.133    20788838.523   -13860409.03509  -8878271.34709      1247.547  
  20937468.836    20937473.875   -12553591.93601  -4624356.97801      1394.063  
  24382461.344    24382468.035    -1775088.26909  -1097346.07009     -1114.000  
  22255085.367    22255090.699   -12417496.56209  -9509599.25109     -2075.813  
  22861750.930    22861756.742    -1558389.29709  -1047308.84509      2931.391  
  20584409.836    20584413.891   -17286087.65801 -13293714.25302       850.828  
 98 11 22 11 33 55.0000000  0  7G26G13G10G17G02G19G27
  22684764.828    22684769.691    -7558432.61609  -5727162.49409     -2760.797  
  20790023.930    20790026.332   -13854167.32709  -8873407.68209      1248.766  
  20938796.344    20938801.277   -12546615.35101  -4618920.68301      1396.203  
  24381403.422    24381408.836    -1780651.56609  -1101681.10809     -1111.719  
  22253110.813    22253116.203   -12427871.94709  -9517683.96709     -2074.719  
  22864540.141    22864545.859    -1543731.21609  -1035886.97109      2931.469  
  20585220.297    20585224.480   -17281829.20602 -13290395.98002       852.172  
 98 11 22 11 34  0.0000000  0  7G26G13G10G17G02G19G27
  22682138.023    22682142.746    -7572236.37509  -5737918.65309     -2760.719  
  20791212.750    20791215.223   -13847919.90309  -8868539.56109      1250.203  
  20940126.063    20940131.090   -12539628.46101  -4613476.36001      1398.547  
  24380346.789    24380354.211    -1786203.84209  -1106007.57409     -1109.219  
  22251137.547    22251142.738   -12438242.38609  -9525764.82909     -2073.469  
  22867329.570    22867334.891    -1529073.08109  -1024465.06109      2931.766  
  20586031.734    20586035.906   -17277564.51502 -13287072.84503       853.703  
 98 11 22 11 34  5.0000000  0  7G26G13G10G17G02G19G27
  22679511.117    22679516.098    -7586040.29309  -5748674.94109     -2760.500  
  20792402.836    20792405.379   -13841665.96509  -8863666.36609      1251.750  
  20941457.758    20941462.703   -12532630.40501  -4608023.33601      1401.047  
  24379291.945    24379298.004    -1791744.26209  -1110324.76209     -1106.563  
  22249165.313    22249170.574   -12448607.07809  -9533841.21209     -2072.047  
  22870119.102    22870124.199    -1514414.15109  -1013042.52209      2932.172  
  20586844.648    20586848.738   -17273292.71902 -13283744.17202       855.391  
 98 11 22 11 34 10.0000000  0  7G26G13G10G17G02G19G27
  22676884.938    22676889.461    -7599840.35009  -5759428.21809     -2759.906  
  20793594.953    20793597.473   -13835401.33009  -8858784.83309      1253.703  
  20942792.422    20942797.320   -12525616.88701  -4602558.26001      1403.953  
  24378240.570    24378246.547    -1797268.51509  -1114629.34809     -1103.531  
  22247194.750    22247199.766   -12458961.71309  -9541909.75409     -2070.203  
  22872909.375    22872914.215    -1499750.24109  -1001616.10609      2932.984  
  20587659.688    20587663.590   -17269009.68803 -13280406.74403       857.422  
 98 11 22 11 34 15.0000000  0  7G26G13G10G17G02G19G27
  22674258.813    22674263.207    -7613640.62909  -5770181.67109     -2760.141  
  20794788.305    20794790.777   -13829129.99009  -8853898.07509      1254.875  
  20944129.164    20944133.980   -12518592.05701  -4597084.37101      1406.031  
  24377191.805    24377199.531    -1802780.63309  -1118924.48209     -1101.297  
  22245225.492    22245230.484   -12469310.23509  -9549973.53409     -2069.141  
  22875700.016    22875705.336    -1485085.56009   -990189.09009      2932.953  
  20588476.016    20588479.930   -17264719.40003 -13277063.66102       858.719  
 98 11 22 11 34 20.0000000  0  7G26G13G10G17G02G19G27
  22671632.688    22671637.188    -7627440.60509  -5780934.88209     -2759.828  
  20795983.133    20795985.629   -13822851.25909  -8849005.56009      1256.609  
  20945468.102    20945473.012   -12511555.32901  -4591601.20701      1408.625  
  24376145.484    24376152.176    -1808279.98509  -1123209.70609     -1098.484  
  22243257.773    22243262.941   -12479651.72709  -9558031.84109     -2067.484  
  22878490.742    22878495.781    -1470419.42809   -978760.93609      2933.484  
  20589293.992    20589297.918   -17260421.20402 -13273714.41602       860.547  
 98 11 22 11 34 25.0000000  0  7G26G13G10G17G02G19G27
  22669007.156    22669011.902    -7641238.02009  -5791686.09609     -2759.109  
  20797179.742    20797182.355   -13816563.11009  -8844105.70209      1258.672  
  20946809.625    20946814.523   -12504504.73101  -4586107.24101      1411.609  
  24375101.320    24375108.543    -1813764.39909  -1127483.29309     -1095.266  
  22241291.352    22241296.625   -12489984.13409  -9566083.06709     -2065.484  
  22881282.008    22881286.813    -1455749.88309   -967330.13309      2934.344  
  20590113.820    20590117.711   -17256113.13502 -13270357.48202       862.688  
 98 11 22 11 34 30.0000000  0  7G26G13G10G17G02G19G27
  22666382.133    22666386.832    -7655033.57309  -5802435.86909     -2758.984  
  20798378.211    20798380.730   -13810266.06309  -8839198.91409      1260.250  
  20948154.055    20948158.953   -12497440.79401  -4580602.87801      1414.094  
  24374060.797    24374067.465    -1819234.44809  -1131745.68709     -1092.641  
  22239326.703    22239332.047   -12500308.18809  -9574127.78009     -2064.031  
  22884074.117    22884079.660    -1441077.69409   -955897.26709      2934.656  
  20590935.414    20590939.363   -17251795.95902 -13266993.44902       864.281  
 98 11 22 11 34 35.0000000  0  7G26G13G10G17G02G19G27
  22663757.078    22663761.637    -7668828.60609  -5813185.23309     -2759.109  
  20799577.688    20799580.324   -13803961.76409  -8834286.47609      1261.406  
  20949500.602    20949505.406   -12490364.83101  -4575089.14601      1416.234  
  24373022.750    24373029.324    -1824691.79709  -1135998.16809     -1090.359  
  22237363.633    22237369.105   -12510625.49909  -9582167.23709     -2062.953  
  22886866.375    22886872.363    -1426404.30509   -944463.45909      2934.641  
  20591758.289    20591762.355   -17247471.25201 -13263623.54802       865.516  
 98 11 22 11 34 40.0000000  0  7G26G13G10G17G02G19G27
  22661131.883    22661136.477    -7682623.14009  -5823934.21109     -2758.766  
  20800778.664    20800781.137   -13797650.68809  -8829368.75609      1262.969  
  20950849.438    20950854.207   -12483276.95501  -4569566.13301      1418.875  
  24371986.109    24371992.426    -1830136.63009  -1140240.89609     -1087.641  
  22235401.391    22235406.898   -12520936.18909  -9590201.53409     -2061.375  
  22889659.070    22889664.742    -1411729.88209   -933028.85109      2935.094  
  20592582.664    20592586.742   -17243139.44001 -13260248.10802       867.156  
 98 11 22 11 34 45.0000000  0  7G26G13G10G17G02G19G27
  22658507.031    22658511.438    -7696416.96409  -5834682.63109     -2758.922  
  20801980.961    20801983.398   -13791332.69309  -8824445.64509      1264.063  
  20952200.688    20952205.434   -12476176.70301  -4564033.47301      1421.063  
  24370952.180    24370959.543    -1835568.60309  -1144473.59609     -1085.328  
  22233440.531    22233445.945   -12531239.90109  -9598230.39409     -2060.281  
  22892451.688    22892457.266    -1397053.95909   -921593.07509      2935.109  
  20593408.516    20593412.688   -17238800.14901 -13256866.84202       868.375  
 98 11 22 11 34 50.0000000  0  7G26G13G10G17G02G19G27
  22655881.813    22655886.230    -7710213.17509  -5845432.90609     -2758.906  
  20803184.039    20803186.488   -13785010.97909  -8819519.63409      1265.313  
  20953553.398    20953558.320   -12469067.08901  -4558493.52001      1423.453  
  24369920.336    24369927.395    -1840990.61309  -1148698.52409     -1082.828  
  22231480.563    22231485.941   -12541539.85009  -9606256.32609     -2059.031  
  22895244.195    22895249.762    -1382379.67609   -910158.57809      2935.313  
  20594235.016    20594239.141   -17234456.43401 -13253482.13001       869.781  
 98 11 22 11 34 55.0000000  0  7G26G13G10G17G02G19G27
  22653256.523    22653261.340    -7724006.88909  -5856181.23409     -2758.547  
  20804388.734    20804391.090   -13778680.63409  -8814586.89909      1266.844  
  20954908.953    20954913.887   -12461943.38101  -4552942.58301      1426.063  
  24368891.789    24368897.695    -1846397.77409  -1152911.90809     -1080.031  
  22229522.195    22229527.762   -12551831.08909  -9614275.47209     -2057.438  
  22898037.344    22898042.699    -1367702.08509   -898721.50409      2935.797  
  20595063.250    20595067.328   -17230103.37201 -13250090.13202       871.469  
 98 11 22 11 35  0.0000000  0  7G26G13G10G17G02G19G27
  22650631.758    22650636.445    -7737799.37009  -5866928.60809     -2758.484  
  20805594.805    20805597.160   -13772342.99909  -8809648.48409      1268.156  
  20956267.008    20956271.941   -12454807.05101  -4547381.80801      1428.422  
  24367865.633    24367871.973    -1851791.38909  -1157114.72109     -1077.484  
  22227565.133    22227570.594   -12562114.91409  -9622288.83809     -2056.156  
  22900831.141    22900836.613    -1353022.32909   -887282.74009      2936.078  
  20595893.289    20595897.332   -17225742.18601 -13246691.80702       872.953  
 98 11 22 11 35  5.0000000  0  7G26G13G10G17G02G19G27
  22648006.953    22648011.805    -7751593.99109  -5877677.65009     -2759.094  
  20806801.234    20806803.578   -13766001.37409  -8804706.95809      1268.797  
  20957626.773    20957631.848   -12447661.40801  -4541813.77901      1430.141  
  24366840.922    24366847.496    -1857174.81309  -1161309.57109     -1075.594  
  22225609.094    22225614.367   -12572395.01009  -9630299.29709     -2055.594  
  22903624.133    22903629.676    -1338343.61709   -875844.79109      2935.703  
  20596724.227    20596728.410   -17221376.16901 -13243289.71202       873.750  
 98 11 22 11 35 10.0000000  0  7G26G13G10G17G02G19G27
  22645381.523    22645386.363    -7765389.16209  -5888427.11609     -2758.578  
  20808009.188    20808011.555   -13759654.25109  -8799761.14909      1270.469  
  20958988.664    20958993.609   -12440504.74101  -4536237.16201      1432.938  
  24365819.000    24365824.918    -1862546.16609  -1165495.06609     -1072.547  
  22223653.734    22223659.055   -12582669.78009  -9638305.60809     -2053.906  
  22906417.594    22906422.738    -1323664.37609   -864406.42809      2936.406  
  20597556.031    20597560.086   -17217003.77701 -13239882.65202       875.609  
 98 11 22 11 35 15.0000000  0  7G26G13G10G17G02G19G27
  22642757.469    22642762.215    -7779180.33109  -5899173.46809     -2758.250  
  20809218.813    20809221.203   -13753296.82509  -8794807.31209      1272.094  
  20960353.383    20960358.316   -12433332.33801  -4530648.28301      1435.609  
  24364799.594    24364804.961    -1867900.58209  -1169667.33909     -1069.625  
  22221700.453    22221705.832   -12592934.26209  -9646303.90209     -2052.266  
  22909211.852    22909217.242    -1308979.69709   -852963.82109      2937.047  
  20598390.063    20598394.035   -17212620.28501 -13236466.94502       877.391  
 98 11 22 11 35 20.0000000  0  7G26G13G10G17G02G19G27
  22640133.281    22640138.051    -7792971.61509  -5909919.91809     -2758.578  
  20810429.898    20810432.313   -13746933.42609  -8789848.82409      1272.969  
  20961720.336    20961725.410   -12426148.56001  -4525050.53701      1437.625  
  24363783.203    24363788.547    -1873242.49109  -1173829.84509     -1067.438  
  22219748.445    22219753.754   -12603192.52009  -9654297.34809     -2051.344  
  22912006.586    22912012.023    -1294293.74409   -841520.23409      2937.031  
  20599225.656    20599229.723   -17208229.96001 -13233045.91201       878.453  
 98 11 22 11 35 25.0000000  0  7G26G13G10G17G02G19G27
  22637508.016    22637512.891    -7806765.08809  -5920668.06009     -2758.719  
  20811641.594    20811644.148   -13740566.22709  -8784887.37209      1274.016  
  20963089.477    20963094.563   -12418955.07301  -4519445.22901      1439.906  
  24362768.523    24362774.547    -1878574.11109  -1177984.33609     -1065.078  
  22217797.359    22217802.621   -12613446.57409  -9662287.51609     -2050.172  
  22914800.992    22914806.441    -1279608.53909   -830077.22309      2937.172  
  20600061.938    20600066.109   -17203835.02201 -13229621.28601       879.625  
 98 11 22 11 35 30.0000000  0  7G26G13G10G17G02G19G27
  22634883.672    22634888.230    -7820558.20909  -5931415.93209     -2758.422  
  20812854.570    20812857.102   -13734192.49809  -8779920.83109      1275.563  
  20964460.766    20964465.816   -12411748.93001  -4513830.05801      1442.656  
  24361756.695    24361764.469    -1883892.79709  -1182128.77409     -1062.219  
  22215847.141    22215852.285   -12623693.44209  -9670272.08709     -2048.469  
  22917596.172    22917601.703    -1264921.43709   -818632.74609      2937.766  
  20600899.602    20600903.809   -17199433.16501 -13226191.27102       881.219  
 98 11 22 11 35 35.0000000  0  7G26G13G10G17G02G19G27
  22632259.289    22632263.941    -7834349.02509  -5942162.00909     -2758.141  
  20814068.875    20814071.477   -13727810.27309  -8774947.66909      1277.063  
  20965835.078    20965840.246   -12404528.10401  -4508203.44701      1445.438  
  24360747.445    24360754.563    -1889196.42809  -1186261.49109     -1059.406  
  22213899.195    22213904.293   -12633930.87809  -9678249.30909     -2046.766  
  22920391.836    22920397.402    -1250230.63109   -807185.37009      2938.297  
  20601738.852    20601743.012   -17195022.54802 -13222754.42501       882.781  
 98 11 22 11 35 40.0000000  0  7G26G13G10G17G02G19G27
  22629635.359    22629640.094    -7848138.08809  -5952906.71809     -2757.625  
  20815284.898    20815287.371   -13721420.42509  -8769968.56909      1278.719  
  20967211.570    20967216.574   -12397293.28201  -4502565.92901      1448.359  
  24359740.992    24359746.887    -1894485.47809  -1190382.81909     -1056.344  
  22211952.773    22211957.930   -12644159.51109  -9686219.66809     -2044.844  
  22923187.867    22923193.012    -1235536.99009   -795735.78809      2938.984  
  20602579.688    20602583.801   -17190603.84201 -13219311.27601       884.531  
 98 11 22 11 35 45.0000000  0  7G26G13G10G17G02G19G27
  22627011.570    22627016.727    -7861924.81209  -5963649.59309     -2757.672  
  20816502.391    20816504.934   -13715022.21709  -8764982.95409      1279.922  
  20968591.234    20968596.355   -12390043.74501  -4496916.94301      1450.828  
  24358736.648    24358741.922    -1899759.08109  -1194492.12809     -1053.719  
  22210008.133    22210013.195   -12654378.63909  -9694182.61609     -2043.438  
  22925984.797    22925990.000    -1220840.12809   -784283.69609      2939.141  
  20603422.148    20603426.262   -17186176.55401 -13215861.44002       885.734  
 98 11 22 11 35 50.0000000  0  7G26G13G10G17G02G19G27
  22624388.258    22624392.863    -7875711.69109  -5974392.59709     -2757.688  
  20817721.047    20817723.590   -13708618.18309  -8759992.80209      1281.078  
  20969972.984    20969978.070   -12382781.89901  -4491258.36501      1453.313  
  24357735.852    24357743.414    -1905019.75609  -1198591.36309     -1051.156  
  22208064.961    22208070.082   -12664590.78209  -9702140.12809     -2042.016  
  22928781.273    22928786.055    -1206142.65809   -772831.12909      2939.266  
  20604266.031    20604270.074   -17181743.35901 -13212407.00202       886.922  
 98 11 22 11 35 55.0000000  0  7G26G13G10G17G02G19G27
  22621764.055    22621768.918    -7889500.82909  -5985137.35909     -2757.578  
  20818940.359    20818942.926   -13702210.59709  -8754999.88109      1282.359  
  20971356.734    20971361.773   -12375510.05001  -4485591.99501      1455.859  
  24356737.813    24356744.801    -1910269.86909  -1202682.36709     -1048.469  
  22206122.313    22206127.574   -12674798.01709  -9710093.81609     -2040.453  
  22931577.914    22931582.754    -1191446.60309   -761379.66109      2939.563  
  20605110.234    20605114.254   -17177306.32101 -13208949.56701       888.297  
 98 11 22 11 36  0.0000000  0  7G26G13G10G17G02G19G27
  22619140.383    22619145.422    -7903288.31309  -5995880.84909     -2757.250  
  20820161.156    20820163.699   -13695795.35509  -8750000.99109      1283.875  
  20972743.375    20972748.508   -12368224.20301  -4479914.71501      1458.641  
  24355740.625    24355746.906    -1915505.19909  -1206761.86409     -1045.516  
  22204181.719    22204186.945   -12684996.18009  -9718040.43309     -2038.625  
  22934375.039    22934379.797    -1176747.74009   -749926.01009      2940.125  
  20605956.156    20605960.105   -17172861.26001 -13205485.88401       889.891  
 98 11 22 11 36  5.0000000  0  7G26G13G10G17G02G19G27
  22616517.055    22616521.590    -7917074.19709  -6006623.08309     -2756.813  
  20821383.234    20821385.742   -13689372.72409  -8744996.34309      1285.469  
  20974132.625    20974137.781   -12360924.44901  -4474226.60201      1461.563  
  24354747.938    24354752.824    -1920725.80509  -1210829.85809     -1042.453  
  22202242.828    22202248.008   -12695185.12409  -9725979.86309     -2036.656  
  22937172.594    22937177.375    -1162046.27009   -738470.32709      2940.734  
  20606803.484    20606807.457   -17168408.20801 -13202015.97301       891.609  
 98 11 22 11 36 10.0000000  0  7G26G13G10G17G02G19G27
  22613893.758    22613898.633    -7930859.34509  -6017364.74109     -2756.938  
  20822606.758    20822609.230   -13682943.61009  -8739986.64509      1286.469  
  20975524.109    20975529.289   -12353611.63201  -4468528.30701      1463.859  
  24353757.555    24353762.734    -1925932.61709  -1214887.09509     -1039.984  
  22200305.609    22200310.730   -12705365.69309  -9733912.77309     -2035.266  
  22939970.508    22939975.359    -1147343.22209   -727013.41609      2940.781  
  20607652.273    20607656.316   -17163947.99801 -13198540.48502       892.766  
 98 11 22 11 36 15.0000000  0  7G26G13G10G17G02G19G27
  22611270.508    22611275.230    -7944645.32409  -6028107.05909     -2757.672  
  20823831.141    20823833.590   -13676509.86809  -8734973.34208      1286.797  
  20976917.703    20976922.660   -12346287.67101  -4462821.32801      1465.484  
  24352768.172    24352774.383    -1931127.47809  -1218935.03209     -1038.188  
  22198369.563    22198374.695   -12715539.57909  -9741840.47109     -2034.516  
  22942768.148    22942773.539    -1132640.43009   -715556.70509      2940.094  
  20608501.977    20608505.973   -17159482.48601 -13195060.86501       893.219  
 98 11 22 11 36 20.0000000  0  7G26G13G10G17G02G19G27
  22608647.016    22608651.551    -7958432.84109  -6038850.57009     -2757.469  
  20825056.008    20825058.398   -13670072.41609  -8729957.14808      1288.016  
  20978313.398    20978318.262   -12338953.67801  -4457106.53001      1467.953  
  24351780.922    24351789.211    -1936311.34009  -1222974.37909     -1035.469  
  22196434.563    22196439.484   -12725707.63609  -9749763.62809     -2032.859  
  22945565.797    22945571.340    -1117939.06909   -704101.10709      2940.297  
  20609352.656    20609356.770   -17155012.57801 -13191577.82102       894.594  
 98 11 22 11 36 25.0000000  0  7G26G13G10G17G02G19G27
  22606023.586    22606028.273    -7972218.82809  -6049592.88609     -2756.922  
  20826282.117    20826284.438   -13663628.36809  -8724935.81308      1289.594  
  20979711.313    20979716.188   -12331607.02601  -4451381.87001      1470.734  
  24350797.109    24350805.293    -1941481.38709  -1227003.00709     -1032.484  
  22194501.320    22194506.523   -12735866.98309  -9757679.99909     -2030.859  
  22948363.500    22948368.867    -1103236.26009   -692644.38709      2940.828  
  20610204.516    20610208.746   -17150535.41601 -13188089.12401       896.297  
 98 11 22 11 36 30.0000000  0  7G26G13G10G17G02G19G27
  22603400.344    22603405.113    -7986003.75809  -6060334.38309     -2756.688  
  20827509.703    20827512.059   -13657178.19409  -8719909.70508      1290.828  
  20981111.633    20981116.578   -12324248.25601  -4445647.76901      1473.141  
  24349816.438    24349824.879    -1946638.06109  -1231021.19409     -1029.797  
  22192569.836    22192575.109   -12746017.96909  -9765589.85309     -2029.172  
  22951161.555    22951166.887    -1088532.53309   -681186.94809      2941.031  
  20611057.703    20611061.781   -17146051.58201 -13184595.22801       897.609  
 98 11 22 11 36 35.0000000  0  7G26G13G10G17G02G19G27
  22600777.328    22600782.355    -7999787.87709  -6071075.24109     -2756.688  
  20828738.219    20828740.574   -13650722.39509  -8714879.21408      1291.734  
  20982514.344    20982519.324   -12316877.94801  -4439904.67601      1475.234  
  24348838.031    24348846.168    -1951781.85909  -1235029.32509     -1027.453  
  22190639.398    22190644.789   -12756161.01909  -9773493.52709     -2027.797  
  22953959.703    22953965.129    -1073828.28109   -669729.10309      2940.938  
  20611912.250    20611916.340   -17141561.60201 -13181096.54002       898.625  
 98 11 22 11 36 40.0000000  0  7G26G13G10G17G02G19G27
  22598154.141    22598158.277    -8013570.55209  -6081814.97309     -2756.250  
  20829967.836    20829970.250   -13644260.34109  -8709843.84508      1293.188  
  20983919.211    20983924.168   -12309495.44101  -4434152.07801      1477.859  
  24347860.922    24347865.258    -1956912.26309  -1239027.03609     -1024.578  
  22188710.898    22188716.336   -12766295.81909  -9781390.76809     -2026.031  
  22956758.211    22956763.988    -1059122.89209   -658270.36409      2941.313  
  20612767.703    20612771.676   -17137064.78601 -13177592.52902       900.203  
 98 11 22 11 36 45.0000000  0  7G26G13G10G17G02G19G27
  22595532.070    22595536.512    -8027350.29909  -6092552.42809     -2756.031  
  20831199.039    20831201.535   -13637790.44109  -8704802.36708      1294.391  
  20985326.609    20985331.426   -12302099.12901  -4428388.72401      1480.281  
  24346888.195    24346895.617    -1962027.61209  -1243013.05409     -1021.953  
  22186784.023    22186789.309   -12776421.16909  -9789280.64509     -2024.500  
  22959557.438    22959563.273    -1044414.93509   -646809.62209      2941.469  
  20613625.109    20613629.047   -17132559.46701 -13174081.88902       901.531  
 98 11 22 11 36 50.0000000  0  7G26G13G10G17G02G19G27
  22592909.664    22592913.730    -8041132.46309  -6103291.76809     -2756.469  
  20832430.680    20832433.117   -13631318.02909  -8699758.93208      1294.922  
  20986735.602    20986740.289   -12294694.27902  -4422618.71801      1482.047  
  24345916.516    24345921.063    -1967133.42709  -1246991.59509     -1020.000  
  22184857.828    22184863.172   -12786542.41309  -9797167.32209     -2023.625  
  22962355.297    22962361.086    -1029709.88709   -635351.15909      2940.922  
  20614483.141    20614487.207   -17128051.12901 -13170568.89902       902.172  
 98 11 22 11 36 55.0000000  0  7G26G13G10G17G02G19G27
  22590286.602    22590290.621    -8054914.15609  -6114030.74409     -2755.969  
  20833663.367    20833665.875   -13624840.47509  -8694711.49208      1296.328  
  20988146.875    20988151.563   -12287278.10702  -4416839.88701      1484.688  
  24344946.984    24344952.105    -1972226.95509  -1250960.59409     -1017.156  
  22182933.414    22182938.629   -12796656.65909  -9805048.55109     -2021.828  
  22965153.734    22965159.477    -1015004.95709   -623892.77309      2941.313  
  20615342.102    20615346.238   -17123537.03701 -13167051.42601       903.719  
 98 11 22 11 37  0.0000000  0  7G26G13G10G17G02G19G27
  22587664.375    22587668.137    -8068694.22109  -6124768.44609     -2756.063  
  20834897.188    20834899.648   -13618356.58709  -8689659.11308      1297.234  
  20989560.563    20989565.262   -12279849.36802  -4411051.26401      1486.828  
  24343980.555    24343986.941    -1977306.97609  -1254919.04909     -1014.844  
  22181010.375    22181015.789   -12806762.63909  -9812923.33509     -2020.547  
  22967952.219    22967957.410    -1000298.81809   -612433.45809      2941.156  
  20616202.391    20616206.398   -17119015.88501 -13163528.45102       904.766  
 98 11 22 11 37  5.0000000  0  7G26G13G10G17G02G19G27
  22585042.281    22585046.031    -8082474.48209  -6135506.30609     -2755.688  
  20836131.992    20836134.406   -13611867.91709  -8684603.00508      1298.609  
  20990976.352    20990981.145   -12272409.64701  -4405254.08201      1489.438  
  24343015.570    24343022.875    -1982375.24509  -1258868.32709     -1012.047  
  22179088.586    22179093.777   -12816861.95009  -9820792.92609     -2018.813  
  22970750.680    22970755.941     -985593.24109   -600974.57809      2941.406  
  20617063.773    20617067.746   -17114489.01801 -13160001.02201       906.328  
 98 11 22 11 37 10.0000000  0  7G26G13G10G17G02G19G27
  22582420.086    22582424.445    -8096254.79209  -6146244.19609     -2756.250  
  20837367.711    20837370.043   -13605374.23709  -8679542.99608      1299.063  
  20992394.297    20992399.102   -12264958.93402  -4399448.33801      1491.063  
  24342054.000    24342059.742    -1987431.54709  -1262808.32809     -1010.266  
  22177167.805    22177173.148   -12826954.54709  -9828657.28309     -2018.016  
  22973549.031    22973553.918     -970888.28609   -589516.18609      2940.750  
  20617926.398    20617930.371   -17109956.44601 -13156469.14801       906.906  
 98 11 22 11 37 15.0000000  0  7G26G13G10G17G02G19G27
  22579797.414    22579801.984    -8110035.72509  -6156982.57809     -2755.984  
  20838604.289    20838606.598   -13598876.21309  -8674479.60408      1300.281  
  20993813.859    20993818.605   -12257497.85501  -4393634.51601      1493.516  
  24341093.672    24341101.152    -1992476.83109  -1266739.74609     -1007.734  
  22175248.516    22175253.695   -12837041.01809  -9836516.86909     -2016.438  
  22976346.789    22976351.887     -956184.70809   -578058.85509      2940.813  
  20618789.789    20618793.809   -17105418.98901 -13152933.46802       908.219  
 98 11 22 11 37 20.0000000  0  7G26G13G10G17G02G19G27
  22577175.250    22577180.254    -8123815.97509  -6167720.41309     -2755.578  
  20839841.805    20839844.219   -13592372.68909  -8669411.92508      1301.672  
  20995235.984    20995240.777   -12250025.12101  -4387811.61101      1496.125  
  24340135.758    24340143.109    -1997509.86709  -1270661.61709     -1004.953  
  22173330.625    22173335.652   -12847120.21209  -9844370.78209     -2014.703  
  22979144.680    22979149.895     -941481.47809   -566601.80309      2940.984  
  20619654.734    20619658.836   -17100875.63501 -13149393.19001       909.641  
 98 11 22 11 37 25.0000000  0  7G26G13G10G17G02G19G27
  22574553.477    22574558.387    -8137592.75109  -6178455.55209     -2754.922  
  20841081.008    20841083.305   -13585860.77609  -8664337.70708      1303.266  
  20996660.711    20996665.480   -12242537.87002  -4381977.39401      1498.953  
  24339181.664    24339187.898    -2002527.63909  -1274571.53709     -1001.953  
  22171414.578    22171419.523   -12857189.17709  -9852216.72509     -2012.703  
  22981943.086    22981947.914     -926775.98709   -555142.98709      2941.359  
  20620520.703    20620524.863   -17096323.72101 -13145846.24401       911.281  
 98 11 22 11 37 30.0000000  0  7G26G13G10G17G02G19G27
  22571932.586    22571937.402    -8151367.56809  -6189189.17809     -2754.828  
  20842321.477    20842323.938   -13579342.16209  -8659258.26808      1304.328  
  20998088.016    20998092.914   -12235037.73701  -4376133.13501      1501.234  
  24338229.125    24338236.699    -2007531.81209  -1278470.87909      -999.563  
  22169500.047    22169504.934   -12867249.30109  -9860055.77909     -2011.219  
  22984741.250    22984746.348     -912070.00609   -543683.78909      2941.141  
  20621388.328    20621392.441   -17091764.94201 -13142293.95001       912.359  
 98 11 22 11 37 35.0000000  0  7G26G13G10G17G02G19G27
  22569311.148    22569316.445    -8165141.35809  -6199921.99009     -2754.609  
  20843563.109    20843565.547   -13572817.91609  -8654174.44008      1305.438  
  20999517.523    20999522.387   -12227526.02101  -4370279.85501      1503.547  
  24337279.375    24337287.512    -2012523.79709  -1282360.70409      -997.172  
  22167587.273    22167592.348   -12877301.65809  -9867888.78109     -2009.672  
  22987539.820    22987545.340     -897364.82209   -532225.21009      2940.984  
  20622256.859    20622260.867   -17087200.47401 -13138737.22001       913.516  
 98 11 22 11 37 40.0000000  0  7G26G13G10G17G02G19G27
  22566690.195    22566694.988    -8178915.11109  -6210654.77609     -2754.891  
  20844805.250    20844807.641   -13566289.11109  -8649087.06207      1306.063  
  21000948.820    21000953.754   -12220003.56901  -4364418.20901      1505.438  
  24336330.906    24336337.176    -2017504.82309  -1286242.02609      -995.219  
  22165675.586    22165680.578   -12887347.31009  -9875716.55909     -2008.609  
  22990337.797    22990343.691     -882661.33809   -520767.95609      2940.406  
  20623126.352    20623130.359   -17082631.03601 -13135176.61802       914.250  
 98 11 22 11 37 45.0000000  0  7G26G13G10G17G02G19G27
  22564069.070    22564073.699    -8192689.31209  -6221387.90909     -2754.484  
  20846048.430    20846050.785   -13559756.42809  -8643996.66408      1307.297  
  21002382.406    21002387.164   -12212470.84001  -4358548.55401      1507.953  
  24335384.875    24335391.461    -2022475.25109  -1290115.10909      -992.641  
  22163765.188    22163770.250   -12897386.84209  -9883539.56809     -2006.906  
  22993135.570    22993141.184     -867960.06909   -509312.43109      2940.422  
  20623996.688    20624000.684   -17078057.19601 -13131612.58901       915.609  
 98 11 22 11 37 50.0000000  0  7G26G13G10G17G02G19G27
  22561448.070    22561452.758    -8206460.72809  -6232118.86809     -2754.188  
  20847293.008    20847295.445   -13553216.94309  -8638900.96308      1308.359  
  21003818.086    21003822.914   -12204925.14401  -4352668.79901      1510.188  
  24334442.148    24334447.000    -2027431.79609  -1293977.33709      -990.156  
  22161856.297    22161861.406   -12907417.31609  -9891355.51909     -2005.406  
  22995933.320    22995939.145     -853257.93709   -497856.24509      2940.297  
  20624868.563    20624872.535   -17073475.73901 -13128042.62201       916.844  
 98 11 22 11 37 55.0000000  0  7G26G13G10G17G02G19G27
  22558827.836    22558832.570    -8220230.53609  -6242848.57709     -2753.859  
  20848538.383    20848540.926   -13546672.07409  -8633801.06308      1309.453  
  21005256.195    21005261.035   -12197368.11001  -4346780.20701      1512.484  
  24333501.523    24333507.535    -2032375.75809  -1297829.76109      -987.594  
  22159949.063    22159954.617   -12917440.24509  -9899165.58809     -2003.891  
  22998730.797    22998736.492     -838556.06409   -486400.25309      2940.313  
  20625741.750    20625745.723   -17068887.86001 -13124467.65501       918.172  
 98 11 22 11 38  0.0000000  0  7G26G13G10G17G02G19G27
  22556208.047    22556212.523    -8233997.54809  -6253576.10209     -2752.875  
  20849785.070    20849787.648   -13540120.46009  -8628695.91008      1311.266  
  21006696.609    21006701.484   -12189798.59701  -4340881.89101      1515.406  
  24332563.656    24332570.313    -2037305.95709  -1301671.46209      -984.422  
  22158043.148    22158048.820   -12927454.28709  -9906968.73509     -2001.656  
  23001528.703    23001534.270     -823852.97409   -474943.31109      2941.016  
  20626615.977    20626619.855   -17064292.21001 -13120886.62602       920.156  
 98 11 22 11 38  5.0000000  0  7G26G13G10G17G02G19G27
  22553589.117    22553593.758    -8247762.97309  -6264302.40609     -2753.188  
  20851032.836    20851035.426   -13533563.13909  -8623586.31208      1311.734  
  21008139.188    21008143.992   -12182217.94801  -4334974.89501      1516.922  
  24331627.320    24331635.902    -2042223.68709  -1305503.48009      -982.609  
  22156139.305    22156144.766   -12937460.46009  -9914765.75009     -2000.734  
  23004326.477    23004332.348     -809149.64109   -463486.17909      2940.391  
  20627491.938    20627495.746   -17059689.92002 -13117300.42302       920.844  
 98 11 22 11 38 10.0000000  0  7G26G13G10G17G02G19G27
  22550969.398    22550974.250    -8261529.13609  -6275029.27609     -2752.984  
  20852281.289    20852283.797   -13527002.51909  -8618474.14009      1312.813  
  21009583.063    21009587.949   -12174628.75101  -4329061.24001      1519.047  
  24330692.867    24330700.184    -2047131.53309  -1309327.77509      -980.219  
  22154236.172    22154241.703   -12947461.16809  -9922558.50309     -1999.250  
  23007124.180    23007129.453     -794448.44909   -452030.70309      2940.375  
  20628368.633    20628372.406   -17055083.15702 -13113710.73702       922.156  
 98 11 22 11 38 15.0000000  0  7G26G13G10G17G02G19G27
  22548350.297    22548355.324    -8275291.89409  -6285753.49509     -2752.391  
  20853531.180    20853533.711   -13520434.25909  -8613356.01708      1314.250  
  21011029.781    21011034.715   -12167026.77001  -4323137.62501      1521.516  
  24329761.492    24329768.727    -2052025.09109  -1313140.96709      -977.422  
  22152334.703    22152340.293   -12957452.24609  -9930343.75009     -1997.438  
  23009922.164    23009927.402     -779745.23909   -440573.66609      2940.672  
  20629246.805    20629250.637   -17050467.60702 -13110114.20502       923.813  
 98 11 22 11 38 20.0000000  0  7G26G13G10G17G02G19G27
  22545731.625    22545736.617    -8289052.57309  -6296476.09809     -2751.625  
  20854782.383    20854784.879   -13513859.64909  -8608232.94608      1315.813  
  21012478.859    21012483.863   -12159413.32101  -4317205.07101      1524.094  
  24328833.109    24328839.285    -2056905.56509  -1316943.91909      -974.516  
  22150435.102    22150440.645   -12967435.28009  -9938122.73409     -1995.531  
  23012720.422    23012725.719     -765041.47009   -429116.19709      2941.078  
  20630126.492    20630130.453   -17045844.78401 -13106512.00302       925.547  
 98 11 22 11 38 25.0000000  0  7G26G13G10G17G02G19G27
  22543114.055    22543118.707    -8302809.23909  -6307195.56409     -2750.766  
  20856035.039    20856037.535   -13507276.92909  -8603103.55408      1317.516  
  21013929.914    21013934.977   -12151786.69901  -4311262.25201      1526.813  
  24327907.438    24327914.414    -2061771.16209  -1320735.27109      -971.453  
  22148537.422    22148543.012   -12977408.58709  -9945894.13709     -1993.547  
  23015518.531    23015523.934     -750335.43309   -417656.97009      2941.578  
  20631007.891    20631011.793   -17041213.04301 -13102902.85301       927.391  
 98 11 22 11 38 30.0000000  0  7G26G13G10G17G02G19G27
  22540496.648    22540501.652    -8316562.49509  -6317912.37109     -2750.656  
  20857289.102    20857291.539   -13500686.72209  -8597968.32708      1318.438  
  21015383.734    21015388.996   -12144147.74601  -4305309.83001      1528.672  
  24326983.523    24326989.500    -2066622.49309  -1324515.48609      -969.188  
  22146641.383    22146647.160   -12987373.11109  -9953658.69909     -1992.359  
  23018317.406    23018322.785     -735627.93709   -406196.59309      2941.313  
  20631890.883    20631894.996   -17036573.31101 -13099287.47601       928.391  
 98 11 22 11 38 35.0000000  0  7G26G13G10G17G02G19G27
  22537879.977    22537884.629    -8330314.44909  -6328628.16409     -2750.094  
  20858544.234    20858546.648   -13494090.92109  -8592828.74408      1319.906  
  21016839.352    21016844.508   -12136498.48801  -4299349.37401      1531.063  
  24326064.281    24326070.363    -2071461.61809  -1328286.23809      -966.422  
  22144746.305    22144751.848   -12997330.78009  -9961417.91609     -1990.688  
  23021116.125    23021121.516     -720920.98409   -394736.63609      2941.516  
  20632774.570    20632778.848   -17031927.66701 -13095667.49501       929.891  
 98 11 22 11 38 40.0000000  0  7G26G13G10G17G02G19G27
  22535263.086    22535267.984    -8344063.67609  -6339341.83609     -2749.625  
  20859800.625    20859802.969   -13487487.84009  -8587683.48808      1321.313  
  21018297.180    21018302.336   -12128837.32201  -4293379.63901      1533.391  
  24325144.398    24325149.496    -2076286.85509  -1332046.17109      -963.688  
  22142853.047    22142858.273   -13007280.15609  -9969170.67309     -1989.078  
  23023915.156    23023920.535     -706212.99709   -383275.87109      2941.703  
  20633660.422    20633664.676   -17027274.57601 -13092041.71101       931.328  
 98 11 22 11 38 45.0000000  0  7G26G13G10G17G02G19G27
  22532647.555    22532652.523    -8357810.00109  -6350053.24709     -2749.063  
  20861058.688    20861061.160   -13480877.27109  -8582532.39608      1322.797  
  21019757.438    21019762.594   -12121164.01901  -4287400.44901      1535.813  
  24324229.391    24324235.754    -2081097.93909  -1335795.08609      -960.859  
  22140961.422    22140966.520   -13017221.00801  -9976916.78909     -1987.391  
  23026714.133    23026719.242     -691503.69109   -371814.08309      2941.922  
  20634547.219    20634551.625   -17022613.79001 -13088409.93101       932.859  
 98 11 22 11 38 50.0000000  0  7G26G13G10G17G02G19G27
  22530031.805    22530036.738    -8371554.59509  -6360763.31609     -2748.594  
  20862317.797    20862320.305   -13474260.27909  -8577376.29808      1324.203  
  21021219.461    21021224.559   -12113479.49301  -4281412.51201      1538.172  
  24323316.094    24323320.887    -2085895.77609  -1339533.65509      -958.094  
  22139071.250    22139076.207   -13027154.49501  -9984657.16509     -1985.813  
  23029513.250    23029518.746     -676793.99909   -360352.00309      2942.141  
  20635435.344    20635439.551   -17017946.33001 -13084772.94901       934.297  
 98 11 22 11 38 55.0000000  0  7G26G13G10G17G02G19G27
  22527417.234    22527422.133    -8385296.38509  -6371471.20009     -2747.938  
  20863578.391    20863580.828   -13467635.59309  -8572214.20708      1325.828  
  21022684.305    21022689.332   -12105782.65501  -4275414.97901      1540.719  
  24322405.477    24322412.215    -2090679.22809  -1343261.02209      -955.141  
  22137182.547    22137187.504   -13037079.48609  -9992390.92209     -1984.016  
  23032312.656    23032317.883     -662082.70209   -348888.65509      2942.547  
  20636324.984    20636329.086   -17013270.94801 -13081129.79401       936.000  
 98 11 22 11 39  0.0000000  0  7G26G13G10G17G02G19G27
  22524802.711    22524807.305    -8399035.68609  -6382177.14109     -2747.828  
  20864840.555    20864842.934   -13461003.61309  -8567046.43209      1326.922  
  21024151.234    21024156.215   -12098073.95001  -4269408.19801      1542.734  
  24321498.266    24321505.051    -2095448.73909  -1346977.49009      -952.719  
  22135295.469    22135300.602   -13046996.24009 -10000118.25709     -1982.703  
  23035112.477    23035118.488     -647370.21309   -337424.38009      2942.406  
  20637216.297    20637220.305   -17008588.03601 -13077480.76902       937.109  
 98 11 22 11 39  5.0000000  0  7G26G13G10G17G02G19G27
  22522188.141    22522192.758    -8412774.13309  -6392882.41309     -2747.375  
  20866103.586    20866105.977   -13454366.02509  -8561874.28609      1328.297  
  21025620.250    21025625.395   -12090355.04501  -4263393.46901      1545.000  
  24320593.555    24320599.730    -2100205.88509  -1350684.36209      -949.969  
  22133409.719    22133415.051   -13056906.01209 -10007840.15509     -1981.016  
  23037911.852    23037917.254     -632658.10209   -325960.40809      2942.609  
  20638108.422    20638112.465   -17003899.39901 -13073827.28701       938.516  
 98 11 22 11 39 10.0000000  0  7G26G13G10G17G02G19G27
  22519574.313    22519578.707    -8426510.01909  -6403585.69009     -2746.922  
  20867368.008    20867370.539   -13447721.18409  -8556696.48809      1329.719  
  21027091.328    21027096.402   -12082624.43601  -4257369.62401      1547.313  
  24319690.648    24319697.555    -2104949.11909  -1354380.39909      -947.203  
  22131525.648    22131530.875   -13066806.91809 -10015555.14509     -1979.266  
  23040711.930    23040717.906     -617944.30509   -314495.12009      2942.953  
  20639002.211    20639006.219   -16999203.26001 -13070167.95601       940.031  
 98 11 22 11 39 15.0000000  0  7G26G13G10G17G02G19G27
  22516960.469    22516965.063    -8440245.32009  -6414288.51209     -2747.266  
  20868633.641    20868636.348   -13441070.96709  -8551514.49808      1330.344  
  21028564.234    21028569.156   -12074884.14901  -4251338.23301      1548.781  
  24318790.492    24318797.633    -2109680.20709  -1358067.00709      -945.234  
  22129642.781    22129648.066   -13076700.86309 -10023264.71209     -1978.328  
  23043512.070    23043517.930     -603230.62409   -303029.92109      2942.516  
  20639896.789    20639900.832   -16994501.24401 -13066504.04701       940.766  
 98 11 22 11 39 20.0000000  0  7G26G13G10G17G02G19G27
  22514347.172    22514351.836    -8453979.31609  -6424990.31309     -2746.281  
  20869900.297    20869902.992   -13434414.32209  -8546327.50209      1332.391  
  21030039.266    21030044.176   -12067133.41301  -4245298.70501      1551.563  
  24317892.352    24317898.715    -2114398.21009  -1361743.35009      -941.891  
  22127761.508    22127766.734   -13086587.00609 -10030968.19709     -1976.047  
  23046312.039    23046318.051     -588516.03009   -291564.02009      2943.391  
  20640793.047    20640797.148   -16989792.27801 -13062834.72301       942.875  
 98 11 22 11 39 25.0000000  0  7G26G13G10G17G02G19G27
  22511734.523    22511739.246    -8467709.58509  -6435689.22009     -2746.328  
  20871168.867    20871171.539   -13427748.47509  -8541133.33708      1333.406  
  21031516.578    21031521.488   -12059369.81701  -4239249.15501      1553.328  
  24316998.547    24317007.293    -2119100.56809  -1365407.50609      -939.594  
  22125882.242    22125887.527   -13096462.85509 -10038663.65909     -1974.828  
  23049112.617    23049118.137     -573798.14809   -280095.56109      2943.250  
  20641690.773    20641694.828   -16985073.92901 -13059158.08701       943.922  
 98 11 22 11 39 30.0000000  0  7G26G13G10G17G02G19G27
  22509121.578    22509126.195    -8481438.75409  -6446387.25909     -2745.516  
  20872438.359    20872441.008   -13421076.17309  -8535934.14108      1335.328  
  21032995.750    21033000.590   -12051596.19701  -4233191.79201      1555.922  
  24316105.148    24316112.465    -2123790.05309  -1369061.66109      -936.391  
  22124004.164    22124009.566   -13106331.17809 -10046353.25609     -1972.688  
  23051913.633    23051918.977     -559079.66309   -268626.62009      2943.984  
  20642589.734    20642593.965   -16980349.11701 -13055476.41501       945.813  
 98 11 22 11 39 35.0000000  0  7G26G13G10G17G02G19G27
  22506509.898    22506514.656    -8495165.27009  -6457083.23709     -2745.313  
  20873709.578    20873712.145   -13414395.71709  -8530728.59007      1336.641  
  21034477.352    21034482.168   -12043811.08001  -4227125.47201      1557.875  
  24315215.859    24315221.367    -2128465.03009  -1372704.51409      -933.797  
  22122128.172    22122133.469   -13116190.23209 -10054035.63209     -1971.156  
  23054714.891    23054720.211     -544358.82209   -257155.84209      2944.141  
  20643490.703    20643494.688   -16975616.23501 -13051788.45501       947.109  
 98 11 22 11 39 40.0000000  0  7G26G13G10G17G02G19G27
  22503898.102    22503902.824    -8508889.57809  -6467777.49409     -2744.469  
  20874982.438    20874985.121   -13407707.36509  -8525516.88907      1338.656  
  21035960.820    21035965.695   -12036014.92601  -4221050.55001      1560.547  
  24314328.781    24314333.445    -2133125.70609  -1376336.22809      -930.516  
  22120253.875    22120259.230   -13126040.35309 -10061711.04209     -1968.938  
  23057516.406    23057521.633     -529636.02609   -245683.54509      2944.922  
  20644392.789    20644396.914   -16970875.53501 -13048094.40201       949.141  
 98 11 22 11 39 45.0000000  0  7G26G13G10G17G02G19G27
  22501287.039    22501291.762    -8522612.02309  -6478470.29309     -2744.266  
  20876256.547    20876259.254   -13401011.43809  -8520299.28308      1339.969  
  21037446.383    21037451.258   -12028208.07001  -4214967.29001      1562.453  
  24313445.164    24313453.582    -2137772.42309  -1379957.01909      -927.969  
  22118380.906    22118386.121   -13135881.82109 -10069379.71609     -1967.422  
  23060318.375    23060323.789     -514911.59709   -234209.97409      2945.063  
  20645296.297    20645300.387   -16966127.20601 -13044394.40701       950.469  
 98 11 22 11 39 50.0000000  0  7G26G13G10G17G02G19G27
  22498675.727    22498680.180    -8536331.27809  -6489160.61409     -2743.531  
  20877532.461    20877535.145   -13394306.45409  -8515074.62408      1341.922  
  21038934.180    21038939.090   -12020389.29801  -4208874.74401      1564.922  
  24312563.367    24312571.105    -2142404.04809  -1383566.09409      -924.828  
  22116509.914    22116515.293   -13145713.44009 -10077040.71609     -1965.344  
  23063120.836    23063126.496     -500184.03909   -222733.97409      2945.828  
  20646201.570    20646205.508   -16961369.63001 -13040687.20701       952.469  
 98 11 22 11 39 55.0000000  0  7G26G13G10G17G02G19G27
  22496065.648    22496070.254    -8550047.92409  -6499848.90409     -2743.156  
  20878809.992    20878812.664   -13387592.79609  -8509843.20308      1343.500  
  21040424.180    21040429.254   -12012559.04801  -4202773.25701      1567.125  
  24311685.164    24311693.125    -2147021.00109  -1387163.71409      -922.000  
  22114640.789    22114646.063   -13155535.78109 -10084694.48209     -1963.641  
  23065924.109    23065929.875     -485453.73809   -211255.82009      2946.250  
  20647108.594    20647112.449   -16956603.04101 -13036972.98201       954.141  
 98 11 22 11 40  0.0000000  0  7G26G13G10G17G02G19G27
  22493455.477    22493460.105    -8563764.33209  -6510537.00609     -2743.594  
  20880088.828    20880091.488   -13380872.66509  -8504606.73608      1344.344  
  21041916.102    21041921.059   -12004719.43701  -4196664.47301      1568.516  
  24310808.336    24310815.219    -2151625.28109  -1390751.44509      -919.906  
  22112773.078    22112778.480   -13165351.27309 -10092342.91309     -1962.766  
  23068727.477    23068733.734     -470723.13409   -199777.43709      2945.797  
  20648016.820    20648020.605   -16951829.68401 -13033253.48201       955.000  
 98 11 22 11 40  5.0000000  0  7G26G13G10G17G02G19G27
  22490845.430    22490849.859    -8577481.86409  -6521225.97909     -2743.438  
  20881368.617    20881371.301   -13374147.12409  -8499366.05708      1345.875  
  21043409.625    21043414.629   -11996871.84201  -4190549.46901      1570.484  
  24309933.867    24309942.109    -2156218.05509  -1394330.23809      -917.234  
  22110906.289    22110911.680   -13175161.34409 -10099987.11909     -1961.297  
  23071530.078    23071535.715     -455993.42709   -188299.75009      2946.031  
  20648926.219    20648929.934   -16947051.04302 -13029529.86501       956.469  
 98 11 22 11 40 10.0000000  0  7G26G13G10G17G02G19G27
  22488235.016    22488239.586    -8591198.51909  -6531914.27209     -2743.234  
  20882649.969    20882652.559   -13367414.07709  -8494119.52608      1347.391  
  21044904.719    21044909.828   -11989014.30601  -4184426.71701      1572.547  
  24309062.648    24309071.242    -2160797.65209  -1397898.71909      -914.609  
  22109040.875    22109046.348   -13184964.17709 -10107625.68709     -1959.797  
  23074333.531    23074339.250     -441262.96809   -176821.47409      2946.172  
  20649836.977    20649840.855   -16942264.95602 -13025800.44801       957.984  
 98 11 22 11 40 15.0000000  0  7G26G13G10G17G02G19G27
  22485625.148    22485629.496    -8604914.57809  -6542602.10309     -2743.313  
  20883932.711    20883935.313   -13360673.41609  -8488867.06608      1348.750  
  21046401.977    21046407.098   -11981146.66401  -4178296.09501      1574.406  
  24308194.367    24308200.953    -2165364.36809  -1401457.19709      -912.219  
  22107176.813    22107182.039   -13194759.74509 -10115258.59409     -1958.531  
  23077136.703    23077142.258     -426531.93409   -165342.76209      2946.094  
  20650749.117    20650752.996   -16937471.48902 -13022065.27901       959.297  
 98 11 22 11 40 20.0000000  0  7G26G13G10G17G02G19G27
  22483014.773    22483019.344    -8618630.45309  -6553289.79009     -2743.203  
  20885216.852    20885219.547   -13353925.48009  -8483608.93308      1350.297  
  21047900.906    21047906.156   -11973269.26801  -4172157.87001      1576.406  
  24307327.320    24307332.102    -2169918.45009  -1405005.82809      -909.594  
  22105313.781    22105319.184   -13204548.60609 -10122886.27709     -1957.188  
  23079939.734    23079945.395     -411800.90909   -153864.06009      2946.109  
  20651662.859    20651666.727   -16932670.92301 -13018324.57701       960.781  
 98 11 22 11 40 25.0000000  0  7G26G13G10G17G02G19G27
  22480404.797    22480408.980    -8632345.65509  -6563976.94309     -2742.813  
  20886502.336    20886504.984   -13347169.73409  -8478344.71508      1352.063  
  21049401.977    21049407.262   -11965381.26601  -4166011.37701      1578.844  
  24306462.828    24306469.770    -2174459.32409  -1408544.15509      -906.672  
  22103452.750    22103458.105   -13214330.39709 -10130508.45109     -1955.500  
  23082743.281    23082749.188     -397069.60709   -142385.14409      2946.453  
  20652577.625    20652581.563   -16927862.68501 -13014577.89801       962.578  
 98 11 22 11 40 30.0000000  0  7G26G13G10G17G02G19G27
  22477795.078    22477799.602    -8646059.22009  -6574662.82909     -2742.797  
  20887789.531    20887792.121   -13340405.46509  -8473073.85908      1353.469  
  21050905.344    21050910.547   -11957481.58601  -4159855.78701      1580.875  
  24305601.359    24305608.688    -2178985.99909  -1412071.45809      -904.172  
  22101592.891    22101598.199   -13224104.39501 -10138124.54709     -1954.266  
  23085546.617    23085552.277     -382337.23509   -130905.38609      2946.344  
  20653494.289    20653498.367   -16923046.00201 -13010824.64101       963.938  
 98 11 22 11 40 35.0000000  0  7G26G13G10G17G02G19G27
  22475185.750    22475190.273    -8659771.90909  -6585348.03909     -2742.609  
  20889078.273    20889080.875   -13333633.44309  -8467796.95908      1355.031  
  21052410.547    21052415.727   -11949570.91701  -4153691.63501      1583.063  
  24304742.836    24304750.082    -2183499.25209  -1415588.28409      -901.484  
  22099734.203    22099739.570   -13233871.39909 -10145735.19809     -1952.859  
  23088350.180    23088355.828     -367604.46309   -119425.31309      2946.453  
  20654412.188    20654416.266   -16918221.84101 -13007065.55601       965.422  
 98 11 22 11 40 40.0000000  0  7G26G13G10G17G02G19G27
  22472575.961    22472580.414    -8673484.97309  -6596033.53909     -2742.500  
  20890368.039    20890370.723   -13326854.91709  -8462514.99507      1356.500  
  21053917.719    21053922.898   -11941650.43201  -4147519.83101      1585.234  
  24303886.234    24303891.953    -2188000.42909  -1419095.70109      -898.875  
  22097876.648    22097881.992   -13243632.39709 -10153341.17009     -1951.438  
  23091153.484    23091159.121     -352872.15109   -107945.60909      2946.578  
  20655331.414    20655335.680   -16913391.44301 -13003301.61001       966.859  
 98 11 22 11 40 45.0000000  0  7G26G13G10G17G02G19G27
  22469966.695    22469971.125    -8687196.66109  -6606717.96309     -2742.203  
  20891659.680    20891662.293   -13320068.10109  -8457226.57207      1358.219  
  21055427.352    21055432.438   -11933718.28001  -4141338.93701      1587.641  
  24303032.938    24303039.781    -2192487.69109  -1422592.25809      -896.063  
  22096020.891    22096026.117   -13253385.45601 -10160940.94709     -1949.797  
  23093957.391    23093962.910     -338138.50009    -96464.84509      2946.891  
  20656252.273    20656256.551   -16908552.88201 -12999531.30401       968.563  
 98 11 22 11 40 50.0000000  0  7G26G13G10G17G02G19G27
  22467357.531    22467361.738    -8700909.39409  -6617403.20109     -2742.828  
  20892952.352    20892955.035   -13313275.07509  -8451933.30208      1359.047  
  21056938.578    21056943.699   -11925776.42201  -4135150.48001      1589.188  
  24302180.898    24302185.750    -2196963.42309  -1426079.82509      -894.156  
  22094166.031    22094171.188   -13263132.63501 -10168536.14909     -1949.000  
  23096761.133    23096766.617     -323405.42709    -84984.53509      2946.406  
  20657174.172    20657178.473   -16903708.09001 -12995756.14201       969.438  
 98 11 22 11 40 55.0000000  0  7G26G13G10G17G02G19G27
  22464747.977    22464752.652    -8714623.70309  -6628089.66609     -2743.109  
  20894246.047    20894248.637   -13306476.59609  -8446635.78708      1360.125  
  21058451.461    21058456.559   -11917825.32501  -4128954.82201      1591.047  
  24301330.875    24301339.000    -2201428.08309  -1429558.82609      -891.938  
  22092312.086    22092317.125   -13272874.29801 -10176127.05309     -1947.891  
  23099564.984    23099570.539     -308673.43509    -73505.06509      2946.203  
  20658097.281    20658101.477   -16898857.41801 -12991976.39901       970.641  
 98 11 22 11 41  0.0000000  0  7G26G13G10G17G02G19G27
  22462138.117    22462142.840    -8728337.73109  -6638775.90909     -2742.531  
  20895541.070    20895543.730   -13299671.16809  -8441332.85707      1362.000  
  21059966.758    21059971.996   -11909863.48401  -4122750.79201      1593.672  
  24300483.766    24300491.305    -2205879.93309  -1433027.81709      -888.875  
  22090459.656    22090464.789   -13282608.87209 -10183712.43109     -1945.969  
  23102367.898    23102373.605     -293940.83809    -62025.12609      2946.828  
  20659021.625    20659025.785   -16893999.10501 -12988190.69901       972.656  
 98 11 22 11 41  5.0000000  0  7G26G13G10G17G02G19G27
  22459528.938    22459533.953    -8742048.86809  -6649459.90609     -2742.031  
  20896837.867    20896840.469   -13292856.42409  -8436022.66808      1363.828  
  21061484.477    21061489.574   -11901888.40101  -4116536.44801      1596.281  
  24299640.422    24299648.523    -2210316.61609  -1436484.95709      -885.891  
  22088609.086    22088614.195   -13292333.73301 -10191290.24009     -1944.078  
  23105172.383    23105177.879     -279204.96509    -50542.63009      2947.422  
  20659948.352    20659952.570   -16889130.60301 -12984397.06001       974.672  
 98 11 22 11 41 10.0000000  0  7G26G13G10G17G02G19G27
  22456920.031    22456925.000    -8755758.40109  -6660142.65109     -2741.766  
  20898136.352    20898138.813   -13286033.49209  -8430706.10108      1365.359  
  21063004.219    21063009.281   -11893901.16701  -4110312.63101      1598.625  
  24298798.438    24298806.023    -2214739.36309  -1439931.24909      -883.203  
  22086760.148    22086765.129   -13302050.01901 -10198861.36309     -1942.438  
  23107977.000    23107982.344     -264467.09509    -39058.58509      2947.719  
  20660876.180    20660880.363   -16884253.03801 -12980596.35901       976.375  
 98 11 22 11 41 15.0000000  0  7G26G13G10G17G02G19G27
  22454311.227    22454316.523    -8769467.40509  -6670824.98309     -2741.813  
  20899435.930    20899438.438   -13279203.53309  -8425384.05708      1366.609  
  21064526.266    21064531.328   -11885902.84901  -4104080.17801      1600.703  
  24297958.508    24297965.859    -2219149.41409  -1443367.63609      -880.813  
  22084912.695    22084917.828   -13311758.93501 -10206426.75109     -1941.125  
  23110781.633    23110786.719     -249728.43409    -27573.92209      2947.734  
  20661806.039    20661810.211   -16879367.39201 -12976789.36301       977.875  
 98 11 22 11 41 20.0000000  0  7G26G13G10G17G02G19G27
  22451702.609    22451707.836    -8783177.36709  -6681508.06509     -2741.656  
  20900736.633    20900739.023   -13272368.12709  -8420057.76908      1368.078  
  21066050.234    21066055.414   -11877894.74401  -4097840.09901      1603.063  
  24297122.336    24297129.488    -2223548.28009  -1446795.32109      -878.219  
  22083066.023    22083071.262   -13321462.17109 -10213987.70809     -1939.672  
  23113585.891    23113591.000     -234990.56309    -16089.87309      2947.938  
  20662737.141    20662741.277   -16874475.10901 -12972977.19401       979.578  
 98 11 22 11 41 25.0000000  0  7G26G13G10G17G02G19G27
  22449093.578    22449098.359    -8796888.05109  -6692191.70809     -2742.422  
  20902038.531    20902040.969   -13265526.91709  -8414726.95408      1368.578  
  21067576.000    21067581.156   -11869876.39401  -4091592.03401      1604.469  
  24296286.766    24296292.836    -2227935.57309  -1450214.00009      -876.531  
  22081220.852    22081225.996   -13331159.65401 -10221544.18209     -1939.172  
  23116390.219    23116395.949     -220253.25609     -4606.26409      2947.156  
  20663669.375    20663673.641   -16869575.81301 -12969159.56101       980.313  
 98 11 22 11 41 30.0000000  0  7G26G13G10G17G02G19G27
  22446484.344    22446488.832    -8810598.25109  -6702874.97609     -2741.672  
  20903341.773    20903344.164   -13258678.65209  -8409390.64507      1370.688  
  21069103.922    21069109.113   -11861846.55101  -4085335.01501      1607.469  
  24295454.859    24295460.309    -2232310.02909  -1453622.66809      -873.266  
  22079376.695    22079381.805   -13340850.53209 -10229095.51109     -1937.188  
  23119194.641    23119200.641     -205515.55609      6877.64709      2947.891  
  20664603.070    20664607.289   -16864668.36901 -12965335.57901       982.625  
 98 11 22 11 41 35.0000000  0  7G26G13G10G17G02G19G27
  22443876.102    22443880.285    -8824306.74409  -6713556.90809     -2741.750  
  20904646.539    20904648.824   -13251822.21209  -8404047.96708      1371.906  
  21070634.383    21070639.539   -11853803.66602  -4079067.83601      1609.688  
  24294625.680    24294631.633    -2236670.48509  -1457020.41109      -870.906  
  22077533.867    22077538.836   -13350533.61009 -10236640.76309     -1936.047  
  23121999.359    23122005.102     -190776.54809     18362.58509      2947.703  
  20665538.680    20665543.039   -16859751.83601 -12961504.51701       984.000  
 98 11 22 11 41 40.0000000  0  7G26G13G10G17G02G19G27
  22441267.617    22441272.188    -8838014.59609  -6724238.34709     -2741.422  
  20905952.578    20905954.758   -13244958.65409  -8398699.74008      1373.453  
  21072167.453    21072172.598   -11845748.68901  -4072791.23401      1612.250  
  24293798.055    24293803.938    -2241018.07809  -1460408.16209      -868.156  
  22075692.594    22075697.703   -13360209.92009 -10244180.74009     -1934.531  
  23124804.227    23124810.426     -176037.51909     29847.52709      2947.844  
  20666475.875    20666480.188   -16854827.61301 -12957667.46201       985.641  
 98 11 22 11 41 45.0000000  0  7G26G13G10G17G02G19G27
  22438659.352    22438664.180    -8851720.88909  -6734918.57209     -2741.172  
  20907259.984    20907262.152   -13238087.56309  -8393345.64508      1374.875  
  21073702.625    21073707.746   -11837680.98601  -4066504.71701      1614.734  
  24292974.336    24292980.699    -2245352.19309  -1463785.39409      -865.547  
  22073852.781    22073857.785   -13369878.98709 -10251715.07609     -1933.172  
  23127609.195    23127615.148     -161297.84809     41332.97509      2947.922  
  20667414.430    20667418.730   -16849895.34201 -12953824.13401       987.172  
 98 11 22 11 41 50.0000000  0  7G26G13G10G17G02G19G27
  22436051.281    22436056.027    -8865426.49109  -6745598.24809     -2740.859  
  20908568.703    20908570.801   -13231210.17209  -8387986.63708      1376.266  
  21075239.984    21075245.059   -11829601.51701  -4060209.03301      1617.250  
  24292150.867    24292156.176    -2249673.79409  -1467152.84909      -862.922  
  22072013.922    22072018.703   -13379541.79709 -10259244.53609     -1931.781  
  23130413.867    23130419.527     -146558.45909     52818.19909      2947.984  
  20668354.258    20668358.406   -16844956.02701 -12949975.32001       988.734  
 98 11 22 11 41 55.0000000  0  7G26G13G10G17G02G19G27
  22433443.539    22433448.344    -8879129.75009  -6756276.09809     -2740.156  
  20909879.000    20909881.168   -13224325.28209  -8382621.79208      1377.984  
  21076780.094    21076785.156   -11821508.91701  -4053903.11201      1620.109  
  24291331.836    24291338.270    -2253981.44409  -1470509.48509      -859.828  
  22070176.547    22070181.574   -13389197.06301 -10266768.11609     -1930.031  
  23133218.883    23133224.414     -131818.11509     64304.17109      2948.453  
  20669295.813    20669299.891   -16840008.33401 -12946119.97501       990.656  
 98 11 22 11 42  0.0000000  0  7G26G13G10G17G02G19G27
  22430836.367    22430841.313    -8892830.90309  -6766952.31109     -2739.844  
  20911190.523    20911192.680   -13217433.24509  -8377251.37208      1379.250  
  21078322.656    21078327.660   -11813403.27501  -4047587.02801      1622.594  
  24290513.766    24290520.270    -2258275.28609  -1473855.34409      -857.250  
  22068340.711    22068345.844   -13398845.12909 -10274286.08609     -1928.750  
  23136024.242    23136029.738     -117076.98609     75790.75309      2948.438  
  20670239.008    20670242.945   -16835052.33901 -12942258.16101       992.188  
 98 11 22 11 42  5.0000000  0  7G26G13G10G17G02G19G27
  22428229.680    22428235.070    -8906530.21409  -6777627.08809     -2739.453  
  20912503.109    20912505.230   -13210534.72409  -8371875.90109      1380.578  
  21079867.453    21079872.633   -11805285.11101  -4041261.18901      1625.109  
  24289699.703    24289706.797    -2262556.06609  -1477191.03509      -854.625  
  22066505.914    22066511.117   -13408486.55309 -10281798.88209     -1927.406  
  23138829.055    23138834.914     -102335.62609     87277.51709      2948.531  
  20671183.344    20671187.316   -16830088.58601 -12938390.30201       993.734  
 98 11 22 11 42 10.0000000  0  7G26G13G10G17G02G19G27
  22425623.617    22425628.797    -8920225.69309  -6788298.88209     -2738.953  
  20913817.539    20913819.824   -13203627.74309  -8366493.84009      1382.000  
  21081414.898    21081420.160   -11797152.49001  -4034924.08701      1627.734  
  24288887.992    24288895.777    -2266821.69609  -1480514.87509      -851.844  
  22064672.930    22064678.180   -13418119.24909 -10289304.87409     -1925.891  
  23141634.891    23141640.832      -87591.84709     98766.17209      2948.766  
  20672129.891    20672134.004   -16825115.27101 -12934514.99101       995.359  
 98 11 22 11 42 15.0000000  0  7G26G13G10G17G02G19G27
  22423017.547    22423022.551    -8933918.90009  -6798968.91109     -2738.328  
  20915133.109    20915135.383   -13196714.08909  -8361106.57809      1383.484  
  21082964.922    21082970.184   -11789006.95101  -4028576.91901      1630.500  
  24288078.078    24288085.453    -2271073.76609  -1483828.18309      -848.984  
  22062840.930    22062846.215   -13427744.79109 -10296805.28909     -1924.313  
  23144440.672    23144446.789      -72847.28609    110255.43409      2949.063  
  20673077.703    20673081.758   -16820134.30101 -12930633.71901       997.016  
 98 11 22 11 42 20.0000000  0  7G26G13G10G17G02G19G27
  22420411.773    22420416.637    -8947611.03109  -6809638.09109     -2738.453  
  20916449.945    20916452.207   -13189795.11209  -8355715.16909      1384.156  
  21084517.211    21084522.449   -11780849.64301  -4022220.57701      1632.484  
  24287271.633    24287278.184    -2275313.57409  -1487131.93209      -846.891  
  22061010.484    22061015.793   -13437364.33909 -10304301.04009     -1923.438  
  23147246.336    23147252.242      -58103.17109    121744.34709      2948.641  
  20674026.773    20674030.980   -16815147.19901 -12926747.66701       997.875  
 98 11 22 11 42 25.0000000  0  7G26G13G10G17G02G19G27
  22417806.719    22417811.758    -8961302.42909  -6820306.70809     -2737.578  
  20917767.273    20917769.500   -13182871.57009  -8350320.20309      1385.781  
  21086071.633    21086076.777   -11772681.30001  -4015855.64201      1635.406  
  24286467.289    24286474.098    -2279541.61809  -1490426.51209      -843.813  
  22059180.992    22059186.430   -13446978.07409 -10311792.25709     -1921.500  
  23150051.977    23150057.918      -43359.78909    133232.68709      2949.234  
  20674976.898    20674981.082   -16810154.37301 -12922857.15801       999.797  
 98 11 22 11 42 30.0000000  0  7G26G13G10G17G02G19G27
  22415202.188    22415207.250    -8974988.21709  -6830970.94309     -2736.813  
  20919086.641    20919088.926   -13175938.75509  -8344918.01009      1387.250  
  21087629.164    21087634.215   -11764497.00001  -4009478.26701      1638.234  
  24285665.766    24285672.883    -2283752.91209  -1493708.05209      -840.797  
  22057353.781    22057359.266   -13456580.86909 -10319274.94709     -1919.688  
  23152858.273    23152864.285      -28612.27509    144724.24309      2949.688  
  20675929.016    20675933.246   -16805150.85801 -12918958.31701      1001.531  
 98 11 22 11 42 35.0000000  0  7G26G13G10G17G02G19G27
  22412598.516    22412603.426    -8988670.78109  -6841632.67109     -2736.328  
  20920406.992    20920409.313   -13168999.29909  -8339510.64108      1388.375  
  21089189.141    21089194.309   -11756299.27001  -4003090.42801      1640.734  
  24284866.758    24284872.816    -2287949.55309  -1496978.16709      -838.000  
  22055528.078    22055533.492   -13466175.02409 -10326750.90809     -1918.109  
  23155665.164    23155670.344      -13863.01909    156217.15909      2949.875  
  20676882.727    20676886.805   -16800139.39201 -12915053.28001      1002.922  
 98 11 22 11 42 40.0000000  0  7G26G13G10G17G02G19G27
  22409995.211    22410000.250    -9002351.23209  -6852292.74709     -2735.828  
  20921728.766    20921731.109   -13162054.36609  -8334099.00609      1389.578  
  21090751.445    21090756.625   -11748089.43801  -3996693.16001      1643.203  
  24284070.688    24284077.664    -2292132.68909  -1500237.77109      -835.234  
  22053703.672    22053709.051   -13475761.49309 -10334220.87909     -1916.484  
  23158471.953    23158477.168         886.98009    167710.65409      2950.109  
  20677837.695    20677841.891   -16795121.24501 -12911143.03601      1004.328  
 98 11 22 11 42 45.0000000  0  7G26G13G10G17G02G19G27
  22407392.297    22407397.488    -9016029.37709  -6862951.02609     -2735.281  
  20923051.453    20923053.961   -13155103.85609  -8328683.02909      1390.734  
  21092315.984    21092321.105   -11739867.43801  -3990286.40901      1645.672  
  24283277.625    24283281.855    -2296302.58709  -1503486.97109      -832.609  
  22051881.148    22051886.492   -13485340.10409 -10341684.72509     -1914.859  
  23161279.008    23161283.883       15637.90309    179204.87209      2950.344  
  20678793.773    20678797.887   -16790096.52101 -12907227.66601      1005.672  
 98 11 22 11 42 50.0000000  0  7G26G13G10G17G02G19G27
  22404789.844    22404795.328    -9029704.63309  -6873607.06209     -2734.906  
  20924375.250    20924377.793   -13148147.15209  -8323262.22209      1391.828  
  21093882.930    21093888.074   -11731632.81101  -3983869.81901      1648.047  
  24282486.266    24282490.156    -2300458.86409  -1506725.65909      -830.047  
  22050059.852    22050065.348   -13494910.20309 -10349141.94009     -1913.313  
  23164086.039    23164091.348       30390.34109    190700.26809      2950.500  
  20679751.070    20679755.383   -16785064.73401 -12903306.79201      1006.922  
 98 11 22 11 42 55.0000000  0  7G26G13G10G17G02G19G27
  22402188.047    22402193.660    -9043377.98209  -6884261.61609     -2734.516  
  20925700.109    20925702.664   -13141185.04309  -8317837.20309      1392.938  
  21095452.250    21095457.289   -11723386.51201  -3977444.13401      1650.391  
  24281698.461    24281702.809    -2304602.47009  -1509954.48209      -827.453  
  22048240.273    22048245.641   -13504472.65809 -10356593.20109     -1911.750  
  23166893.742    23166899.426       45143.45709    202196.19709      2950.656  
  20680710.211    20680714.371   -16780026.77201 -12899381.11201      1008.188  
 98 11 22 11 43  0.0000000  0  7G26G13G10G17G02G19G27
  22399585.977    22399591.473    -9057049.16409  -6894914.47209     -2734.172  
  20927025.883    20927028.367   -13134217.33709  -8312407.82408      1393.938  
  21097023.969    21097029.160   -11715128.29801  -3971009.16801      1652.672  
  24280911.672    24280914.707    -2308733.07309  -1513173.13009      -824.969  
  22046422.055    22046427.598   -13514027.25501 -10364038.33509     -1910.297  
  23169701.227    23169706.957       59897.28109    213692.67509      2950.641  
  20681669.797    20681673.898   -16774982.44601 -12895450.46901      1009.359  
 98 11 22 11 43  5.0000000  0  7G26G13G10G17G02G19G27
  22396985.250    22396990.969    -9070717.92509  -6905565.43909     -2733.359  
  20928352.914    20928355.375   -13127243.94709  -8306974.01508      1395.359  
  21098597.531    21098602.594   -11706858.09701  -3964564.86001      1655.359  
  24280128.563    24280134.527    -2312850.34509  -1516381.36209      -822.000  
  22044605.547    22044611.090   -13523573.80801 -10371477.20409     -1908.375  
  23172508.984    23172515.336       74651.60109    225189.54109      2951.016  
  20682631.258    20682635.406   -16769931.38701 -12891514.57801      1011.000  
 98 11 22 11 43 10.0000000  0  7G26G13G10G17G02G19G27
  22394384.273    22394389.594    -9084384.42909  -6916214.64609     -2733.234  
  20929680.875    20929683.313   -13120265.22809  -8301536.05308      1396.094  
  21100173.469    21100178.391   -11698576.39501  -3958111.58801      1657.297  
  24279346.547    24279353.145    -2316954.65609  -1519579.50109      -819.734  
  22042790.219    22042795.797   -13533112.64209 -10378910.05601     -1907.188  
  23175316.492    23175322.328       89405.91809    236686.42009      2950.656  
  20683593.406    20683597.496   -16764874.06701 -12887573.81301      1011.891  
 98 11 22 11 43 15.0000000  0  7G26G13G10G17G02G19G27
  22391784.836    22391789.570    -9098047.20509  -6926860.94609     -2732.078  
  20931010.141    20931012.590   -13113279.85609  -8296092.90908      1397.859  
  21101751.914    21101756.801   -11690281.85501  -3951648.31101      1660.313  
  24278569.242    24278576.969    -2321044.50609  -1522766.39009      -816.406  
  22040976.609    22040981.988   -13542642.45801 -10386335.88009     -1904.938  
  23178124.445    23178130.270      104161.65309    248184.38209      2951.422  
  20684557.070    20684561.301   -16759809.26401 -12883627.21601      1013.797  
 98 11 22 11 43 20.0000000  0  7G26G13G10G17G02G19G27
  22389185.063    22389189.715    -9111707.47709  -6937505.30309     -2731.531  
  20932340.594    20932343.031   -13106288.82909  -8290645.35308      1399.031  
  21103332.406    21103337.316   -11681975.43902  -3945175.78501      1662.766  
  24277792.805    24277799.027    -2325121.05209  -1525942.90709      -813.703  
  22039164.664    22039169.879   -13552164.22901 -10393755.43501     -1903.266  
  23180932.414    23180937.289      118917.83309    259682.68309      2951.547  
  20685522.219    20685526.473   -16754738.25901 -12879675.78501      1015.078  
 98 11 22 11 43 25.0000000  0  7G26G13G10G17G02G19G27
  22386586.414    22386591.523    -9125364.98709  -6948147.51309     -2731.344  
  20933672.109    20933674.699   -13099291.44309  -8285192.84608      1400.016  
  21104915.547    21104920.480   -11673656.38401  -3938693.40501      1664.969  
  24277020.891    24277026.492    -2329183.67709  -1529108.59809      -811.250  
  22037354.602    22037359.863   -13561677.35009 -10401168.25101     -1901.875  
  23183740.586    23183745.590      133674.93909    271181.72309      2951.406  
  20686488.453    20686492.660   -16749660.55501 -12875719.13201      1016.109  
 98 11 22 11 43 30.0000000  0  7G26G13G10G17G02G19G27
  22383987.875    22383992.773    -9139020.40709  -6958788.09209     -2730.828  
  20935004.688    20935007.172   -13092288.25009  -8279735.81508      1401.250  
  21106500.805    21106505.809   -11665325.36201  -3932201.70001      1667.438  
  24276250.367    24276258.703    -2333233.03509  -1532263.94509      -808.500  
  22035545.586    22035550.777   -13571182.45101 -10408574.81701     -1900.188  
  23186548.969    23186554.160      148432.32809    282680.98609      2951.516  
  20687455.734    20687459.895   -16744576.90801 -12871757.85101      1017.344  
 98 11 22 11 43 35.0000000  0  7G26G13G10G17G02G19G27
  22381389.695    22381394.266    -9152674.45709  -6969427.60609     -2730.438  
  20936338.250    20936340.629   -13085280.31009  -8274275.08608      1402.266  
  21108088.281    21108093.145   -11656983.33901  -3925701.42701      1669.703  
  24275481.859    24275489.633    -2337269.98909  -1535409.63709      -805.938  
  22033738.523    22033743.973   -13580680.47509 -10415975.87109     -1898.672  
  23189357.102    23189362.574      163188.87909    294179.59909      2951.453  
  20688423.977    20688428.160   -16739488.50901 -12867792.86401      1018.344  
 98 11 22 11 43 40.0000000  0  7G26G13G10G17G02G19G27
  22378792.555    22378796.457    -9166323.52609  -6980063.23309     -2729.172  
  20937673.242    20937675.820   -13078264.09209  -8268807.90608      1404.234  
  21109678.422    21109683.367   -11648627.01701  -3919190.00901      1672.844  
  24274715.945    24274724.738    -2341290.91509  -1538542.84009      -802.422  
  22031932.906    22031938.391   -13590167.70109 -10423368.51301     -1896.203  
  23192165.742    23192171.320      177948.28609    305680.42709      2952.328  
  20689393.969    20689398.082   -16734392.07501 -12863821.61901      1020.250  
 98 11 22 11 43 45.0000000  0  7G26G13G10G17G02G19G27
  22376195.547    22376199.508    -9179969.73709  -6990696.63109     -2729.188  
  20939009.891    20939012.492   -13071241.61409  -8263335.84408      1404.844  
  21111270.930    21111275.781   -11640258.64801  -3912669.20501      1674.609  
  24273954.156    24273962.867    -2345297.74309  -1541665.05209      -800.234  
  22030129.234    22030134.637   -13599645.94109 -10430754.14909     -1895.016  
  23194974.336    23194980.148      192708.54409    317181.91009      2951.859  
  20690365.070    20690369.219   -16729289.80101 -12859845.82101      1020.750  
 98 11 22 11 43 50.0000000  0  7G26G13G10G17G02G19G27
  22373599.180    22373603.410    -9193613.99609  -7001328.51309     -2728.453  
  20940346.992    20940349.559   -13064214.18409  -8257859.92608      1406.156  
  21112865.289    21112870.094   -11631879.46301  -3906139.97501      1677.109  
  24273193.914    24273201.852    -2349291.75409  -1544777.28309      -797.375  
  22028327.164    22028332.473   -13609116.14809 -10438133.52309     -1893.016  
  23197783.148    23197788.445      207468.60209    328683.23609      2952.203  
  20691336.703    20691340.840   -16724183.05701 -12855866.54001      1021.969  
 98 11 22 11 43 55.0000000  0  7G26G13G10G17G02G19G27
  22371003.336    22371007.473    -9207255.08309  -7011957.92209     -2728.188  
  20941685.578    20941688.063   -13057180.63309  -8252379.24008      1407.063  
  21114462.164    21114466.910   -11623488.37901  -3899601.47001      1679.125  
  24272437.125    24272444.758    -2353271.76309  -1547878.56709      -794.859  
  22026527.055    22026532.598   -13618576.87809 -10445505.51709     -1891.484  
  23200592.430    23200597.727      222229.92909    340185.57009      2952.109  
  20692309.570    20692313.590   -16719070.49701 -12851882.73101      1022.844  
 98 11 22 11 44  0.0000000  0  7G26G13G10G17G02G19G27
  22368408.125    22368412.133    -9220894.00609  -7022585.65009     -2727.344  
  20943024.953    20943027.473   -13050142.03509  -8246894.61808      1408.422  
  21116061.023    21116065.781   -11615086.70601  -3893054.71501      1681.594  
  24271681.664    24271688.805    -2357238.66509  -1550969.66409      -791.859  
  22024728.227    22024733.805   -13628029.26909 -10452871.01309     -1889.422  
  23203401.227    23203406.875      236991.50609    351688.09309      2952.563  
  20693283.531    20693287.656   -16713952.93601 -12847895.02301      1024.234  
 98 11 22 11 44  5.0000000  0  7G26G13G10G17G02G19G27
  22365813.258    22365817.371    -9234528.22909  -7033209.71309     -2726.641  
  20944365.734    20944368.242   -13043095.96609  -8241404.17609      1409.703  
  21117662.367    21117667.172   -11606671.99801  -3886497.80001      1683.969  
  24270929.203    24270936.098    -2361189.90309  -1554048.55009      -788.922  
  22022931.453    22022936.867   -13637470.80709 -10460228.05109     -1887.453  
  23206210.961    23206216.727      251755.98709    363192.88309      2952.922  
  20694258.922    20694263.094   -16708827.65801 -12843901.29901      1025.563  
 98 11 22 11 44 10.0000000  0  7G26G13G10G17G02G19G27
  22363219.047    22363222.867    -9248160.96609  -7043832.61709     -2726.531  
  20945707.445    20945709.953   -13036045.09009  -8235909.99008      1410.578  
  21119265.500    21119270.316   -11598247.20201  -3879933.02801      1685.875  
  24270180.000    24270186.691    -2365128.48309  -1557117.55009      -786.547  
  22021136.383    22021141.914   -13646904.21209 -10467578.74809     -1885.969  
  23209020.242    23209026.102      266520.30509    374697.53709      2952.719  
  20695235.008    20695239.215   -16703697.49601 -12839903.77101      1026.438  
 98 11 22 11 44 15.0000000  0  7G26G13G10G17G02G19G27
  22360624.984    22360628.547    -9261792.58909  -7054454.66009     -2726.203  
  20947050.148    20947052.609   -13028989.34109  -8230412.00608      1411.703  
  21120870.633    21120875.309   -11589812.45601  -3873360.50001      1688.000  
  24269433.453    24269439.020    -2369054.60109  -1560176.89009      -783.922  
  22019342.852    22019348.336   -13656329.59709 -10474923.19509     -1884.219  
  23211829.609    23211835.844      281284.12509    386201.80709      2952.766  
  20696212.219    20696216.332   -16698562.55101 -12835902.51501      1027.516  
 98 11 22 11 44 20.0000000  0  7G26G13G10G17G02G19G27
  22358031.438    22358035.012    -9275421.80809  -7065074.82409     -2725.469  
  20948394.125    20948396.680   -13021927.00909  -8224908.89308      1413.250  
  21122477.867    21122482.438   -11581366.15901  -3866778.97101      1690.547  
  24268689.156    24268695.063    -2372966.85309  -1563225.41509      -780.953  
  22017550.898    22017556.277   -13665745.24209 -10482260.05609     -1882.000  
  23214639.516    23214645.492      296049.01309    397706.92309      2953.234  
  20697190.445    20697194.547   -16693421.22801 -12831896.29201      1029.016  
 98 11 22 11 44 25.0000000  0  7G26G13G10G17G02G19G27
  22355438.391    22355442.270    -9289048.50509  -7075693.01409     -2725.234  
  20949739.188    20949741.859   -13014857.92009  -8219400.51208      1414.375  
  21124087.367    21124091.973   -11572908.15501  -3860188.32001      1692.672  
  24267947.570    24267955.484    -2376865.28609  -1566263.15409      -778.406  
  22015760.875    22015766.277   -13675150.85109 -10489589.09909     -1880.234  
  23217449.203    23217454.863      310815.16409    409213.00509      2953.234  
  20698169.867    20698174.027   -16688273.38601 -12827884.98701      1030.125  
 98 11 22 11 44 30.0000000  0  7G26G13G10G17G02G19G27
  22352846.102    22352849.969    -9302671.90909  -7086308.64209     -2724.344  
  20951086.070    20951088.801   -13007780.98409  -8213886.01708      1416.156  
  21125699.391    21125704.020   -11564437.33401  -3853587.68401      1695.422  
  24267207.750    24267214.195    -2380748.53109  -1569289.04909      -775.156  
  22013973.313    22013978.645   -13684545.46709 -10496909.57109     -1877.844  
  23220259.445    23220265.387      325583.55209    420720.82409      2953.875  
  20699150.969    20699154.836   -16683117.79601 -12823867.64401      1031.891  
 98 11 22 11 44 35.0000000  0  7G26G13G10G17G02G19G27
  22350253.727    22350257.746    -9316293.93409  -7096923.20309     -2724.188  
  20952433.797    20952436.422   -13000698.25609  -8208367.01108      1417.219  
  21127313.344    21127317.996   -11555955.72801  -3846978.64301      1697.516  
  24266471.945    24266478.027    -2384618.63309  -1572304.71609      -772.594  
  22012187.320    22012192.570   -13693931.12601 -10504223.06309     -1876.109  
  23223070.031    23223075.938      340351.92709    432228.63109      2953.781  
  20700133.469    20700137.465   -16677956.27201 -12819845.67601      1033.000  
 98 11 22 11 44 40.0000000  0  7G26G13G10G17G02G19G27
  22347661.813    22347665.762    -9329914.56209  -7107536.67509     -2724.203  
  20953782.695    20953785.379   -12993609.55809  -8202843.35208      1418.109  
  21128929.484    21128934.230   -11547463.09501  -3840361.01001      1699.391  
  24265737.391    24265743.895    -2388475.33009  -1575309.94009      -770.234  
  22010403.094    22010408.355   -13703307.54809 -10511529.36009     -1874.594  
  23225880.508    23225886.438      355120.57009    443736.65709      2953.516  
  20701116.781    20701120.848   -16672788.53901 -12815818.87201      1033.953  
 98 11 22 11 44 45.0000000  0  7G26G13G10G17G02G19G27
  22345069.688    22345073.578    -9343536.22909  -7118150.94909     -2724.063  
  20955132.320    20955134.980   -12986517.31009  -8197316.92708      1419.203  
  21130547.148    21130551.906   -11538961.91201  -3833736.70901      1701.484  
  24265004.859    24265010.180    -2392321.05009  -1578306.58909      -767.656  
  22008620.102    22008625.340   -13712677.34909 -10518830.49801     -1872.938  
  23228690.469    23228696.715      369886.77709    455242.78409      2953.391  
  20702101.023    20702105.113   -16667616.98101 -12811789.08701      1035.063  
 98 11 22 11 44 50.0000000  0  7G26G13G10G17G02G19G27
  22342477.625    22342481.668    -9357157.29309  -7128764.75409     -2724.766  
  20956482.969    20956485.547   -12979419.56809  -8191786.22108      1419.531  
  21132166.742    21132171.547   -11530450.33401  -3827104.31301      1702.750  
  24264276.438    24264282.156    -2396154.07709  -1581293.37509      -765.938  
  22006838.492    22006843.918   -13722039.06409 -10526125.33309     -1872.125  
  23231500.531    23231506.484      384652.29409    466748.38609      2952.438  
  20703085.969    20703090.070   -16662440.06801 -12807755.13001      1035.328  
 98 11 22 11 44 55.0000000  0  7G26G13G10G17G02G19G27
  22339885.438    22339889.492    -9370778.40509  -7139378.59809     -2724.109  
  20957834.602    20957837.168   -12972316.70909  -8186251.52608      1421.188  
  21133788.383    21133793.281   -11521928.95901  -3820464.28201      1705.375  
  24263549.195    24263554.867    -2399975.06009  -1584270.81909      -762.906  
  22005058.602    22005064.051   -13731393.41809 -10533414.43709     -1870.031  
  23234310.063    23234315.793      399416.55109    478252.98409      2952.828  
  20704072.109    20704076.270   -16657258.28201 -12803717.37301      1036.953  
 98 11 22 11 45  0.0000000  0  7G26G13G10G17G02G19G27
  22337293.766    22337298.148    -9384397.47009  -7149990.85309     -2723.734  
  20959187.664    20959190.254   -12965206.57609  -8180711.16608      1422.625  
  21135412.258    21135417.133   -11513395.52701  -3813814.85901      1707.781  
  24262824.742    24262832.070    -2403782.05409  -1587237.26009      -760.125  
  22003280.063    22003285.500   -13740738.48909 -10540696.30601     -1868.234  
  23237119.461    23237125.215      414181.59009    489758.20809      2952.938  
  20705059.500    20705063.590   -16652069.46601 -12799674.13901      1038.344  
 98 11 22 11 45  5.0000000  0  7G26G13G10G17G02G19G27
  22334702.453    22334706.906    -9398016.27209  -7160602.89609     -2723.547  
  20960541.664    20960544.195   -12958090.82309  -8175166.42508      1423.938  
  21137038.109    21137042.902   -11504851.60501  -3807157.26101      1710.047  
  24262103.086    24262109.156    -2407576.54509  -1590193.98609      -757.406  
  22001503.203    22001508.594   -13750076.09509 -10547972.35801     -1866.547  
  23239929.383    23239935.230      428945.59909    501262.62909      2952.938  
  20706047.836    20706051.938   -16646875.11801 -12795626.59501      1039.656  
 98 11 22 11 45 10.0000000  0  7G26G13G10G17G02G19G27
  22332110.984    22332115.355    -9411633.62509  -7171213.81109     -2723.688  
  20961897.102    20961899.551   -12950968.18109  -8169616.31508      1424.844  
  21138666.078    21138670.965   -11496296.07701  -3800490.61601      1711.875  
  24261383.883    24261389.672    -2411356.89509  -1593139.67509      -755.016  
  21999728.227    21999733.676   -13759404.97009 -10555241.60301     -1865.281  
  23242738.797    23242744.785      443709.90609    512767.29009      2952.516  
  20707037.648    20707041.773   -16641673.89201 -12791573.69301      1040.578  
 98 11 22 11 45 15.0000000  0  7G26G13G10G17G02G19G27
  22329519.945    22329524.457    -9425249.66709  -7181823.70409     -2722.766  
  20963253.656    20963256.059   -12943839.15309  -8164061.23108      1426.750  
  21140296.406    21140301.363   -11487729.43802  -3793815.31701      1714.766  
  24260667.242    24260674.004    -2415123.19109  -1596074.49109      -751.516  
  21997954.406    21997959.926   -13768725.39909 -10562504.26709     -1862.906  
  23245548.523    23245554.793      458474.19909    524271.92109      2953.156  
  20708028.688    20708032.813   -16636466.04701 -12787515.62902      1042.563  
 98 11 22 11 45 20.0000000  0  7G26G13G10G17G02G19G27
  22326928.938    22326933.660    -9438865.61909  -7192433.53309     -2723.078  
  20964611.281    20964613.824   -12936704.92509  -8158502.09107      1427.484  
  21141928.359    21141933.281   -11479152.87402  -3787132.28101      1716.406  
  24259952.953    24259957.465    -2418876.41709  -1598999.08009      -749.219  
  21996182.102    21996187.715   -13778038.28309 -10569761.05009     -1861.719  
  23248357.477    23248363.441      473237.34009    535775.67109      2952.609  
  20709020.734    20709024.672   -16631252.58701 -12783453.19201      1043.375  
 98 11 22 11 45 25.0000000  0  7G26G13G10G17G02G19G27
  22324338.164    22324342.781    -9452480.66309  -7203042.64409     -2722.859  
  20965969.953    20965972.484   -12929564.61609  -8152938.21707      1428.719  
  21143562.469    21143567.367   -11470565.64001  -3780440.93301      1718.563  
  24259240.578    24259246.941    -2422615.77409  -1601912.81709      -746.453  
  21994411.664    21994417.277   -13787342.87409 -10577011.37209     -1860.063  
  23251166.734    23251172.980      488000.29109    547279.26609      2952.625  
  20710013.930    20710017.938   -16626032.70301 -12779385.74801      1044.641  
 98 11 22 11 45 30.0000000  0  7G26G13G10G17G02G19G27
  22321746.984    22321751.637    -9466095.33709  -7213651.46609     -2722.484  
  20967329.711    20967332.301   -12922418.77309  -8147370.03107      1430.141  
  21145198.453    21145203.328   -11461968.21702  -3773741.64701      1720.922  
  24258531.172    24258537.078    -2426342.05609  -1604816.45209      -743.516  
  21992642.297    21992647.980   -13796640.00809 -10584255.88909     -1858.266  
  23253975.867    23253981.996      502762.61309    558782.37009      2952.844  
  20711008.422    20711012.383   -16620807.35701 -12775314.05202      1046.031  
 98 11 22 11 45 35.0000000  0  7G26G13G10G17G02G19G27
  22319157.305    22319161.934    -9479706.56609  -7224257.60409     -2722.234  
  20968691.367    20968693.969   -12915264.29109  -8141795.11007      1431.422  
  21146837.133    21146842.102   -11453357.50502  -3767032.00301      1723.125  
  24257825.594    24257832.477    -2430052.02809  -1607707.32709      -740.688  
  21990874.914    21990880.691   -13805926.54009 -10591492.14109     -1856.578  
  23256785.703    23256791.293      517527.60109    570287.54209      2952.906  
  20712004.563    20712008.629   -16615573.44901 -12771235.68201      1047.297  
 98 11 22 11 45 40.0000000  0  7G26G13G10G17G02G19G27
  22316567.164    22316571.641    -9493316.28109  -7234862.57309     -2721.469  
  20970053.852    20970056.348   -12908103.15109  -8136215.00107      1433.203  
  21148477.656    21148482.578   -11444735.62101  -3760313.65301      1725.797  
  24257122.789    24257131.758    -2433747.69609  -1610587.05809      -737.406  
  21989109.641    21989115.207   -13815204.51709 -10598721.72409     -1854.438  
  23259595.695    23259601.602      532293.03909    581793.06909      2953.406  
  20713001.711    20713005.625   -16610332.96501 -12767152.19002      1049.078  
 98 11 22 11 45 45.0000000  0  7G26G13G10G17G02G19G27
  22313977.828    22313982.258    -9506923.31409  -7245465.44609     -2721.063  
  20971418.133    20971420.770   -12900934.42409  -8130628.98107      1434.594  
  21150120.688    21150125.656   -11436101.84001  -3753586.03701      1728.000  
  24256421.477    24256429.508    -2437428.03309  -1613454.87709      -734.453  
  21987345.969    21987351.477   -13824473.17109 -10605944.04609     -1852.719  
  23262405.320    23262410.875      547059.62809    593299.49009      2953.516  
  20714000.313    20714004.238   -16605084.88901 -12763062.77901      1050.453  
 98 11 22 11 45 50.0000000  0  7G26G13G10G17G02G19G27
  22311388.961    22311393.402    -9520527.34309  -7256065.98109     -2720.438  
  20972783.766    20972786.508   -12893757.91909  -8125036.90307      1436.125  
  21151765.953    21151770.828   -11427456.23702  -3746849.20701      1730.359  
  24255724.039    24255733.477    -2441092.68309  -1616310.47109      -731.281  
  21985584.086    21985589.535   -13833732.24609 -10613158.90009     -1850.797  
  23265215.547    23265221.020      561827.60009    604806.99809      2953.797  
  20715000.523    20715004.414   -16599829.00601 -12758967.28201      1052.031  
 98 11 22 11 45 55.0000000  0  7G26G13G10G17G02G19G27
  22308801.125    22308805.297    -9534127.34709  -7266663.38209     -2719.797  
  20974151.188    20974153.930   -12886572.62409  -8119437.97307      1437.750  
  21153413.641    21153418.504   -11418797.80801  -3740102.38101      1732.781  
  24255030.961    24255037.031    -2444740.56009  -1619152.99309      -728.094  
  21983824.125    21983829.551   -13842980.67209 -10620365.45909     -1848.797  
  23268026.117    23268031.637      576598.05309    616316.43409      2954.172  
  20716002.359    20716006.391   -16594564.15801 -12754864.80201      1053.688  
 98 11 22 11 46  0.0000000  0  7G26G13G10G17G02G19G27
  22306213.555    22306217.645    -9547725.91309  -7277259.66109     -2719.703  
  20975519.883    20975522.684   -12879380.79809  -8113833.95506      1438.875  
  21155063.141    21155068.051   -11410128.91801  -3733347.40701      1734.688  
  24254339.133    24254346.168    -2448374.21809  -1621984.45909      -725.469  
  21982065.750    21982071.211   -13852220.91509 -10627565.64009     -1847.391  
  23270837.086    23270842.875      591368.60709    627825.95209      2953.969  
  20717005.516    20717009.629   -16589292.66401 -12750757.14501      1054.828  
 98 11 22 11 46  5.0000000  0  7G26G13G10G17G02G19G27
  22303625.797    22303630.180    -9561324.15409  -7287855.68609     -2719.156  
  20976889.305    20976892.188   -12872183.39809  -8108225.59307      1440.531  
  21156714.594    21156719.445   -11401450.49701  -3726585.00501      1737.125  
  24253650.625    24253655.922    -2451994.76409  -1624805.63409      -722.297  
  21980308.508    21980313.875   -13861454.04009 -10634760.27501     -1845.422  
  23273647.547    23273653.441      606138.02309    639334.58109      2954.250  
  20718009.789    20718013.855   -16584015.34801 -12746644.95001      1056.547  
 98 11 22 11 46 10.0000000  0  7G26G13G10G17G02G19G27
  22301038.609    22301042.980    -9574920.17909  -7298449.98309     -2719.281  
  20978260.469    20978263.387   -12864978.30209  -8102611.23407      1441.516  
  21158368.398    21158373.262   -11392760.31501  -3719813.43301      1738.938  
  24252964.055    24252970.395    -2455600.20609  -1627615.06709      -719.844  
  21978553.617    21978559.008   -13870677.84709 -10641947.64709     -1844.109  
  23276458.492    23276464.328      620908.49409    650844.03609      2953.953  
  20719015.688    20719019.590   -16578729.85601 -12742526.38601      1057.656  
 98 11 22 11 46 15.0000000  0  7G26G13G10G17G02G19G27
  22298451.531    22298455.844    -9588515.32409  -7309043.59909     -2719.016  
  20979632.617    20979635.371   -12857766.49109  -8096991.64106      1442.953  
  21160024.141    21160029.133   -11384059.51801  -3713033.59301      1741.125  
  24252280.430    24252287.641    -2459191.52309  -1630413.44909      -716.969  
  21976799.836    21976805.074   -13879893.42609 -10649128.61009     -1842.391  
  23279268.703    23279274.199      635678.80609    662353.37109      2953.938  
  20720022.461    20720026.434   -16573437.16601 -12738402.21201      1059.172  
 98 11 22 11 46 20.0000000  0  7G26G13G10G17G02G19G27
  22295864.688    22295869.117    -9602109.49909  -7319636.45609     -2718.453  
  20981006.344    20981009.074   -12850547.75609  -8091366.65507      1444.797  
  21161681.805    21161686.855   -11375347.96701  -3706245.37501      1743.719  
  24251599.266    24251605.160    -2462768.55109  -1633200.73709      -713.672  
  21975047.734    21975053.125   -13889100.79509 -10656303.17401     -1840.328  
  23282079.430    23282085.535      650448.90009    673862.52409      2954.328  
  20721031.273    20721035.176   -16568137.22401 -12734272.38701      1061.031  
 98 11 22 11 46 25.0000000  0  7G26G13G10G17G02G19G27
  22293278.055    22293282.344    -9615702.12509  -7330228.11009     -2718.563  
  20982381.680    20982384.457   -12843321.19109  -8085735.56707      1445.875  
  21163341.883    21163346.805   -11366624.87801  -3699448.16701      1745.578  
  24250921.953    24250930.289    -2466330.83709  -1635976.54509      -711.219  
  21973297.352    21973302.848   -13898299.21609 -10663470.76801     -1838.984  
  23284890.453    23284896.348      665219.56509    685372.14109      2953.984  
  20722041.320    20722045.270   -16562829.47901 -12730136.48001      1062.109  
 98 11 22 11 46 30.0000000  0  7G26G13G10G17G02G19G27
  22290691.344    22290695.434    -9629294.75809  -7340819.77009     -2718.344  
  20983757.945    20983760.676   -12836088.30409  -8080099.55007      1447.375  
  21165003.664    21165008.691   -11357891.70301  -3692643.10001      1747.813  
  24250247.430    24250253.992    -2469879.94709  -1638742.07609      -708.328  
  21971548.320    21971553.629   -13907490.09709 -10670632.48701     -1837.266  
  23287701.125    23287707.699      679989.27209    696880.98809      2954.031  
  20723052.500    20723056.520   -16557515.49401 -12725995.71201      1063.609  
 98 11 22 11 46 35.0000000  0  7G26G13G10G17G02G19G27
  22288104.875    22288109.398    -9642886.57209  -7351410.79209     -2718.281  
  20985135.602    20985138.238   -12828848.37209  -8074458.04607      1448.641  
  21166667.641    21166672.691   -11349147.55501  -3685829.48201      1749.906  
  24249574.547    24249582.051    -2473414.90509  -1641496.57309      -705.609  
  21969800.953    21969806.227   -13916672.80709 -10677787.83501     -1835.781  
  23290511.477    23290517.102      694758.94009    708389.83009      2953.906  
  20724065.086    20724069.059   -16552194.28501 -12721849.31701      1064.922  
 98 11 22 11 46 40.0000000  0  7G26G13G10G17G02G19G27
  22285518.617    22285522.906    -9656478.07409  -7362001.56909     -2718.516  
  20986514.594    20986517.254   -12821602.24009  -8068811.70907      1449.578  
  21168333.578    21168338.570   -11340392.94201  -3679007.70901      1751.688  
  24248903.258    24248911.301    -2476936.42309  -1644240.71409      -703.234  
  21968054.898    21968060.172   -13925848.11409 -10684937.41601     -1834.594  
  23293321.797    23293327.574      709528.12109    719898.27309      2953.516  
  20725078.813    20725082.809   -16546866.53201 -12717697.82301      1065.922  
 98 11 22 11 46 45.0000000  0  7G26G13G10G17G02G19G27
  22282932.414    22282936.762    -9670068.39409  -7372591.42609     -2717.969  
  20987894.750    20987897.504   -12814349.04009  -8063159.86807      1451.313  
  21170001.563    21170006.672   -11331627.14901  -3672177.22301      1754.219  
  24248235.969    24248244.762    -2480443.39309  -1646973.39809      -699.969  
  21966310.320    21966315.793   -13935015.31709 -10692080.68209     -1832.703  
  23296132.641    23296138.664      724297.64309    731406.98209      2953.906  
  20726094.063    20726097.977   -16541531.52901 -12713540.67702      1067.672  
 98 11 22 11 46 50.0000000  0  7G26G13G10G17G02G19G27
  22280346.844    22280351.098    -9683656.30209  -7383179.40709     -2717.281  
  20989276.773    20989279.422   -12807087.53509  -8057501.55506      1453.219  
  21171672.008    21171676.953   -11322849.17701  -3665337.24901      1756.891  
  24247572.023    24247579.000    -2483934.77609  -1649693.93209      -696.625  
  21964567.594    21964573.242   -13944173.54409 -10699216.95509     -1830.672  
  23298943.531    23298948.980      739068.61709    742916.82909      2954.438  
  20727110.781    20727114.918   -16536188.41901 -12709377.21301      1069.484  
 98 11 22 11 46 55.0000000  0  7G26G13G10G17G02G19G27
  22277761.469    22277765.875    -9697241.22909  -7393765.06009     -2716.734  
  20990659.992    20990662.652   -12799816.98709  -8051836.19506      1454.969  
  21173345.000    21173350.051   -11314058.20401  -3658487.14201      1759.438  
  24246911.555    24246917.789    -2487409.95109  -1652401.82309      -693.484  
  21962826.828    21962832.430   -13953321.94309 -10706345.56909     -1828.719  
  23301754.344    23301760.016      753841.88309    754428.44509      2954.828  
  20728129.117    20728133.301   -16530836.72701 -12705207.06401      1071.125  
 98 11 22 11 47  0.0000000  0  7G26G13G10G17G02G19G27
  22275176.727    22275180.922    -9710824.04609  -7404349.06809     -2716.641  
  20992045.258    20992047.895   -12792538.18709  -8046164.40607      1456.297  
  21175019.852    21175024.938   -11305255.23401  -3651627.68701      1761.484  
  24246251.602    24246258.445    -2490869.74909  -1655097.75809      -690.750  
  21961087.727    21961093.305   -13962461.27809 -10713467.11909     -1827.281  
  23304566.414    23304571.523      768616.62609    765941.23009      2954.766  
  20729148.992    20729153.105   -16525477.54601 -12701031.07901      1072.281  
 98 11 22 11 47  5.0000000  0  7G26G13G10G17G02G19G27
  22272592.469    22272596.852    -9724405.51409  -7414932.02909     -2716.219  
  20993431.813    20993434.496   -12785251.89509  -8040486.77907      1457.969  
  21176697.367    21176702.488   -11296441.25601  -3644759.65501      1763.844  
  24245596.734    24245603.758    -2494315.15009  -1657782.45009      -687.688  
  21959350.063    21959355.500   -13971592.60701 -10720582.43001     -1825.516  
  23307378.117    23307383.438      783391.78409    777454.33909      2955.031  
  20730170.211    20730174.324   -16520111.81401 -12696849.99101      1073.734  
 98 11 22 11 47 10.0000000  0  7G26G13G10G17G02G19G27
  22270008.055    22270012.531    -9737985.54009  -7425513.86909     -2716.031  
  20994819.703    20994822.281   -12777957.92509  -8034803.16507      1459.391  
  21178376.781    21178382.020   -11287616.18001  -3637882.97601      1765.984  
  24244944.297    24244949.418    -2497746.12009  -1660455.96809      -684.922  
  21957613.961    21957619.398   -13980715.53509 -10727691.19601     -1823.875  
  23310189.664    23310195.219      798167.53909    788967.91709      2955.047  
  20731192.609    20731196.770   -16514739.37201 -12692663.67401      1075.016  
 98 11 22 11 47 15.0000000  0  7G26G13G10G17G02G19G27
  22267424.266    22267428.227    -9751564.54209  -7436094.90709     -2715.672  
  20996209.297    20996211.969   -12770656.95209  -8029114.09906      1460.922  
  21180057.852    21180063.008   -11278780.47901  -3630998.01901      1768.234  
  24244294.211    24244299.309    -2501163.15309  -1663118.60809      -681.984  
  21955879.492    21955884.930   -13989830.26409 -10734793.57101     -1822.078  
  23313001.406    23313007.254      812943.31909    800481.51409      2955.188  
  20732216.180    20732220.293   -16509360.67701 -12688472.48401      1076.391  
 98 11 22 11 47 20.0000000  0  7G26G13G10G17G02G19G27
  22264840.227    22264844.527    -9765142.21809  -7446674.90809     -2715.328  
  20997599.898    20997602.430   -12763348.83209  -8023419.46406      1462.406  
  21181741.328    21181746.391   -11269933.98501  -3624104.64901      1770.438  
  24243646.047    24243652.316    -2504566.01909  -1665770.16109      -679.094  
  21954146.688    21954152.113   -13998936.31701 -10741889.19001     -1820.281  
  23315813.195    23315818.715      827719.36109    811995.31909      2955.313  
  20733240.938    20733244.922   -16503975.50201 -12684276.24101      1077.766  
 98 11 22 11 47 25.0000000  0  7G26G13G10G17G02G19G27
  22262256.977    22262261.102    -9778716.71909  -7457252.44109     -2714.891  
  20998992.164    20998994.660   -12756031.90509  -8017717.96107      1463.922  
  21183427.102    21183432.258   -11261075.11001  -3617201.63401      1772.672  
  24243001.922    24243008.273    -2507953.00309  -1668409.37509      -676.141  
  21952415.688    21952420.996   -14008031.88809 -10748976.64009     -1818.391  
  23318625.656    23318631.164      842497.54009    823510.76609      2955.516  
  20734267.383    20734271.402   -16498582.12801 -12680073.61201      1079.156  
 98 11 22 11 47 30.0000000  0  7G26G13G10G17G02G19G27
  22259674.641    22259678.613    -9792289.07409  -7467828.29909     -2714.203  
  21000385.938    21000388.492   -12748707.39409  -8012010.55307      1465.734  
  21185115.055    21185120.223   -11252205.07501  -3610289.92101      1775.219  
  24242359.477    24242365.512    -2511325.46709  -1671037.27409      -673.000  
  21950686.758    21950692.102   -14017118.21609 -10756056.88601     -1816.281  
  23321437.406    23321442.738      857276.52009    835026.85309      2955.938  
  20735294.914    20735298.969   -16493181.96601 -12675865.69402      1080.781  
 98 11 22 11 47 35.0000000  0  7G26G13G10G17G02G19G27
  22257092.461    22257096.387    -9805858.79809  -7478402.11009     -2713.703  
  21001781.469    21001784.059   -12741374.68609  -8006296.75507      1467.375  
  21186805.328    21186810.484   -11243323.06201  -3603368.87501      1777.609  
  24241721.211    24241729.629    -2514683.12509  -1673653.63609      -670.047  
  21948959.422    21948964.848   -14026194.73701 -10763129.48501     -1814.328  
  23324249.625    23324254.688      872056.76809    846543.91809      2956.141  
  20736323.773    20736327.734   -16487774.53201 -12671652.11101      1082.203  
 98 11 22 11 47 40.0000000  0  7G26G13G10G17G02G19G27
  22254510.461    22254514.539    -9819425.44609  -7488973.52409     -2713.156  
  21003178.398    21003181.000   -12734032.90409  -8000575.88606      1469.094  
  21188497.742    21188502.898   -11234428.18401  -3596437.80301      1780.109  
  24241084.742    24241091.648    -2518025.54609  -1676258.09809      -667.141  
  21947234.219    21947239.668   -14035260.92201 -10770194.03301     -1812.391  
  23327063.047    23327068.543      886838.73209    858062.31509      2956.391  
  20737354.117    20737358.066   -16482359.10701 -12667432.29801      1083.719  
 98 11 22 11 47 45.0000000  0  7G26G13G10G17G02G19G27
  22251929.250    22251933.855    -9832989.34609  -7499542.78709     -2712.609  
  21004577.141    21004579.742   -12726682.57209  -7994848.35206      1470.828  
  21190193.031    21190198.199   -11225520.83901  -3589497.01801      1782.609  
  24240451.492    24240458.148    -2521353.41209  -1678851.16409      -664.234  
  21945510.961    21945516.363   -14044317.53609 -10777251.12701     -1810.469  
  23329876.414    23329882.590      901621.77309    869581.56509      2956.609  
  20738385.945    20738389.813   -16476936.34701 -12663206.77001      1085.172  
 98 11 22 11 47 50.0000000  0  7G26G13G10G17G02G19G27
  22249348.789    22249353.605    -9846550.67009  -7510110.04709     -2712.281  
  21005977.508    21005979.980   -12719323.70109  -7989114.16906      1472.391  
  21191890.391    21191895.570   -11216601.02901  -3582546.51901      1784.953  
  24239821.172    24239825.285    -2524666.94309  -1681433.17009      -661.500  
  21943789.258    21943794.461   -14053364.46001 -10784300.66901     -1808.641  
  23332689.391    23332695.613      916405.72909    881101.53409      2956.625  
  20739419.289    20739423.285   -16471506.14701 -12658975.44401      1086.578  
 98 11 22 11 47 55.0000000  0  7G26G13G10G17G02G19G27
  22246768.281    22246773.145    -9860110.35309  -7520676.03609     -2711.906  
  21007379.422    21007381.988   -12711957.04909  -7983373.91906      1473.953  
  21193589.961    21193595.070   -11207669.57001  -3575586.94601      1787.328  
  24239193.289    24239199.430    -2527966.85009  -1684004.53109      -658.781  
  21942069.367    21942074.605   -14062402.25501 -10791343.09601     -1806.813  
  23335502.813    23335509.047      931189.68909    892621.52209      2956.625  
  20740454.023    20740458.066   -16466068.92001 -12654738.64201      1088.016  
 98 11 22 11 48  0.0000000  0  7G26G13G10G17G02G19G27
  22244188.008    22244192.848    -9873669.51209  -7531241.60909     -2711.453  
  21008782.422    21008784.941   -12704583.81209  -7977628.54106      1475.656  
  21195291.594    21195296.773   -11198727.40401  -3568619.02701      1789.859  
  24238567.555    24238575.363    -2531254.54309  -1686566.36209      -656.016  
  21940350.727    21940355.953   -14071432.16401 -10798379.37901     -1804.844  
  23338315.625    23338321.813      945972.30709    904140.43509      2956.750  
  20741490.031    20741494.309   -16460625.74701 -12650497.21001      1089.578  
 98 11 22 11 48  5.0000000  0  7G26G13G10G17G02G19G27
  22241608.383    22241612.965    -9887225.89509  -7541805.01909     -2711.422  
  21010187.375    21010190.035   -12697201.54409  -7971876.12607      1476.969  
  21196995.703    21197000.918   -11189771.97201  -3561640.77001      1792.031  
  24237944.445    24237952.313    -2534527.88109  -1689117.01909      -653.641  
  21938634.742    21938639.945   -14080451.69001 -10805407.57001     -1803.250  
  23341129.203    23341135.813      960756.09009    915660.24909      2956.484  
  20742527.438    20742531.750   -16455174.17401 -12646249.23401      1090.750  
 98 11 22 11 48 10.0000000  0  7G26G13G10G17G02G19G27
  22239028.758    22239033.469    -9900781.80809  -7552368.06309     -2711.000  
  21011593.383    21011596.102   -12689812.62609  -7966118.52807      1478.578  
  21198702.016    21198707.125   -11180805.27201  -3554653.73801      1794.609  
  24237323.773    24237330.266    -2537789.28409  -1691658.37509      -650.953  
  21936919.945    21936925.172   -14089462.97301 -10812429.33901     -1801.313  
  23343942.289    23343948.441      975538.96309    927179.37409      2956.625  
  20743566.055    20743570.262   -16449716.48801 -12641996.49401      1092.281  
 98 11 22 11 48 15.0000000  0  7G26G13G10G17G02G19G27
  22236449.219    22236453.824    -9914337.08709  -7562930.61409     -2710.891  
  21013000.797    21013003.586   -12682416.85909  -7960355.59507      1479.938  
  21200410.719    21200415.828   -11171826.87101  -3547657.57901      1796.953  
  24236706.367    24236713.988    -2541038.73609  -1694190.41309      -648.594  
  21935206.789    21935212.063   -14098465.93301 -10819444.62301     -1799.672  
  23346755.180    23346760.688      990321.10209    938697.90909      2956.453  
  20744605.672    20744609.926   -16444252.40901 -12637738.76901      1093.563  
 98 11 22 11 48 20.0000000  0  7G26G13G10G17G02G19G27
  22233870.523    22233874.988    -9927890.03009  -7573491.34509     -2710.734  
  21014409.727    21014412.422   -12675012.65209  -7954586.08706      1481.281  
  21202121.672    21202126.840   -11162835.02701  -3540650.95101      1799.313  
  24236090.711    24236098.191    -2544274.59909  -1696711.87109      -646.234  
  21933495.398    21933500.684   -14107459.01701 -10826452.21001     -1798.031  
  23349568.734    23349574.582     1005104.22709    950217.20609      2956.328  
  20745647.078    20745651.215   -16438780.13001 -12633474.65801      1094.875  
 98 11 22 11 48 25.0000000  0  7G26G13G10G17G02G19G27
  22231291.508    22231295.984    -9941442.98209  -7584052.08109     -2710.469  
  21015819.789    21015822.484   -12667602.63509  -7948812.05006      1482.688  
  21203835.016    21203840.160   -11153832.30301  -3533635.84301      1801.750  
  24235476.836    24235481.477    -2547499.33509  -1699224.64309      -643.703  
  21931785.570    21931790.668   -14116444.64501 -10833453.98601     -1796.266  
  23352381.094    23352387.199     1019885.88609    961735.38209      2956.328  
  20746689.469    20746693.605   -16433302.10201 -12629206.06601      1096.297  
 98 11 22 11 48 30.0000000  0  7G26G13G10G17G02G19G27
  22228712.781    22228717.129    -9954993.94009  -7594611.26509     -2709.969  
  21017231.438    21017234.133   -12660184.96709  -7943032.04906      1484.313  
  21205550.484    21205555.582   -11144816.74901  -3526610.74001      1804.391  
  24234864.898    24234871.402    -2550711.14109  -1701727.33809      -641.063  
  21930077.227    21930082.324   -14125421.06701 -10840448.59001     -1794.375  
  23355194.227    23355200.133     1034668.13909    973254.02109      2956.484  
  20747733.383    20747737.531   -16427816.59901 -12624931.64901      1097.844  
 98 11 22 11 48 35.0000000  0  7G26G13G10G17G02G19G27
  22226134.703    22226139.004    -9968542.15209  -7605168.30809     -2709.406  
  21018644.234    21018646.836   -12652759.15009  -7937245.69706      1485.922  
  21207268.641    21207273.832   -11135787.94801  -3519575.31301      1807.047  
  24234256.117    24234262.715    -2553909.54309  -1704219.58309      -638.406  
  21928370.938    21928376.059   -14134388.00001 -10847435.79801     -1792.516  
  23358007.516    23358013.410     1049451.21909    984773.30809      2956.641  
  20748778.727    20748782.852   -16422323.33101 -12620651.18101      1099.375  
 98 11 22 11 48 40.0000000  0  7G26G13G10G17G02G19G27
  22223557.141    22223561.523    -9982088.45709  -7615723.87009     -2709.109  
  21020058.703    21020061.316   -12645326.19409  -7931453.78306      1487.266  
  21208989.016    21208994.148   -11126746.81201  -3512530.27601      1809.422  
  24233649.719    24233657.363    -2557095.59309  -1706702.18409      -636.000  
  21926666.266    21926671.457   -14143346.49801 -10854416.43601     -1790.875  
  23360820.531    23360826.602     1064234.37909    996292.65409      2956.609  
  20749825.258    20749829.219   -16416823.21701 -12616365.37701      1100.672  
 98 11 22 11 48 45.0000000  0  7G26G13G10G17G02G19G27
  22220979.992    22220984.363    -9995631.32909  -7626276.75709     -2708.188  
  21021474.891    21021477.480   -12637884.66709  -7925655.19106      1489.188  
  21210712.086    21210717.207   -11117691.80501  -3505474.43201      1812.422  
  24233046.617    24233054.273    -2560267.90209  -1709174.10209      -633.047  
  21924963.375    21924968.520   -14152294.89901 -10861389.20501     -1788.625  
  23363634.016    23363639.840     1079019.09009   1007813.20209      2957.094  
  20750873.375    20750877.336   -16411314.65801 -12612072.99601      1102.578  
 98 11 22 11 48 50.0000000  0  7G26G13G10G17G02G19G27
  22218403.211    22218407.594   -10009171.96909  -7636827.90509     -2708.141  
  21022892.227    21022894.840   -12630436.13509  -7919851.14606      1490.156  
  21212437.750    21212442.742   -11108624.38301  -3498408.91301      1814.453  
  24232445.406    24232452.582    -2563427.75909  -1711636.34909      -630.984  
  21923262.109    21923267.313   -14161234.60201 -10868355.19701     -1787.344  
  23366447.289    23366453.242     1093803.71009   1019333.67609      2956.641  
  20751923.148    20751927.227   -16405799.16701 -12607775.21201      1103.516  
 98 11 22 11 48 55.0000000  0  7G26G13G10G17G02G19G27
  22215826.836    22215831.207   -10022712.30609  -7647378.81109     -2707.719  
  21024310.648    21024313.332   -12622982.81809  -7914043.36906      1491.438  
  21214165.227    21214169.996   -11099546.95801  -3491335.59701      1816.781  
  24231846.008    24231851.750    -2566577.12909  -1714090.41209      -628.516  
  21921562.164    21921567.285   -14170167.74701 -10875316.07701     -1785.641  
  23369260.617    23369266.242     1108586.13709   1030852.43709      2956.578  
  20752973.719    20752977.867   -16400279.05401 -12603473.82701      1104.781  
 98 11 22 11 49  0.0000000  0  7G26G13G10G17G02G19G27
  22213250.547    22213254.531   -10036250.42909  -7657927.98909     -2707.156  
  21025730.219    21025732.879   -12615522.85109  -7908230.40906      1492.891  
  21215894.813    21215899.477   -11090457.76001  -3484253.10701      1819.250  
  24231249.109    24231254.922    -2569714.17209  -1716534.84509      -625.953  
  21919864.063    21919869.172   -14179092.27101 -10882270.23901     -1783.813  
  23372073.234    23372078.895     1123368.29009   1042370.99109      2956.641  
  20754025.148    20754029.180   -16394752.59001 -12599167.49501      1106.156  
 98 11 22 11 49  5.0000000  0  7G26G13G10G17G02G19G27
  22210674.359    22210678.508   -10049786.76909  -7668475.78609     -2707.109  
  21027150.805    21027153.383   -12608056.83709  -7902412.73406      1493.750  
  21217626.375    21217631.086   -11081357.44201  -3477161.95101      1821.156  
  24230653.539    24230658.707    -2572839.56209  -1718970.21509      -623.953  
  21918167.125    21918172.270   -14188008.54501 -10889217.97301     -1782.453  
  23374885.914    23374891.949     1138149.49009   1053888.80409      2956.078  
  20755077.953    20755081.902   -16389220.22901 -12594856.56902      1107.031  
 98 11 22 11 49 10.0000000  0  7G26G13G10G17G02G19G27
  22208099.195    22208103.496   -10063321.54009  -7679022.35709     -2707.016  
  21028572.773    21028575.387   -12600585.30609  -7896590.76306      1494.625  
  21219360.227    21219364.984   -11072246.17201  -3470062.26301      1823.141  
  24230061.633    24230068.102    -2575953.46109  -1721396.63109      -621.828  
  21916472.102    21916477.117   -14196916.75301 -10896159.42501     -1781.031  
  23377698.734    23377704.734     1152929.26009   1065405.50709      2955.609  
  20756131.953    20756135.926   -16383682.14301 -12590541.18002      1108.000  
 98 11 22 11 49 15.0000000  0  7G26G13G10G17G02G19G27
  22205523.344    22205527.492   -10076856.60909  -7689569.16309     -2706.859  
  21029995.000    21029997.473   -12593110.29009  -7890766.07806      1495.563  
  21221095.727    21221100.426   -11063125.97001  -3462955.61601      1825.109  
  24229470.781    24229476.430    -2579057.74009  -1723815.55509      -619.688  
  21914778.000    21914783.121   -14205818.58301 -10903095.90501     -1779.531  
  23380510.422    23380516.422     1167705.79709   1076919.68609      2955.156  
  20757186.742    20757190.609   -16378139.97001 -12586222.60301      1109.047  
 98 11 22 11 49 20.0000000  0  7G26G13G10G17G02G19G27
  22202948.195    22202952.344   -10090389.88709  -7700114.57309     -2706.297  
  21031418.656    21031421.152   -12585629.84509  -7884937.15906      1496.797  
  21222833.281    21222838.191   -11053995.08201  -3455840.64001      1827.453  
  24228882.875    24228889.719    -2582150.57309  -1726225.54009      -617.266  
  21913085.758    21913090.773   -14214712.17801 -10910025.96801     -1777.703  
  23383322.773    23383328.961     1182480.87109   1088432.71909      2955.031  
  20758242.359    20758246.238   -16372591.70101 -12581899.27602      1110.469  
 98 11 22 11 49 25.0000000  0  7G26G13G10G17G02G19G27
  22200373.102    22200377.145   -10103921.58209  -7710658.75109     -2706.156  
  21032843.188    21032845.754   -12578144.24409  -7879104.22106      1497.641  
  21224572.922    21224577.926   -11044853.46601  -3448717.30401      1829.406  
  24228296.070    24228303.188    -2585232.16209  -1728626.76709      -615.156  
  21911394.711    21911399.867   -14223597.65709 -10916949.70901     -1776.266  
  23386133.695    23386139.672     1197254.40409   1099944.57509      2954.609  
  20759299.266    20759303.250   -16367037.23201 -12577571.12001      1111.547  
 98 11 22 11 49 30.0000000  0  7G26G13G10G17G02G19G27
  22197798.484    22197802.551   -10117451.41609  -7721201.47109     -2705.453  
  21034268.758    21034271.289   -12570653.36509  -7873267.17506      1499.016  
  21226314.563    21226319.766   -11035701.02901  -3441585.53901      1831.891  
  24227711.344    24227718.648    -2588302.16509  -1731018.95309      -612.516  
  21909705.523    21909710.785   -14232474.88201 -10923867.01101     -1774.328  
  23388943.992    23388950.191     1212026.82909   1111455.54709      2954.672  
  20760357.617    20760361.672   -16361476.24801 -12573237.88801      1113.172  
 98 11 22 11 49 35.0000000  0  7G26G13G10G17G02G19G27
  22195224.164    22195228.559   -10130979.48209  -7731742.81709     -2705.313  
  21035695.039    21035697.512   -12563157.42809  -7867426.18506      1499.813  
  21228058.273    21228063.453   -11026537.92601  -3434445.46101      1833.781  
  24227129.180    24227137.258    -2591360.79709  -1733402.30209      -610.531  
  21908017.781    21908023.160   -14241344.39901 -10930778.31201     -1773.063  
  23391755.383    23391761.137     1226797.92009   1122965.48509      2954.203  
  20761417.016    20761421.176   -16355908.82701 -12568899.64101      1114.234  
 98 11 22 11 49 40.0000000  0  7G26G13G10G17G02G19G27
  22192650.258    22192654.523   -10144506.20809  -7742283.12409     -2704.938  
  21037122.273    21037124.746   -12555656.57509  -7861581.36506      1500.953  
  21229803.633    21229808.789   -11017364.66501  -3427297.47201      1835.953  
  24226550.258    24226559.016    -2594408.71209  -1735777.31509      -608.219  
  21906331.172    21906336.434   -14250206.93601 -10937684.17501     -1771.531  
  23394565.906    23394571.473     1241567.38509   1134474.14009      2954.000  
  20762477.836    20762482.055   -16350335.51101 -12564556.80201      1115.531  
 98 11 22 11 49 45.0000000  0  7G26G13G10G17G02G19G27
  22190076.563    22190080.652   -10158030.10809  -7752821.22809     -2704.563  
  21038551.195    21038553.492   -12548149.27009  -7855731.52006      1502.031  
  21231551.656    21231556.766   -11008179.71501  -3420140.37201      1838.094  
  24225972.289    24225980.461    -2597444.39209  -1738142.78609      -605.984  
  21904646.148    21904651.363   -14259061.21801 -10944583.59901     -1770.109  
  23397376.445    23397382.316     1256336.41309   1145982.45609      2953.703  
  20763539.539    20763543.770   -16344754.99701 -12560208.35202      1116.750  
 98 11 22 11 49 50.0000000  0  7G26G13G10G17G02G19G27
  22187503.172    22187506.980   -10171551.91909  -7763357.69809     -2704.172  
  21039980.680    21039983.000   -12540636.03509  -7849877.05206      1503.266  
  21233301.602    21233306.770   -10998983.54301  -3412974.52701      1840.375  
  24225396.797    24225405.391    -2600468.35209  -1740499.10209      -603.609  
  21902962.852    21902967.984   -14267907.81501 -10951477.04201     -1768.547  
  23400186.852    23400192.816     1271104.58509   1157490.09909      2953.563  
  20764602.805    20764606.941   -16339167.73501 -12555854.64302      1118.156  
 98 11 22 11 49 55.0000000  0  7G26G13G10G17G02G19G27
  22184930.633    22184934.512   -10185069.77609  -7773891.09009     -2703.188  
  21041412.000    21041414.414   -12533114.77909  -7844016.33106      1505.016  
  21235053.813    21235059.063   -10989774.26901  -3405798.47701      1843.109  
  24224824.703    24224834.246    -2603478.48909  -1742844.63209      -600.656  
  21901281.336    21901286.387   -14276744.62701 -10958362.86001     -1766.406  
  23402996.859    23403002.086     1285874.15409   1168998.85209      2954.031  
  20765667.805    20765671.965   -16333571.60601 -12551494.02102      1120.094  
 98 11 22 11 50  0.0000000  0  7G26G13G10G17G02G19G27
  22182358.656    22182362.758   -10198585.97309  -7784423.18709     -2702.828  
  21042844.203    21042846.617   -12525588.03409  -7838151.33305      1506.125  
  21236808.664    21236814.078   -10980554.52801  -3398614.26801      1845.219  
  24224252.953    24224262.039    -2606477.10909  -1745181.22309      -598.344  
  21899601.242    21899606.387   -14285574.04301 -10965242.91101     -1764.906  
  23405807.648    23405813.238     1300642.99709   1180507.03709      2953.953  
  20766733.828    20766738.047   -16327968.99301 -12547128.35002      1121.391  
 98 11 22 11 50  5.0000000  0  7G26G13G10G17G02G19G27
  22179787.766    22179791.738   -10212097.08109  -7794951.32809     -2701.922  
  21044278.164    21044280.672   -12518052.63109  -7832279.58905      1507.734  
  21238565.727    21238571.199   -10971321.16401  -3391419.44501      1847.813  
  24223684.984    24223692.289    -2609460.89309  -1747506.24809      -595.484  
  21897922.859    21897928.016   -14294392.56901 -10972114.47601     -1762.813  
  23408618.820    23408624.750     1315414.78809   1192017.51109      2954.469  
  20767801.898    20767806.012   -16322356.77501 -12542755.19602      1123.219  
 98 11 22 11 50 10.0000000  0  7G26G13G10G17G02G19G27
  22177216.969    22177221.047   -10225606.96709  -7805478.50709     -2701.828  
  21045713.172    21045715.656   -12510512.43509  -7826404.11605      1508.531  
  21240324.281    21240329.648   -10962078.15901  -3384217.10901      1849.594  
  24223119.484    24223125.965    -2612433.59109  -1749822.64909      -593.375  
  21896246.094    21896251.203   -14303203.82801 -10978980.38101     -1761.500  
  23411429.516    23411435.867     1330185.87809   1203527.45809      2954.188  
  20768870.859    20768875.066   -16316738.71001 -12538377.48601      1124.219  
 98 11 22 11 50 15.0000000  0  7G26G13G10G17G02G19G27
  22174646.625    22174650.879   -10239114.98209  -7816004.23209     -2701.344  
  21047148.867    21047151.305   -12502967.03209  -7820524.58305      1509.672  
  21242085.258    21242090.754   -10952825.05201  -3377006.90301      1851.703  
  24222555.844    24222564.051    -2615394.42809  -1752129.78809      -590.938  
  21894570.930    21894576.086   -14312007.25101 -10985840.17901     -1759.828  
  23414240.195    23414246.102     1344956.95609   1215037.38909      2954.281  
  20769941.211    20769945.406   -16311114.28301 -12533994.81601      1125.578  
 98 11 22 11 50 20.0000000  0  7G26G13G10G17G02G19G27
  22172076.195    22172080.707   -10252619.95009  -7826527.57209     -2700.656  
  21048585.992    21048588.477   -12495415.20909  -7814640.04606      1511.031  
  21243847.977    21243853.484   -10943560.84301  -3369788.04201      1853.938  
  24221995.797    24222003.137    -2618342.19709  -1754426.74009      -588.219  
  21892897.469    21892902.730   -14320801.70101 -10992692.98401     -1757.969  
  23417051.328    23417057.422     1359729.37109   1226548.35009      2954.641  
  20771012.945    20771017.164   -16305482.40501 -12529606.34302      1127.125  
 98 11 22 11 50 25.0000000  0  7G26G13G10G17G02G19G27
  22169507.430    22169511.848   -10266121.35709  -7837048.14309     -2699.938  
  21050024.484    21050027.027   -12487856.32909  -7808750.00905      1512.453  
  21245613.125    21245618.598   -10934285.30901  -3362560.35801      1856.219  
  24221437.547    24221444.957    -2621276.04909  -1756712.80809      -585.375  
  21891225.867    21891231.199   -14329586.54301 -10999538.30401     -1756.016  
  23419863.273    23419868.770     1374503.70609   1238060.78909      2955.047  
  20772086.195    20772090.449   -16299842.63101 -12525211.71802      1128.734  
 98 11 22 11 50 30.0000000  0  7G26G13G10G17G02G19G27
  22166938.297    22166942.352   -10279620.55109  -7847566.99309     -2699.625  
  21051463.719    21051466.332   -12480291.91209  -7802855.65906      1513.438  
  21247380.219    21247385.703   -10925000.12401  -3355325.15401      1857.969  
  24220881.281    24220885.980    -2624197.12509  -1758989.00109      -582.953  
  21889555.594    21889560.832   -14338363.23201 -11006377.27401     -1754.547  
  23422674.422    23422679.777     1389278.60109   1249573.67509      2955.000  
  20773160.727    20773165.004   -16294196.35901 -12520812.02803      1129.891  
 98 11 22 11 50 35.0000000  0  7G26G13G10G17G02G19G27
  22164370.266    22164374.602   -10293117.21009  -7858083.86709     -2699.094  
  21052904.281    21052906.801   -12472721.58209  -7796956.70106      1514.656  
  21249149.063    21249154.594   -10915705.26201  -3348082.41001      1859.906  
  24220327.547    24220334.051    -2627104.96609  -1761254.84709      -580.234  
  21887887.070    21887892.273   -14347131.54501 -11013209.71301     -1752.844  
  23425486.445    23425492.199     1404054.10909   1261087.04909      2955.172  
  20774236.438    20774240.621   -16288543.31202 -12516407.06003      1131.266  
 98 11 22 11 50 40.0000000  0  7G26G13G10G17G02G19G27
  22161802.156    22161806.340   -10306611.44909  -7868598.85509     -2698.438  
  21054346.180    21054348.852   -12465145.39509  -7791053.17805      1515.984  
  21250919.586    21250925.152   -10906401.04501  -3340832.37601      1861.938  
  24219777.023    24219783.977    -2629999.48509  -1763510.29109      -577.391  
  21886220.102    21886225.246   -14355891.52201 -11020035.65801     -1751.000  
  23428297.867    23428303.457     1418830.08709   1272600.77709      2955.375  
  20775313.359    20775317.414   -16282883.78702 -12511997.04103      1132.688  
 98 11 22 11 50 45.0000000  0  7G26G13G10G17G02G19G27
  22159234.805    22159239.152   -10320102.30609  -7879111.20409     -2697.953  
  21055789.242    21055791.867   -12457562.43609  -7785144.37905      1517.188  
  21252691.648    21252697.191   -10897086.74201  -3333574.48301      1863.781  
  24219228.320    24219236.223    -2632879.77509  -1765754.65209      -574.719  
  21884554.781    21884559.820   -14364642.24601 -11026854.39501     -1749.297  
  23431109.719    23431115.543     1433607.15909   1284115.36709      2955.422  
  20776391.680    20776395.699   -16277217.11202 -12507581.45203      1133.953  
 98 11 22 11 50 50.0000000  0  7G26G13G10G17G02G19G27
  22156668.203    22156672.398   -10333590.42909  -7889621.42209     -2697.547  
  21057233.297    21057235.898   -12449973.13309  -7779230.63706      1518.281  
  21254466.203    21254471.688   -10887762.85201  -3326309.11701      1865.484  
  24218683.266    24218690.992    -2635746.08909  -1767988.16009      -572.047  
  21882891.172    21882896.328   -14373384.10001 -11033666.21901     -1747.688  
  23433921.898    23433927.723     1448384.70809   1295630.32909      2955.328  
  20777471.148    20777475.145   -16271543.75501 -12503160.65602      1135.141  
 98 11 22 11 50 55.0000000  0  7G26G13G10G17G02G19G27
  22154102.438    22154106.352   -10347074.71409  -7900128.65209     -2696.563  
  21058678.898    21058681.488   -12442376.38709  -7773311.09406      1520.031  
  21256242.672    21256248.063   -10878428.47501  -3319035.58201      1867.875  
  24218140.695    24218148.891    -2638597.00409  -1770209.66709      -568.719  
  21881229.602    21881234.793   -14382115.92801 -11040470.22801     -1745.438  
  23436734.250    23436739.781     1463163.60509   1307146.35709      2955.844  
  20778552.016    20778556.141   -16265862.57201 -12498733.76203      1136.953  
 98 11 22 11 51  0.0000000  0  7G26G13G10G17G02G19G27
  22151536.852    22151540.953   -10360557.23509  -7910634.50809     -2696.328  
  21060125.594    21060128.230   -12434774.04309  -7767387.18905      1521.063  
  21258020.711    21258026.113   -10869085.42101  -3311755.28301      1869.516  
  24217600.109    24217607.508    -2641434.39309  -1772420.61609      -566.078  
  21879569.633    21879574.918   -14390839.71201 -11047267.97301     -1743.922  
  23439546.789    23439552.414     1477942.08309   1318662.05009      2955.656  
  20779634.398    20779638.629   -16260175.55401 -12494302.32403      1138.000  
 98 11 22 11 51  5.0000000  0  7G26G13G10G17G02G19G27
  22148971.641    22148975.707   -10374038.07809  -7921139.05709     -2695.625  
  21061573.266    21061575.926   -12427166.14909  -7761458.95905      1522.469  
  21259800.141    21259805.602   -10859733.69401  -3304468.22801      1871.547  
  24217063.930    24217071.586    -2644258.05009  -1774620.88109      -562.969  
  21877911.039    21877916.395   -14399555.53701 -11054059.51401     -1742.031  
  23442358.672    23442364.449     1492720.01009   1330177.30909      2955.906  
  20780717.719    20780721.867   -16254482.74702 -12489866.37302      1139.500  
 98 11 22 11 51 10.0000000  0  7G26G13G10G17G02G19G27
  22146406.688    22146410.508   -10387515.69709  -7931641.08909     -2695.281  
  21063022.484    21063025.063   -12419551.33409  -7755525.33806      1523.578  
  21261581.555    21261586.934   -10850371.93201  -3297173.35301      1873.281  
  24216529.219    24216536.887    -2647066.40409  -1776809.20409      -560.219  
  21876254.133    21876259.629   -14408262.11801 -11060843.85101     -1740.484  
  23445170.984    23445176.059     1507499.04809   1341693.42109      2955.844  
  20781802.234    20781806.406   -16248782.59801 -12485424.70402      1140.688  
 98 11 22 11 51 15.0000000  0  7G26G13G10G17G02G19G27
  22143842.961    22143847.027   -10400989.83609  -7942140.41209     -2694.766  
  21064472.938    21064475.375   -12411929.28409  -7749586.07907      1524.844  
  21263365.063    21263370.371   -10840999.69501  -3289870.31601      1875.219  
  24215997.500    24216004.238    -2649859.25609  -1778985.41609      -557.328  
  21874599.008    21874604.445   -14416959.16501 -11067620.76001     -1738.734  
  23447984.039    23447988.773     1522279.59309   1353210.71609      2955.969  
  20782888.641    20782892.777   -16243074.56701 -12480976.88903      1142.109  
 98 11 22 11 51 20.0000000  0  7G26G13G10G17G02G19G27
  22141278.914    22141282.992   -10414462.61909  -7952638.68109     -2694.297  
  21065924.242    21065926.809   -12404301.99509  -7743642.73706      1526.109  
  21265150.281    21265155.461   -10831618.88801  -3282560.60001      1877.125  
  24215469.328    24215477.102    -2652638.59809  -1781151.15409      -554.406  
  21872945.461    21872950.969   -14425648.64901 -11074391.77601     -1737.031  
  23450796.703    23450801.742     1537059.72209   1364727.69809      2956.094  
  20783976.000    20783980.020   -16237360.49701 -12476524.37002      1143.547  
 98 11 22 11 51 25.0000000  0  7G26G13G10G17G02G19G27
  22138715.406    22138719.531   -10427934.86609  -7963136.53209     -2694.156  
  21067376.539    21067379.059   -12396670.06909  -7737695.78106      1527.109  
  21266937.000    21266942.051   -10822230.22701  -3275244.76501      1878.766  
  24214942.484    24214949.438    -2655405.15309  -1783306.91709      -551.781  
  21871293.266    21871298.680   -14434331.44601 -11081157.57801     -1735.656  
  23453608.336    23453614.066     1551838.56309   1376243.66909      2955.875  
  20785064.281    20785068.348   -16231641.20301 -12472067.77902      1144.594  
 98 11 22 11 51 30.0000000  0  7G26G13G10G17G02G19G27
  22136152.094    22136156.301   -10441406.22309  -7973633.69409     -2694.094  
  21068829.844    21068832.387   -12389032.90009  -7731744.73906      1528.047  
  21268724.789    21268729.828   -10812833.34701  -3267922.52301      1880.250  
  24214418.758    24214426.848    -2658158.38909  -1785452.29009      -549.250  
  21869642.289    21869647.668   -14443007.35501 -11087918.01401     -1734.422  
  23456420.602    23456426.789     1566616.51309   1387758.94809      2955.594  
  20786153.820    20786157.711   -16225916.55701 -12467607.01902      1145.531  
 98 11 22 11 51 35.0000000  0  7G26G13G10G17G02G19G27
  22133589.000    22133593.148   -10454874.41309  -7984128.38309     -2693.313  
  21070284.570    21070287.289   -12381388.14209  -7725787.78505      1529.734  
  21270515.125    21270520.129   -10803426.20101  -3260592.27801      1882.484  
  24213896.867    24213903.242    -2660896.31909  -1787585.71809      -546.063  
  21867992.953    21867998.379   -14451674.26701 -11094671.44301     -1732.500  
  23459233.281    23459239.070     1581395.87109   1399275.31809      2956.000  
  20787244.648    20787248.563   -16220184.42601 -12463140.42601      1147.172  
 98 11 22 11 51 40.0000000  0  7G26G13G10G17G02G19G27
  22131026.516    22131030.758   -10468340.17309  -7994621.18209     -2692.734  
  21071740.656    21071743.305   -12373736.48109  -7719825.45305      1531.203  
  21272307.133    21272312.090   -10794009.21601  -3253254.37301      1884.578  
  24213379.672    24213386.766    -2663619.71009  -1789707.84309      -543.031  
  21866345.203    21866350.559   -14460332.99901 -11101418.49701     -1730.734  
  23462046.023    23462051.906     1596175.80009   1410792.12909      2956.219  
  20788336.500    20788340.449   -16214445.64001 -12458668.64702      1148.609  
 98 11 22 11 51 45.0000000  0  7G26G13G10G17G02G19G27
  22128464.742    22128469.254   -10481802.65409  -8005111.41809     -2692.453  
  21073198.117    21073200.672   -12366077.15609  -7713857.15005      1532.359  
  21274101.219    21274106.129   -10784581.66501  -3245908.23601      1886.281  
  24212863.430    24212868.727    -2666327.66609  -1791817.91609      -540.328  
  21864699.258    21864704.391   -14468982.81601 -11108158.60301     -1729.359  
  23464858.523    23464863.469     1610957.05609   1422309.97809      2956.094  
  20789429.875    20789433.895   -16208699.34201 -12454191.01502      1149.719  
 98 11 22 11 51 50.0000000  0  7G26G13G10G17G02G19G27
  22125902.820    22125907.156   -10495264.41409  -8015601.09409     -2692.219  
  21074656.680    21074659.281   -12358412.80509  -7707884.93005      1533.453  
  21275896.531    21275901.406   -10775146.26401  -3238555.97801      1887.938  
  24212351.336    24212356.445    -2669022.78709  -1793918.04809      -537.656  
  21863054.313    21863059.316   -14477626.48601 -11114893.92301     -1728.031  
  23467671.047    23467676.391     1625736.76109   1433826.62409      2955.828  
  20790524.414    20790528.445   -16202948.31901 -12449709.70102      1150.719  
 98 11 22 11 51 55.0000000  0  7G26G13G10G17G02G19G27
  22123341.516    22123345.770   -10508723.95109  -8026089.03609     -2691.438  
  21076116.313    21076118.938   -12350741.94809  -7701907.64405      1535.063  
  21277694.008    21277698.906   -10765701.26601  -3231196.24301      1890.219  
  24211842.039    24211849.684    -2671703.61809  -1796007.02009      -534.500  
  21861411.133    21861416.090   -14486262.08601 -11121622.95201     -1726.031  
  23470483.539    23470489.316     1640516.40209   1445343.21909      2956.188  
  20791620.016    20791624.188   -16197191.23801 -12445223.66702      1152.250  
 98 11 22 11 52  0.0000000  0  7G26G13G10G17G02G19G27
  22120781.117    22120785.605   -10522179.04309  -8036573.51709     -2690.734  
  21077577.742    21077580.320   -12343062.40809  -7695923.58305      1536.609  
  21279493.398    21279498.496   -10756244.43901  -3223827.29001      1892.391  
  24211334.156    24211341.133    -2674367.70709  -1798082.89409      -531.250  
  21859769.875    21859774.832   -14494886.89401 -11128343.57001     -1724.000  
  23473296.672    23473302.168     1655298.40109   1456861.64309      2956.484  
  20792717.313    20792721.602   -16191425.99801 -12440731.27502      1153.750  
 98 11 22 11 52  5.0000000  0  7G26G13G10G17G02G19G27
  22118221.047    22118225.629   -10535632.57209  -8047056.78309     -2690.547  
  21079040.156    21079042.734   -12335377.09009  -7689935.02305      1537.656  
  21281294.836    21281299.934   -10746778.58701  -3216451.30901      1894.078  
  24210830.078    24210837.148    -2677017.34709  -1800147.53409      -528.438  
  21858130.219    21858135.387   -14503503.33201 -11135057.66901     -1722.438  
  23476109.258    23476114.766     1670080.08109   1468379.81309      2956.344  
  20793815.227    20793819.539   -16185655.01701 -12436234.40601      1154.797  
 98 11 22 11 52 10.0000000  0  7G26G13G10G17G02G19G27
  22115661.477    22115666.223   -10549083.56709  -8057538.06809     -2690.188  
  21080504.102    21080506.762   -12327684.90009  -7683941.11305      1538.891  
  21283097.891    21283102.930   -10737302.76101  -3209067.55501      1895.922  
  24210328.117    24210334.902    -2679651.46809  -1802200.08609      -525.531  
  21856492.461    21856497.453   -14512110.34801 -11141764.42301     -1720.703  
  23478922.398    23478928.070     1684862.51409   1479898.58009      2956.328  
  20794914.898    20794919.188   -16179877.18901 -12431732.20501      1156.000  
 98 11 22 11 52 15.0000000  0  7G26G13G10G17G02G19G27
  22113101.938    22113106.777   -10562533.60309  -8068018.60709     -2690.047  
  21081968.906    21081971.484   -12319987.35909  -7677943.02905      1539.875  
  21284902.656    21284907.801   -10727818.57501  -3201677.28401      1897.531  
  24209830.141    24209837.797    -2682271.55209  -1804241.68809      -522.750  
  21854855.977    21854860.945   -14520709.44401 -11148465.00701     -1719.172  
  23481735.008    23481740.750     1699644.01709   1491416.62709      2956.047  
  20796015.047    20796019.523   -16174094.20001 -12427225.98801      1156.938  
 98 11 22 11 52 20.0000000  0  7G26G13G10G17G02G19G27
  22110542.852    22110547.398   -10575981.68909  -8078497.63109     -2689.281  
  21083434.703    21083437.223   -12312283.71509  -7671940.18906      1541.500  
  21286709.188    21286714.426   -10718325.03901  -3194279.73101      1899.781  
  24209334.297    24209337.531    -2684876.67009  -1806271.65909      -519.375  
  21853221.297    21853226.277   -14529299.74301 -11155158.73601     -1717.031  
  23484548.047    23484553.988     1714425.18109   1502934.39309      2956.313  
  20797116.594    20797120.953   -16168305.30101 -12422715.16001      1158.516  
 98 11 22 11 52 25.0000000  0  7G26G13G10G17G02G19G27
  22107984.289    22107989.000   -10589425.69109  -8088973.46809     -2688.500  
  21084902.180    21084904.699   -12304571.78809  -7665930.89606      1543.109  
  21288518.031    21288523.211   -10708820.02401  -3186873.23201      1902.063  
  24208841.719    24208847.438    -2687464.62909  -1808288.29409      -516.000  
  21851588.820    21851593.719   -14537879.14001 -11161843.96801     -1714.906  
  23487361.078    23487366.961     1729207.75409   1514453.27109      2956.531  
  20798219.898    20798224.293   -16162508.29401 -12418198.01102      1160.125  
 98 11 22 11 52 30.0000000  0  7G26G13G10G17G02G19G27
  22105426.484    22105431.301   -10602867.03009  -8099447.22809     -2688.172  
  21086371.164    21086373.648   -12296852.91409  -7659916.18806      1544.297  
  21290328.438    21290333.641   -10699304.75901  -3179458.74501      1903.906  
  24208353.305    24208358.309    -2690036.78509  -1810292.55809      -513.031  
  21849957.922    21849962.961   -14546449.23101 -11168521.95401     -1713.281  
  23490174.219    23490179.633     1743990.10009   1525971.98109      2956.281  
  20799324.289    20799328.496   -16156704.44801 -12413675.53402      1161.266  
 98 11 22 11 52 35.0000000  0  7G26G13G10G17G02G19G27
  22102868.820    22102873.695   -10616306.91909  -8109919.85809     -2688.047  
  21087841.055    21087843.609   -12289128.09309  -7653896.84805      1545.375  
  21292141.211    21292146.355   -10689780.26501  -3172037.06701      1905.625  
  24207866.016    24207871.875    -2692594.00109  -1812285.20209      -510.141  
  21848328.469    21848333.484   -14555011.33401 -11175193.71301     -1711.844  
  23492986.914    23492992.668     1758771.08409   1537489.60209      2955.859  
  20800429.984    20800434.238   -16150895.03001 -12409148.71702      1162.219  
 98 11 22 11 52 40.0000000  0  7G26G13G10G17G02G19G27
  22100311.313    22100316.023   -10629745.91009  -8120391.79209     -2687.797  
  21089312.102    21089314.633   -12281397.92909  -7647873.34105      1546.453  
  21293955.359    21293960.656   -10680247.11101  -3164608.64401      1907.406  
  24207381.063    24207388.355    -2695136.96209  -1814266.70209      -507.266  
  21846700.641    21846705.914   -14563566.24701 -11181859.86901     -1710.375  
  23495799.102    23495804.902     1773550.07909   1549005.69109      2955.484  
  20801536.328    20801540.594   -16145080.94401 -12404618.26301      1163.172  
 98 11 22 11 52 45.0000000  0  7G26G13G10G17G02G19G27
  22097754.273    22097758.961   -10643183.74809  -8130862.82709     -2687.125  
  21090784.133    21090786.652   -12273662.42709  -7641845.68006      1547.953  
  21295771.023    21295776.238   -10670705.07601  -3157173.29901      1909.625  
  24206900.477    24206905.844    -2697665.70409  -1816237.10909      -504.000  
  21845074.070    21845079.215   -14572113.83501 -11188520.31601     -1708.469  
  23498611.109    23498616.617     1788327.02709   1560520.19409      2955.500  
  20802643.461    20802647.914   -16139262.19901 -12400084.17801      1164.531  
 98 11 22 11 52 50.0000000  0  7G26G13G10G17G02G19G27
  22095197.719    22095202.395   -10656618.42909  -8141331.40209     -2686.609  
  21092257.523    21092260.055   -12265919.55809  -7635812.27906      1549.344  
  21297589.039    21297594.488   -10661151.98201  -3149729.33701      1911.766  
  24206421.688    24206426.773    -2700178.34409  -1818195.01009      -500.891  
  21843449.273    21843454.324   -14580652.20301 -11195173.58201     -1706.734  
  23501422.695    23501427.887     1803103.81909   1572034.56509      2955.344  
  20803752.117    20803756.500   -16133436.88501 -12395544.97401      1165.719  
 98 11 22 11 52 55.0000000  0  7G26G13G10G17G02G19G27
  22092641.727    22092646.109   -10670049.80709  -8151797.40409     -2686.078  
  21093732.375    21093734.895   -12258169.03109  -7629772.90905      1550.719  
  21299409.141    21299414.531   -10651587.44601  -3142276.45801      1913.922  
  24205947.250    24205952.172    -2702674.75609  -1820140.26109      -497.813  
  21841826.047    21841831.203   -14589181.09201 -11201819.46301     -1704.969  
  23504235.180    23504239.820     1817880.68809   1583548.99709      2955.266  
  20804861.781    20804866.117   -16127604.81601 -12391000.51002      1166.969  
 98 11 22 11 53  0.0000000  0  7G26G13G10G17G02G19G27
  22090086.547    22090090.906   -10683479.13109  -8162261.80609     -2685.563  
  21095208.555    21095211.051   -12250412.14409  -7623728.58305      1552.109  
  21301231.055    21301236.246   -10642012.66501  -3134815.59501      1916.063  
  24205474.055    24205479.211    -2705156.29709  -1822073.91909      -494.766  
  21840204.789    21840210.004   -14597701.73401 -11208458.91301     -1703.219  
  23507046.984    23507051.836     1832656.59909   1595062.67709      2955.172  
  20805972.695    20805977.008   -16121767.13501 -12386451.66902      1168.188  
 98 11 22 11 53  5.0000000  0  7G26G13G10G17G02G19G27
  22087531.266    22087535.555   -10696906.08509  -8172724.36109     -2685.156  
  21096685.961    21096688.375   -12242648.65909  -7617679.11206      1553.375  
  21303055.242    21303060.504   -10632427.28501  -3127346.47501      1918.156  
  24205004.828    24205010.230    -2707622.93509  -1823995.97609      -491.828  
  21838584.977    21838590.086   -14606213.83001 -11215091.70601     -1701.563  
  23509858.867    23509864.094     1847431.88009   1606575.87909      2955.016  
  20807084.766    20807089.043   -16115923.43401 -12381898.13502      1169.344  
 98 11 22 11 53 10.0000000  0  7G26G13G10G17G02G19G27
  22084976.711    22084980.813   -10710329.62509  -8183184.25609     -2684.328  
  21098164.672    21098167.098   -12234877.50609  -7611623.66906      1555.047  
  21304881.594    21304886.832   -10622830.24801  -3119868.26801      1920.609  
  24204538.648    24204545.070    -2710073.69109  -1825905.64809      -488.563  
  21836966.961    21836972.105   -14614716.36801 -11221717.04601     -1699.516  
  23512670.430    23512676.348     1862207.82609   1618089.59009      2955.313  
  20808198.109    20808202.410   -16110072.69901 -12377339.12402      1170.891  
 98 11 22 11 53 15.0000000  0  7G26G13G10G17G02G19G27
  22082423.109    22082427.152   -10723751.08109  -8193642.53009     -2684.359  
  21099644.609    21099647.059   -12227099.96609  -7605563.24805      1555.891  
  21306709.586    21306714.660   -10613222.82501  -3112381.96901      1922.266  
  24204075.719    24204080.910    -2712510.25609  -1827804.22309      -486.156  
  21835350.711    21835355.785   -14623210.75801 -11228336.04501     -1698.328  
  23515482.242    23515487.211     1876983.16209   1629602.83509      2954.750  
  20809312.508    20809316.797   -16104216.38801 -12372775.76602      1171.547  
 98 11 22 11 53 20.0000000  0  7G26G13G10G17G02G19G27
  22079869.422    22079873.559   -10737171.36109  -8204099.88409     -2683.625  
  21101125.758    21101128.242   -12219316.86809  -7599498.49605      1557.516  
  21308539.813    21308544.875   -10603605.68901  -3104888.10401      1924.719  
  24203613.828    24203620.852    -2714933.75009  -1829692.67809      -483.063  
  21833735.633    21833740.789   -14631697.81401 -11234949.32801     -1696.328  
  23518293.859    23518299.273     1891757.04809   1641114.95209      2954.938  
  20810427.945    20810432.246   -16098355.37001 -12368208.74202      1173.000  
 98 11 22 11 53 25.0000000  0  7G26G13G10G17G02G19G27
  22077316.227    22077320.316   -10750588.30309  -8214554.64109     -2682.922  
  21102608.297    21102610.840   -12211526.15409  -7593427.81106      1559.000  
  21310372.281    21310377.273   -10593976.97501  -3097385.21601      1927.000  
  24203156.297    24203162.074    -2717342.10009  -1831569.29809      -480.063  
  21832122.438    21832127.734   -14640175.18301 -11241555.05901     -1694.359  
  23521104.625    23521110.027     1906531.46309   1652627.47009      2955.063  
  20811544.359    20811548.719   -16092487.42601 -12363636.31801      1174.406  
 98 11 22 11 53 30.0000000  0  7G26G13G10G17G02G19G27
  22074763.859    22074767.914   -10764001.07709  -8225006.14709     -2682.406  
  21104092.539    21104095.199   -12203727.15709  -7587350.67206      1560.375  
  21312206.953    21312212.004   -10584335.93801  -3089872.72601      1929.203  
  24202700.555    24202707.695    -2719734.77309  -1833433.70809      -477.219  
  21830511.227    21830516.723   -14648641.88101 -11248152.47801     -1692.516  
  23523916.508    23523921.781     1921307.12609   1664140.95509      2954.984  
  20812662.531    20812666.949   -16086611.88701 -12359057.97802      1175.594  
 98 11 22 11 53 35.0000000  0  7G26G13G10G17G02G19G27
  22072211.711    22072215.766   -10777411.71809  -8235455.99309     -2681.688  
  21105577.914    21105580.668   -12195921.60909  -7581268.43306      1562.016  
  21314043.352    21314048.379   -10574684.16901  -3082351.87201      1931.656  
  24202248.188    24202256.160    -2722113.52009  -1835287.30909      -474.156  
  21828901.852    21828907.219   -14657099.45101 -11254742.78401     -1690.359  
  23526728.516    23526733.684     1936082.12609   1675653.92109      2955.156  
  20813781.664    20813786.070   -16080730.75001 -12354475.27601      1176.984  
 98 11 22 11 53 40.0000000  0  7G26G13G10G17G02G19G27
  22069660.336    22069664.590   -10790819.92209  -8245903.93809     -2681.594  
  21107064.305    21107066.965   -12188109.10209  -7575180.76806      1563.031  
  21315882.109    21315887.184   -10565021.53801  -3074822.55601      1933.422  
  24201797.438    24201803.051    -2724478.24809  -1837129.97309      -471.750  
  21827294.031    21827299.551   -14665547.65301 -11261325.79401     -1688.891  
  23529539.789    23529544.699     1950856.63809   1687166.52309      2954.672  
  20814901.984    20814906.344   -16074843.92001 -12349888.14002      1177.766  
 98 11 22 11 53 45.0000000  0  7G26G13G10G17G02G19G27
  22067109.688    22067113.930   -10804224.70009  -8256349.21309     -2680.672  
  21108552.563    21108555.176   -12180288.66209  -7569086.92006      1564.828  
  21317723.453    21317728.551   -10555347.13501  -3067284.06501      1936.016  
  24201350.883    24201356.895    -2726828.15809  -1838961.02109      -468.563  
  21825688.438    21825693.980   -14673985.69201 -11267900.87801     -1686.625  
  23532351.734    23532357.195     1965631.46609   1698679.37209      2954.953  
  20816023.516    20816027.957   -16068950.46301 -12345295.83702      1179.313  
 98 11 22 11 53 50.0000000  0  7G26G13G10G17G02G19G27
  22064558.969    22064563.094   -10817627.91609  -8266793.28009     -2680.641  
  21110042.000    21110044.590   -12172462.05809  -7562988.27006      1565.797  
  21319566.125    21319571.270   -10545662.52201  -3059737.61901      1937.828  
  24200905.508    24200911.402    -2729165.05909  -1840781.98109      -466.234  
  21824084.211    21824089.730   -14682415.10401 -11274469.24201     -1685.141  
  23535162.359    23535168.313     1980405.06409   1710191.24909      2954.469  
  20817145.984    20817150.355   -16063051.95701 -12340699.60001      1180.078  
 98 11 22 11 53 55.0000000  0  7G26G13G10G17G02G19G27
  22062008.828    22062013.082   -10831029.92409  -8277236.40109     -2680.125  
  21111532.328    21111534.953   -12164629.66609  -7556885.10807      1567.203  
  21321410.758    21321415.891   -10535967.70801  -3052183.22701      1940.141  
  24200463.742    24200470.422    -2731489.21809  -1842593.00909      -463.359  
  21822481.953    21822487.449   -14690836.05501 -11281031.01301     -1683.172  
  23537973.461    23537979.074     1995177.31909   1721702.07509      2954.484  
  20818269.281    20818273.629   -16057148.37601 -12336099.41202      1181.391  
 98 11 22 11 54  0.0000000  0  7G26G13G10G17G02G19G27
  22059458.703    22059462.910   -10844430.02509  -8287678.03009     -2680.188  
  21113023.969    21113026.594   -12156790.91009  -7550776.98706      1568.063  
  21323257.820    21323262.953   -10526262.08301  -3044620.40901      1941.859  
  24200023.695    24200031.035    -2733799.69909  -1844393.35909      -461.047  
  21820881.242    21820886.633   -14699247.67001 -11287585.51201     -1681.703  
  23540784.180    23540790.344     2009949.04009   1733212.50209      2953.969  
  20819393.641    20819397.742   -16051238.92601 -12331494.64802      1182.141  
