     2.11           OBSERVATION DATA    M (MIXED)           RINEX VERSION / TYPE
MAKERINEX 2.0.38030 NTRIPS13_238B30     2018-07-04 15:01    PGM / RUN BY / DATE
KARL                                                        MARKER NAME
14216M001                                                   MARKER NUMBER
GREFOP              BKG/AL/G3                               OBSERVER / AGENCY
02042               JAVAD TRE_3 DELTA   3.7.2 AUG,31,2017   REC # / TYPE / VERS
725092              LEIAR25.R4      LEIT                    ANT # / TYPE
  4146524.6600   613137.8250  4791516.9620                  APPROX POSITION XYZ
         .0450         .0000         .0000                  ANTENNA: DELTA H/E/N
     1     1                                                WAVELENGTH FACT L1/2
    14    C1    C2    C5    P1    P2    L1    L2    L5    D1# / TYPES OF OBSERV
          D2    D5    S1    S2    S5                        # / TYPES OF OBSERV
    30.000                                                  INTERVAL
  2018     7     4    14     0    0.0000000     GPS         TIME OF FIRST OBS
  2018     7     4    14    59   30.0000000     GPS         TIME OF LAST OBS
    18                                                      LEAP SECONDS
     0                                                      RCV CLOCK OFFS APPL
                                                            END OF HEADER
 18  7  4 14  0  0.0000000  0 29G04G07G08G10G13G15G16G18G20G21G26G27
                                G30R01R07R08R13R14R15R17R22R23R24S20
                                S23S25S27S28S36
  23831169.558    23831170.024                    23831169.294    23831170.508
 125233640.731 5  97584655.849 5                     -3713.010       -2893.269
                        34.000          34.000
  24493497.731    24493497.453                    24493496.430    24493496.883
 128714209.262 4 100296789.065 4                       382.183         297.872
                        27.000          27.000
  22871666.154    22871668.903    22871666.098    22871666.561    22871668.430
 120191437.199 6  93655671.846 6  89753360.390 8      3028.918        2360.201
      2261.855          36.000          36.000          51.000
  21640367.694    21640369.478    21640366.596    21640367.725    21640369.472
 113720939.772 7  88613729.927 7  84921505.999 9      2456.016        1913.772
      1834.024          44.000          44.000          55.000
  25332270.461                                    25332269.049    25332268.492
 133121974.554 3 103731409.054 3                        66.963          52.414
                        19.000          19.000
  24542520.908    24542520.458                    24542522.099    24542521.460
 128971828.522 5 100497531.046 5                       827.304         644.699
                        31.000          31.000
  21123715.665                                    21123715.124    21123714.035
 111005892.897 7  86498103.094 7                     -1908.574       -1487.222
                        42.000          42.000
  25202513.659                                    25202513.838    25202515.360
 132440095.103 1 103200074.725 1                      3874.916        3019.441
                         9.000           9.000
  20908010.640                                    20908009.772    20908009.237
 109872392.648 7  85614864.002 7                       469.427         365.799
                        42.000          42.000
  22594804.929                                    22594804.781    22594804.291
 118736542.034 6  92521989.869 6                     -2071.381       -1614.082
                        37.000          37.000
  22779724.559    22779727.590    22779725.235    22779724.121    22779727.605
 119708272.982 6  93279176.006 6  89392545.619 8     -3226.921       -2514.397
     -2409.650          37.000          37.000          52.000
  20436857.809    20436858.870    20436856.438    20436857.423    20436858.630
 107396439.546 7  83685545.109 7  80198658.410 9      1345.772        1048.660
      1004.971          46.000          46.000          57.000
  25476062.621    25476066.589    25476064.791    25476061.367    25476064.812
 133877610.366 3 104320217.077 3  99973544.982 8      1709.588        1332.199
      1276.697          23.000          23.000          48.000
  23284788.852    23284795.402                    23284790.700    23284794.889
 124470558.106 7  96810451.344 6                      4547.608        3537.030
                        43.000          36.000
  21772640.661    21772642.617                    21772640.745    21772642.157
 116550683.474 8  90650551.549 7                     -1212.174        -942.797
                        52.000          47.000
  21175386.366    21175387.932                    21175385.677    21175387.046
 113393315.291 8  88194781.452 7                      2553.018        1985.694
                        53.000          47.000
  22346060.704    22346063.694                    22346061.072    22346064.062
 119326746.418 7  92809676.718 6                     -3922.586       -3050.911
                        43.000          38.000
  20888915.311    20888916.392                    20888915.019    20888917.278
 111349989.877 8  86605346.556 7                      -789.760        -614.239
                        53.000          47.000
  22163487.917    22163492.895                    22163488.543    22163491.463
 118434960.277 7  92116085.151 6                      2305.774        1793.401
                        47.000          38.000
  24546581.258    24546580.852                    24546577.865    24546581.735
 131353735.104 6 102163991.334 5                      3556.198        2765.968
                        40.000          34.000
  23130146.854    23130149.478                    23130147.271    23130150.307
 123470305.175 8  96032466.641 7                     -3095.546       -2407.625
                        48.000          43.000
  19601913.297    19601916.925                    19601913.424    19601917.188
 104857065.607 9  81555504.916 7                      -608.364        -473.185
                        54.000          43.000
  20682531.469    20682535.806                    20682532.303    20682531.939
 110598789.931 8  86021306.581 6                      2331.516        1813.406
                        48.000          36.000
  38496483.597
 202300311.644 7                                       227.704
                        43.000
  38686613.534                    38686621.443
 203299491.379 7                 151814549.013 7       136.938
       102.284          46.000                          44.000
  38479112.647
 202208875.202 7                                       258.275
                        43.000
  39734834.217                    39734834.891
 208808009.798 6                 155928035.481 7       147.072
       109.891          37.000                          43.000
  41583590.813                    41583600.253
 218523233.44516                 163182948.945 6       138.888
       103.711          37.000                          38.000
  38327100.962                    38327106.364
 201410348.668 7                 150403784.205 7       142.304
       106.286          47.000                          47.000
 18  7  4 14  0 30.0000000  0 29G04G07G08G10G13G15G16G18G20G21G26G27
                                G30R01R07R08R13R14R15R17R22R23R24S20
                                S23S25S27S28S36
  23852379.426    23852379.799                    23852378.960    23852379.216
 125345095.935 5  97671503.993 5                     -3717.644       -2896.824
                        34.000          34.000
  24491368.630    24491369.115                    24491368.084    24491367.997
 128703021.091 4 100288071.005 4                       363.601         283.347
                        29.000          29.000
  22854388.940    22854391.271    22854388.775    22854388.896    22854391.139
 120100644.581 6  93584924.374 6  89685560.735 8      3023.677        2356.108
      2257.916          37.000          37.000          51.000
  21626390.096    21626391.755    21626389.001    21626389.818    21626392.075
 113647487.622 7  88556494.522 7  84866655.402 9      2440.607        1901.804
      1822.562          42.000          42.000          55.000
  25331940.030                                    25331940.500    25331939.714
 133120242.224 3 103730059.183 3                        48.093          37.518
                        19.000          19.000
  24537849.780    24537849.965                    24537849.757    24537849.202
 128947279.953 5 100478402.345 5                       809.003         630.422
                        30.000          30.000
  21134659.457                                    21134659.315    21134658.004
 111063404.043 7  86542916.957 7                     -1925.655       -1500.507
                        42.000          42.000
  25180397.547                                    25180396.606    25180398.608
 132323877.960 2 103109515.958 2                      3872.617        3017.630
                        12.000          12.000
  20905388.491                                    20905387.691    20905386.945
 109858613.407 7  85604126.945 7                       449.027         349.913
                        43.000          43.000
  22606645.109                                    22606644.400    22606643.818
 118798759.804 6  92570471.233 6                     -2076.827       -1618.287
                        37.000          37.000
  22798171.081    22798173.393    22798171.555    22798170.561    22798173.799
 119805208.294 6  93354709.974 6  89464932.322 8     -3235.751       -2521.319
     -2416.269          38.000          38.000          53.000
  20429210.394    20429211.546    20429209.177    20429210.228    20429211.376
 107356253.164 7  83654231.050 7  80168649.105 9      1333.025        1038.708
       995.433          47.000          47.000          57.000
  25466349.065    25466350.596    25466351.175    25466347.547    25466352.625
 133826564.166 4 104280440.789 4  99935426.073 8      1693.208        1319.466
      1264.422          25.000          25.000          48.000
  23259279.164    23259284.617                    23259279.169    23259284.417
 124334186.143 7  96704384.306 6                      4543.662        3533.943
                        43.000          36.000
  21779506.460    21779507.946                    21779506.379    21779507.655
 116587436.178 8  90679136.982 7                     -1238.283        -963.102
                        52.000          47.000
  21161145.369    21161147.140                    21161145.146    21161147.224
 113317058.446 8  88135470.607 7                      2530.505        1968.178
                        53.000          47.000
  22368126.067    22368132.715                    22368127.278    22368129.444
 119444577.789 7  92901323.277 6                     -3932.999       -3059.027
                        43.000          38.000
  20893436.347    20893438.699                    20893436.301    20893438.436
 111374089.985 8  86624091.068 7                      -817.141        -635.555
                        53.000          47.000
  22150610.511    22150613.675                    22150610.819    22150613.643
 118366144.227 8  92062561.568 6                      2281.743        1774.698
                        48.000          38.000
  24526643.307    24526646.325                    24526643.260    24526646.173
 131247056.853 6 102081019.425 6                      3555.525        2765.364
                        41.000          36.000
  23147551.380    23147555.699                    23147551.030    23147554.037
 123563211.032 7  96104726.698 7                     -3098.437       -2409.886
                        47.000          43.000
  19605360.112    19605362.511                    19605360.125    19605363.241
 104875502.970 9  81569845.083 7                      -621.018        -483.037
                        54.000          43.000
  20669479.353    20669483.610                    20669478.760    20669477.310
 110528983.911 8  85967013.021 6                      2321.946        1805.954
                        48.000          36.000
  38495180.951
 202293478.068 7                                       227.585
                        43.000
  38685830.656                    38685839.659
 203295382.303 7                 151811480.512 7       136.691
       102.082          46.000                          44.000
  38477708.878
 202201133.989 7                                       257.662
                        43.000
  39733996.770                    39733996.855
 208803605.547 6                 155924746.526 7       146.467
       109.379          38.000                          43.000
  41582801.109                    41582808.881
 218519072.278 6                 163179842.116 6       138.408
       103.328          38.000                          40.000
  38326290.802                    38326295.314
 201406089.347 7                 150400602.258 7       141.598
       105.719          47.000                          47.000
 18  7  4 14  1  0.0000000  0 28G04G07G08G10G13G15G16G18G20G21G26G27
                                G30R01R07R08R13R14R15R17R22R23R24S23
                                S25S27S28S36
  23873614.205    23873615.274                    23873614.668    23873614.836
 125456689.959 5  97758460.307 5                     -3721.851       -2900.131
                        34.000          34.000
  24489345.458    24489345.654                    24489345.553    24489345.600
 128692391.410 4 100279788.117 4                       345.335         269.036
                        29.000          29.000
  22837143.127    22837145.149    22837142.605    22837142.568    22837144.832
 120010015.861 6  93514304.634 6  89617883.487 8      3018.540        2352.108
      2254.071          36.000          36.000          52.000
  21612502.190    21612503.811    21612500.774    21612502.258    21612503.658
 113574505.331 7  88499625.236 7  84812155.683 9      2425.199        1889.745
      1811.014          43.000          43.000          55.000
  25331719.419                                    25331718.707    25331719.573
 133119081.950 2 103729155.136 2                        29.364          22.885
                        17.000          17.000
  24533283.086    24533283.698                    24533283.752    24533283.062
 128923284.615 5 100459704.694 5                       790.878         616.233
                        31.000          31.000
  21145701.811                                    21145701.229    21145700.172
 111121430.325 7  86588132.232 7                     -1942.486       -1513.609
                        43.000          43.000
  25158295.553                                    25158294.833    25158296.288
 132207732.801 3 103019013.261 3                      3870.681        3016.035
                        20.000          20.000
  20902882.966                                    20902882.259    20902881.474
 109845446.149 7  85593866.744 7                       428.997         334.257
                        43.000          43.000
  22618517.041                                    22618516.212    22618515.092
 118861145.579 6  92619083.498 6                     -2082.049       -1622.371
                        37.000          37.000
  22816668.556    22816670.895    22816668.788    22816668.290    22816671.338
 119902413.138 6  93430453.964 6  89537520.300 8     -3244.369       -2528.101
     -2422.736          40.000          40.000          52.000
  20421636.328    20421637.334    20421634.998    20421635.986    20421637.016
 107316450.358 7  83623215.881 7  80138926.232 9      1320.636        1029.073
       986.199          47.000          47.000          57.000
  25456727.185    25456731.081    25456730.769    25456728.252    25456731.270
 133776010.059 4 104241048.038 4  99897674.656 8      1677.314        1306.978
      1252.526          25.000          25.000          50.000
  23233791.371    23233795.945                    23233791.877    23233796.109
 124197939.097 7  96598414.436 6                      4539.747        3530.853
                        44.000          37.000
  21786518.863    21786520.018                    21786518.945    21786520.006
 116624973.291 8  90708332.524 7                     -1263.963        -983.095
                        53.000          47.000
  21147031.168    21147033.762                    21147031.482    21147033.289
 113241481.032 8  88076688.216 8                      2508.227        1950.854
                        53.000          48.000
  22390252.938    22390256.912                    22390252.360    22390254.727
 119562722.212 7  92993213.286 6                     -3942.990       -3066.794
                        44.000          39.000
  20898112.025    20898114.772                    20898112.041    20898114.066
 111399013.921 8  86643476.341 7                      -844.248        -656.626
                        53.000          47.000
  22137867.808    22137871.979                    22137868.237    22137871.407
 118298051.470 8  92009600.551 6                      2258.019        1756.256
                        48.000          38.000
  24506711.956    24506715.845                    24506711.528    24506715.338
 131140401.055 7 101998064.971 6                      3555.076        2765.061
                        43.000          37.000
  23164973.270    23164976.096                    23164972.981    23164976.160
 123656207.493 8  96177057.224 7                     -3101.086       -2411.963
                        48.000          45.000
  19608878.495    19608881.579                    19608878.709    19608882.029
 104894324.839 9  81584484.316 7                      -633.481        -492.695
                        54.000          43.000
  20656477.898    20656477.950                    20656478.530    20656478.064
 110459470.153 7  85912946.777 6                      2312.578        1798.615
                        47.000          36.000
  38685050.950                    38685060.294
 203291285.670 7                 151808421.315 7       136.603
       102.007          47.000                          44.000
  38476309.790
 202193409.522 7                                       257.290
                        43.000
  39733160.598                    39733161.025
 208799214.607 6                 155921467.124 7       146.360
       109.336          38.000                          43.000
  41582010.042                    41582019.110
 218514922.159 6                 163176742.961 6       138.618
       103.626          36.000                          39.000
  38325481.676                    38325486.775
 201401844.560 7                 150397430.444 7       141.650
       105.875          47.000                          46.000
 18  7  4 14  1 30.0000000  0 28G04G07G08G10G13G15G16G18G20G21G26G27
                                G30R01R07R08R13R14R15R17R22R23R24S23
                                S25S27S28S36
  23894873.913    23894874.653                    23894873.761    23894874.162
 125568408.728 5  97845513.854 5                     -3725.783       -2903.248
                        33.000          33.000
  24487426.846    24487427.028                    24487426.828    24487427.617
 128682308.205 4 100271931.101 4                       327.307         255.066
                        27.000          27.000
  22819926.386    22819928.578    22819925.848    22819925.829    22819927.842
 119919540.588 6  93443804.434 6  89550320.802 8      3013.560        2348.199
      2250.368          37.000          37.000          52.000
  21598701.376    21598702.942    21598700.305    21598701.371    21598703.179
 113501983.167 7  88443114.487 7  84757999.552 9      2409.990        1877.906
      1799.672          42.000          42.000          55.000
  25331605.240                                    25331603.828    25331604.382
 133118481.938 3 103728687.558 3                        10.780           8.461
                        18.000          18.000
  24528820.383    24528820.831                    24528821.837    24528820.384
 128899831.896 5 100441429.860 5                       772.968         602.356
                        30.000          30.000
  21156839.223                                    21156838.633    21156837.757
 111179958.320 7  86633738.446 7                     -1958.969       -1526.438
                        42.000          42.000
  25136206.335                                    25136205.549    25136205.634
 132091649.025 3 102928558.462 3                      3868.886        3014.641
                        19.000          19.000
  20900491.261                                    20900490.699    20900490.124
 109832879.488 7  85584074.551 7                       409.140         318.863
                        42.000          42.000
  22630418.402                                    22630417.374    22630416.281
 118923686.482 6  92667816.651 6                     -2086.977       -1626.238
                        38.000          38.000
  22835214.983    22835216.976    22835215.094    22835214.398    22835217.187
 119999873.129 6  93506396.781 6  89610298.826 8     -3252.604       -2534.472
     -2428.879          39.000          39.000          53.000
  20414133.059    20414133.674    20414131.748    20414132.704    20414133.908
 107277020.459 7  83592491.290 7  80109481.835 9      1308.377        1019.534
       977.059          47.000          47.000          57.000
  25447200.945    25447202.388    25447202.452    25447199.578    25447202.523
 133725937.891 3 104202030.766 3  99860283.103 8      1661.334        1294.589
      1240.654          23.000          23.000          48.000
  23208326.290    23208328.731                    23208325.457    23208330.673
 124061809.095 7  96492535.597 6                      4535.972        3527.999
                        43.000          38.000
  21793674.745    21793676.981                    21793674.601    21793676.230
 116663280.921 8  90738127.350 7                     -1289.416       -1002.864
                        53.000          47.000
  21133043.139    21133045.682                    21133043.445    21133045.460
 113166573.927 8  88018427.170 7                      2485.950        1933.515
                        53.000          47.000
  22412433.358    22412435.161                    22412433.064    22412435.731
 119681162.653 7  93085333.577 6                     -3952.591       -3074.249
                        45.000          39.000
  20902940.146    20902940.874                    20902939.769    20902941.758
 111424748.070 8  86663491.782 7                      -870.990        -677.450
                        53.000          46.000
  22125259.370    22125262.926                    22125259.492    22125261.529
 118230672.565 8  91957194.753 6                      2234.332        1737.889
                        48.000          38.000
  24486782.196    24486785.221                    24486782.040    24486787.284
 131033756.393 7 101915119.168 6                      3554.958        2764.915
                        42.000          36.000
  23182409.514    23182411.467                    23182408.881    23182412.074
 123749281.554 8  96249448.086 7                     -3103.501       -2413.817
                        48.000          45.000
  19612466.565    19612469.264                    19612466.913    19612470.019
 104913518.506 9  81599412.725 7                      -645.742        -502.227
                        54.000          43.000
  20643530.379    20643534.082                    20643530.863    20643531.660
 110390237.138 7  85859098.912 6                      2303.387        1791.548
                        44.000          36.000
  38684271.681                    38684280.275
 203287189.244 7                 151805362.365 7       136.873
       102.262          47.000                          44.000
  38474909.932
 202185689.225 7                                       257.328
                        43.000
  39732325.082                    39732325.177
 208794823.136 6                 155918187.883 7       146.580
       109.468          39.000                          43.000
  41581221.904                    41581229.351
 218510772.712 6                 163173643.964 6       138.511
       103.348          36.000                          38.000
  38324673.945                    38324678.976
 201397595.969 7                 150394252.490 7       141.903
       105.939          47.000                          47.000
 18  7  4 14  2  0.0000000  0 28G04G07G08G10G13G15G16G18G20G21G26G27
                                G30R01R07R08R13R14R15R17R22R23R24S23
                                S25S27S28S36
  23916154.995    23916155.930                    23916155.446    23916155.834
 125680242.343 5  97932656.823 5                     -3729.773       -2906.334
                        33.000          33.000
  24485610.996    24485610.994                    24485610.317    24485610.344
 128672764.127 4 100264494.159 4                       308.950         240.806
                        28.000          28.000
  22802737.074    22802739.579    22802736.872    22802736.653    22802738.616
 119829212.484 6  93373418.934 6  89482868.029 8      3008.254        2344.074
      2246.416          36.000          36.000          52.000
  21584988.018    21584988.812    21584986.217    21584988.141    21584989.236
 113429915.925 7  88386958.218 7  84704183.136 9      2394.532        1865.892
      1788.118          44.000          44.000          55.000
  25331596.778                                    25331595.578    25331596.015
 133118435.362 3 103728651.293 3                        -7.606          -5.978
                        20.000          20.000
  24524459.368    24524459.310                    24524460.209    24524459.034
 128876915.509 5 100423572.956 5                       754.820         588.171
                        30.000          30.000
  21168070.616                                    21168070.027    21168068.815
 111238978.869 7  86679728.459 7                     -1975.719       -1539.506
                        42.000          42.000
  25114125.650                                    25114123.842    25114128.415
 131975620.469 3 102838146.641 3                      3866.523        3012.862
                        19.000          19.000
  20898212.922                                    20898212.114    20898211.734
 109820906.106 7  85574744.651 7                       389.028         303.139
                        42.000          42.000
  22642347.058                                    22642346.422    22642345.573
 118986373.978 6  92716664.047 6                     -2092.159       -1630.266
                        38.000          38.000
  22853807.566    22853810.218    22853807.883    22853807.049    22853810.405
 120097578.508 6  93582530.799 6  89683260.580 8     -3261.043       -2541.015
     -2435.151          39.000          39.000          53.000
  20406699.336    20406700.211    20406698.204    20406699.415    20406700.279
 107237957.274 7  83562052.448 7  80080311.281 9      1295.840        1009.735
       967.657          47.000          47.000          57.000
  25437762.282    25437765.226    25437764.865    25437762.610    25437764.053
 133676341.969 4 104163384.592 4  99823247.182 8      1645.078        1281.834
      1228.472          25.000          25.000          50.000
  23182880.700    23182885.456                    23182881.113    23182886.169
 123925792.989 7  96386745.363 6                      4531.760        3524.754
                        43.000          37.000
  21800972.822    21800974.985                    21800972.962    21800974.803
 116702349.909 8  90768514.352 7                     -1315.109       -1022.875
                        52.000          47.000
  21119179.661    21119180.266                    21119179.462    21119181.100
 113092332.948 8  87960684.215 7                      2463.438        1916.015
                        53.000          47.000
  22434666.082    22434670.031                    22434665.740    22434668.908
 119799887.764 7  93177675.272 6                     -3962.376       -3081.787
                        45.000          38.000
  20907917.481    20907919.985                    20907917.927    20907919.596
 111451283.670 9  86684130.568 7                      -897.981        -698.433
                        54.000          47.000
  22112782.055    22112786.006                    22112782.890    22112785.718
 118164003.243 8  91905340.850 6                      2210.327        1719.115
                        48.000          38.000
  24466852.402    24466857.973                    24466854.295    24466857.705
 130927116.034 7 101832176.687 6                      3554.532        2764.583
                        44.000          37.000
  23199857.744    23199861.214                    23199857.794    23199861.177
 123842425.437 8  96321893.284 7                     -3106.070       -2415.794
                        49.000          45.000
  19616123.288    19616124.018                    19616123.053    19616126.841
 104933076.569 9  81614624.545 7                      -658.128        -511.842
                        54.000          43.000
  20630634.588    20630637.296                    20630635.467    20630636.542
 110321278.588 7  85805464.489 6                      2293.867        1784.119
                        47.000          37.000
  38683490.869                    38683499.284
 203283085.654 7                 151802298.019 7       136.796
       102.131          47.000                          44.000
  38473511.285
 202179350.048 7                                       257.057
                        43.000
  39731488.642                    39731488.364
 208790424.442 6                 155914903.724 7       146.554
       109.412          39.000                          43.000
  41580430.582                    41580438.116
 218506615.618 5                 163170544.086 6       138.650
       103.595          35.000                          38.000
  38323863.751                    38323869.167
 201393339.873 8                 150391083.658 7       141.766
       105.799          48.000                          47.000
 18  7  4 14  2 30.0000000  0 28G04G07G08G10G13G15G16G18G20G21G26G27
                                G30R01R07R08R13R14R15R17R22R23R24S23
                                S25S27S28S36
  23937459.426    23937459.613                    23937459.115    23937459.346
 125792193.995 5  98019891.846 5                     -3733.779       -2909.507
                        33.000          33.000
  24483898.566    24483898.034                    24483897.878    24483897.538
 128663764.714 4 100257481.630 4                       290.637         226.469
                        28.000          28.000
  22785577.520    22785579.687    22785577.425    22785577.029    22785580.004
 119739038.797 6  93303153.747 6  89415530.566 8      3003.008        2340.010
      2242.512          36.000          36.000          52.000
  21571361.881    21571363.280    21571360.319    21571361.813    21571363.516
 113358311.417 7  88331162.521 7  84650712.256 9      2378.893        1853.661
      1776.449          44.000          44.000          55.000
  25331694.127                                    25331694.124    25331693.984
 133118947.912 3 103729050.702 3                       -26.695         -20.730
                        21.000          21.000
  24520202.095    24520202.442                    24520202.689    24520202.521
 128854542.337 5 100406139.333 5                       736.561         573.936
                        30.000          30.000
  21179396.238                                    21179395.746    21179394.804
 111298495.941 7  86726105.384 7                     -1992.368       -1552.449
                        42.000          42.000
  25092058.576                                    25092056.540    25092059.142
 131859653.808 3 102747783.083 3                      3864.258        3011.161
                        19.000          19.000
  20896048.564                                    20896047.860    20896047.179
 109809531.828 6  85565881.591 6                       368.962         287.511
                        41.000          41.000
  22654304.445                                    22654303.848    22654303.208
 119049211.673 6  92765628.470 6                     -2097.284       -1634.226
                        38.000          38.000
  22872447.517    22872450.256    22872447.821    22872447.713    22872450.076
 120195532.476 6  93658858.517 6  89756407.978 8     -3269.463       -2547.610
     -2441.461          39.000          39.000          52.000
  20399336.878    20399338.069    20399335.786    20399336.882    20399337.725
 107199267.597 7  83531904.656 7  80051419.644 9      1283.262         999.973
       958.312          47.000          47.000          57.000
  25428416.783    25428419.186    25428419.102    25428415.931    25428419.777
 133627229.416 4 104125115.080 4  99786572.233 8      1628.732        1269.204
      1216.332          25.000          25.000          51.000
  23157459.890    23157463.947                    23157459.094    23157464.636
 123789900.908 7  96281051.593 6                      4527.415        3521.371
                        43.000          37.000
  21808414.383    21808415.483                    21808414.306    21808415.888
 116742183.709 8  90799496.206 7                     -1340.720       -1042.776
                        52.000          47.000
  21105441.550    21105443.074                    21105441.405    21105442.916
 113018767.227 8  87903466.472 7                      2440.715        1898.353
                        53.000          47.000
  22456953.170    22456954.185                    22456952.763    22456955.081
 119918898.043 7  93270238.761 6                     -3971.968       -3089.234
                        44.000          39.000
  20913047.128    20913048.584                    20913047.251    20913048.798
 111478624.500 8  86705395.644 7                      -924.952        -719.382
                        53.000          47.000
  22100439.818    22100443.462                    22100441.415    22100443.080
 118098051.757 8  91854045.271 6                      2186.180        1700.406
                        48.000          38.000
  24446928.486    24446931.865                    24446927.744    24446930.494
 130820485.882 7 101749242.156 6                      3554.046        2764.349
                        43.000          38.000
  23217321.903    23217325.060                    23217321.221    23217323.935
 123935644.231 8  96394396.720 7                     -3108.706       -2417.894
                        48.000          45.000
  19619848.098    19619850.608                    19619848.285    19619851.461
 104953004.217 9  81630123.831 7                      -670.553        -521.520
                        54.000          43.000
  20617792.026    20617793.186                    20617793.318    20617793.176
 110252600.855 7  85752048.493 6                      2284.482        1776.785
                        46.000          36.000
  38682709.616                    38682718.548
 203278980.674 7                 151799232.671 7       136.722
       102.076          47.000                          44.000
  38472112.459
 202171646.147 7                                       256.869
                        43.000
  39730650.825                    39730651.069
 208786023.781 6                 155911617.315 7       146.537
       109.429          38.000                          43.000
  41579637.833                    41579646.736
 218502456.505 5                 163167438.337 6       138.563
       103.310          35.000                          38.000
  38323053.357                    38323058.884
 201389082.808 7                 150387904.214 7       141.670
       105.822          47.000                          47.000
 18  7  4 14  3  0.0000000  0 28G04G07G08G10G13G15G16G18G20G21G26G27
                                G30R01R07R08R13R14R15R17R22R23R24S23
                                S25S27S28S36
  23958787.043    23958788.722                    23958787.225    23958788.492
 125904275.502 5  98107227.994 5                     -3738.024       -2912.777
                        35.000          35.000
  24482291.611    24482292.259                    24482291.599    24482291.530
 128655324.217 4 100250904.622 4                       272.135         212.088
                        27.000          27.000
  22768450.494    22768452.878    22768450.269    22768450.147    22768452.639
 119649035.490 6  93233021.315 6  89348320.333 8      2997.379        2335.723
      2238.338          37.000          37.000          52.000
  21557826.840    21557829.060    21557825.893    21557826.844    21557828.951
 113287186.145 7  88275740.244 7  84597599.245 9      2363.001        1841.336
      1764.611          44.000          44.000          55.000
  25331901.783                                    25331900.165    25331898.450
 133120034.077 3 103729897.037 3                       -45.751         -35.548
                        18.000          18.000
  24516050.742    24516050.395                    24516051.333    24516050.842
 128832728.265 5 100389141.364 5                       717.909         559.435
                        32.000          32.000
  21190818.354                                    21190818.352    21190817.124
 111358522.122 6  86772879.017 6                     -2009.186       -1565.560
                        41.000          41.000
  25070005.424                                    25070004.255    25070007.610
 131743764.944 3 102657480.136 3                      3861.790        3009.219
                        22.000          22.000
  20894000.782                                    20893999.942    20893999.775
 109798771.186 7  85557496.689 7                       348.624         271.671
                        42.000          42.000
  22666293.650                                    22666292.873    22666292.193
 119112213.748 6  92814720.993 6                     -2102.633       -1638.393
                        38.000          38.000
  22891136.946    22891139.988    22891137.655    22891136.266    22891139.408
 120293746.921 6  93735389.213 6  89829749.883 8     -3277.983       -2554.267
     -2447.840          38.000          38.000          53.000
  20392048.758    20392049.477    20392047.422    20392048.589    20392049.371
 107160967.025 7  83502060.050 7  80022818.568 9      1270.368         989.942
       948.683          47.000          47.000          57.000
  25419165.141    25419168.812    25419168.053    25419164.882    25419168.411
 133578615.922 4 104087234.430 4  99750269.954 8      1612.335        1256.369
      1204.023          25.000          25.000          49.000
  23132065.476    23132069.016                    23132064.247    23132068.446
 123654151.528 7  96175468.801 6                      4522.762        3517.704
                        44.000          37.000
  21816001.507    21816002.471                    21816001.009    21816002.634
 116782795.349 8  90831083.032 7                     -1366.491       -1062.843
                        52.000          47.000
  21091833.177    21091835.047                    21091833.004    21091834.407
 112945895.246 8  87846788.287 7                      2417.593        1880.381
                        53.000          47.000
  22479296.459    22479298.391                    22479293.832    22479297.671
 120038203.758 7  93363032.005 6                     -3981.488       -3096.750
                        43.000          39.000
  20918329.370    20918330.727                    20918329.851    20918331.143
 111506783.478 8  86727297.055 7                      -952.076        -740.502
                        53.000          47.000
  22088237.112    22088240.848                    22088236.878    22088239.211
 118032836.363 8  91803322.224 6                      2161.666        1681.266
                        48.000          38.000
  24427006.101    24427011.178                    24427006.390    24427009.565
 130713881.412 7 101666327.585 6                      3553.152        2763.704
                        42.000          37.000
  23234800.583    23234803.063                    23234801.050    23234803.686
 124028951.691 8  96466969.135 7                     -3111.531       -2420.062
                        49.000          44.000
  19623644.886    19623648.096                    19623645.453    19623648.402
 104973315.869 8  81645921.779 7                      -683.302        -531.458
                        53.000          43.000
  20605003.734    20605007.657                    20605004.562    20605004.986
 110184219.495 7  85698862.998 6                      2274.647        1769.171
                        47.000          36.000
  38681930.451                    38681939.840
 203274889.142 7                 151796177.496 7       136.262
       101.763          46.000                          44.000
  38470719.214
 202163954.307 7                                       256.353
                        42.000
  39729819.239                    39729816.058
 208781637.123 6                 155908341.102 7       146.213
       109.344          39.000                          43.000
  41578849.290                    41578857.847
 218498310.013 6                 163164338.341 6       137.902
       102.918          36.000                          39.000
  38322245.910                    38322251.177
 201384839.846 7                 150384728.622 7       141.430
       105.581          47.000                          47.000
 18  7  4 14  3 30.0000000  0 28G04G07G08G10G13G15G16G18G20G21G26G27
                                G30R01R07R08R13R14R15R17R22R23R24S23
                                S25S27S28S36
  23980137.014    23980138.227                    23980137.927    23980137.909
 126016468.536 5  98194651.059 5                     -3741.576       -2915.512
                        34.000          34.000
  24480789.793    24480788.893                    24480789.780    24480788.786
 128647426.588 4 100244750.626 4                       254.139         197.988
                        27.000          27.000
  22751353.084    22751355.979    22751352.910    22751352.489    22751355.123
 119559188.134 6  93163010.413 6  89281226.550 8      2992.291        2331.643
      2234.484          36.000          36.000          52.000
  21544380.348    21544382.472    21544379.797    21544380.684    21544382.620
 113216526.253 7  88220680.596 7  84544833.752 9      2347.500        1829.204
      1752.994          43.000          43.000          56.000
  25332214.613                                    25332213.251    25332213.777
 133121677.475 3 103731177.635 3                       -64.073         -49.934
                        20.000          20.000
  24512003.642    24512003.542                    24512003.672    24512002.167
 128811458.345 5 100372567.428 5                       699.932         545.486
                        31.000          31.000
  21202334.830                                    21202334.232    21202333.310
 111419039.592 7  86820035.473 7                     -2025.437       -1578.269
                        42.000          42.000
  25047964.963                                    25047963.036    25047965.686
 131627938.864 4 102567226.150 4                      3859.767        3007.627
                        24.000          24.000
  20892066.872                                    20892066.246    20892065.460
 109788608.225 7  85549577.518 7                       328.790         256.225
                        42.000          42.000
  22678310.104                                    22678310.133    22678308.814
 119175363.139 6  92863928.275 6                     -2107.470       -1642.155
                        38.000          38.000
  22909872.752    22909875.480    22909873.558    22909872.607    22909875.824
 120392203.345 6  93812108.465 6  89903272.484 8     -3285.887       -2560.416
     -2453.753          39.000          39.000          53.000
  20384831.512    20384832.495    20384830.351    20384831.367    20384832.345
 107123040.655 7  83472507.042 7  79994496.931 9      1257.990         980.239
       939.406          47.000          47.000          57.000
  25410007.276    25410010.361    25410009.377    25410006.512    25410010.880
 133530487.074 4 104049731.425 4  99714329.577 8      1596.227        1243.873
      1192.035          25.000          25.000          48.000
  23106693.647    23106701.381                    23106693.811    23106699.217
 123518533.127 7  96069987.910 6                      4518.396        3514.336
                        44.000          37.000
  21823729.566    21823730.679                    21823729.661    21823730.652
 116824166.259 8  90863260.416 7                     -1391.663       -1082.411
                        52.000          46.000
  21078352.077    21078353.395                    21078351.828    21078353.436
 112873703.892 8  87790639.478 7                      2394.992        1862.813
                        52.000          47.000
  22501689.854    22501690.473                    22501687.990    22501690.665
 120157784.340 7  93456039.044 6                     -3990.534       -3103.741
                        42.000          39.000
  20923762.748    20923763.889                    20923762.565    20923764.449
 111535742.841 8  86749820.998 7                      -978.683        -761.203
                        53.000          46.000
  22076167.088    22076170.646                    22076168.045    22076170.311
 117968343.190 8  91753160.887 6                      2137.767        1662.715
                        48.000          38.000
  24407085.822    24407088.834                    24407085.831    24407090.018
 130607286.840 7 101583420.750 6                      3552.992        2763.503
                        42.000          37.000
  23252294.412    23252297.597                    23252294.342    23252296.982
 124122331.354 8  96539597.702 7                     -3113.858       -2421.875
                        49.000          45.000
  19627511.530    19627512.834                    19627511.156    19627514.400
 104993994.453 8  81662005.116 7                      -695.465        -540.908
                        53.000          43.000
  20592270.474    20592270.717                    20592270.102    20592270.847
 110116119.137 7  85645896.059 6                      2265.288        1761.943
                        47.000          36.000
  38681151.820                    38681160.153
 203270793.662 7                 151793119.019 7       136.611
       101.990          47.000                          44.000
  38469325.737
 202157644.452 7                                       256.200
                        43.000
  39728981.163                    39728981.076
 208777247.781 6                 155905063.289 7       146.282
       109.242          39.000                          43.000
  41578060.066                    41578068.145
 218494160.710 6                 163161240.541 6       138.566
       103.481          36.000                          39.000
  38321437.825                    38321443.116
 201380591.759 7                 150381556.732 7       141.616
       105.734          47.000                          46.000
 18  7  4 14  4  0.0000000  0 28G04G07G08G10G13G15G16G18G20G21G26G27
                                G30R01R07R08R13R14R15R17R22R23R24S23
                                S25S27S28S36
  24001509.334    24001510.312                    24001509.416    24001509.314
 126128777.084 5  98282164.159 5                     -3745.590       -2918.625
                        34.000          34.000
  24479390.936    24479391.129                    24479390.915    24479390.623
 128640077.517 4 100239024.072 4                       235.673         183.674
                        29.000          29.000
  22734286.482    22734289.152    22734286.560    22734286.316    22734289.134
 119469504.351 6  93093126.973 6  89214254.925 8      2986.663        2327.228
      2230.269          36.000          36.000          52.000
  21531025.374    21531026.384    21531023.697    21531025.264    21531026.782
 113146340.159 7  88165990.151 7  84492422.078 9      2331.493        1816.712
      1741.018          43.000          43.000          55.000
  25332633.028                                    25332633.257    25332633.059
 133123884.792 2 103732897.675 2                       -83.100         -64.692
                        17.000          17.000
  24508061.380    24508060.911                    24508061.380    24508060.813
 128790739.804 5 100356423.123 5                       681.258         530.879
                        31.000          31.000
  21213945.182                                    21213944.955    21213943.844
 111480053.059 6  86867578.421 6                     -2042.184       -1591.284
                        41.000          41.000
  25025936.934                                    25025937.002    25025937.975
 131512183.200 3 102477026.945 3                      3857.165        3005.554
                        21.000          21.000
  20890247.948                                    20890247.165    20890246.462
 109779049.860 7  85542129.442 7                       308.397         240.295
                        42.000          42.000
  22690356.382                                    22690356.027    22690354.901
 119238664.632 6  92913254.117 6                     -2112.731       -1646.326
                        38.000          38.000
  22928654.766    22928657.605    22928655.854    22928654.382    22928657.569
 120490905.624 6  93889019.277 6  89976978.665 8     -3294.251       -2566.981
     -2459.992          37.000          37.000          52.000
  20377686.903    20377687.789    20377685.808    20377686.723    20377687.758
 107085496.056 7  83443251.510 7  79966460.386 9      1244.928         970.080
       929.657          46.000          46.000          57.000
  25400943.184    25400946.127    25400944.383    25400941.478    25400945.380
 133482850.674 4 104012612.180 4  99678756.948 8      1579.651        1230.827
      1179.548          26.000          26.000          48.000
  23081350.671    23081354.398                    23081350.328    23081355.106
 123383056.163 7  95964617.027 6                      4513.406        3510.333
                        44.000          37.000
  21831600.337    21831602.107                    21831600.211    21831601.838
 116866300.934 8  90896031.825 7                     -1417.336       -1102.383
                        52.000          47.000
  21064999.415    21065000.852                    21064999.590    21065000.883
 112802203.095 8  87735027.782 8                      2371.661        1844.636
                        52.000          48.000
  22524134.609    22524138.484                    22524133.987    22524137.147
 120277641.421 7  93549261.118 6                     -4000.028       -3111.161
                        43.000          39.000
  20929346.320    20929348.283                    20929346.476    20929347.907
 111565506.831 9  86772970.754 7                     -1005.664        -782.184
                        54.000          46.000
  22064235.102    22064239.363                    22064235.577    22064238.510
 117904580.775 7  91703567.924 6                      2113.084        1643.563
                        47.000          39.000
  24387168.566    24387174.200                    24387169.513    24387172.095
 130500708.721 7 101500526.666 6                      3552.280        2762.905
                        43.000          36.000
  23269801.113    23269804.157                    23269801.604    23269804.934
 124215788.693 8  96612286.691 7                     -3116.679       -2424.088
                        49.000          44.000
  19631445.028    19631450.099                    19631446.199    19631449.574
 105015046.240 8  81678378.732 7                      -708.080        -550.727
                        53.000          43.000
  20579588.145    20579590.264                    20579588.891    20579589.839
 110048306.903 7  85593153.223 6                      2255.464        1754.309
                        47.000          36.000
  38680372.865                    38680381.665
 203266702.193 7                 151790063.681 7       136.214
       101.774          46.000                          44.000
  38467934.386
 202149961.369 7                                       255.685
                        43.000
  39728145.924                    39728146.094
 208772861.263 6                 155901787.508 7       146.001
       108.992          37.000                          43.000
  41577271.921                    41577279.290
 218490014.090 6                 163158143.662 6       137.668
       102.824          36.000                          38.000
  38320630.405                    38320635.548
 201376349.160 7                 150378395.860 7       141.234
       105.432          47.000                          47.000
 18  7  4 14  4 30.0000000  0 28G04G07G08G10G13G15G16G18G20G21G26G27
                                G30R01R07R08R13R14R15R17R22R23R24S23
                                S25S27S28S36
  24022902.390    24022902.627                    24022902.140    24022902.207
 126241199.020 5  98369765.614 5                     -3749.229       -2921.451
                        34.000          34.000
  24478096.718    24478096.309                    24478096.922    24478095.350
 128633277.154 4 100233725.049 4                       217.579         169.610
                        26.000          26.000
  22717251.977    22717254.407    22717251.540    22717250.983    22717254.291
 119379985.615 6  93023372.119 6  89147406.536 8      2981.311        2323.062
      2226.284          38.000          38.000          52.000
  21517760.011    21517761.058    21517758.286    21517759.923    21517761.567
 113076630.174 7  88111670.693 7  84440365.937 9      2315.796        1804.535
      1729.340          44.000          44.000          55.000
  25333160.583                                    25333160.540    25333161.358
 133126656.003 3 103735057.056 3                      -101.561         -78.984
                        18.000          18.000
  24504224.030    24504223.217                    24504223.858    24504223.350
 128770574.618 5 100340710.006 5                       663.119         516.720
                        32.000          32.000
  21225650.060                                    21225649.422    21225648.648
 111541561.262 6  86915506.877 6                     -2058.372       -1603.904
                        41.000          41.000
  25003923.306                                    25003924.146    25003925.693
 131396499.542 4 102386883.915 4                      3855.082        3003.997
                        24.000          24.000
  20888544.168                                    20888543.463    20888542.797
 109770095.738 7  85535152.222 7                       288.609         224.930
                        42.000          42.000
  22702431.590                                    22702430.907    22702429.265
 119302118.091 6  92962698.338 6                     -2117.497       -1650.007
                        38.000          38.000
  22947483.577    22947486.512    22947484.942    22947483.620    22947486.537
 120589851.489 6  93966119.911 6  90050866.756 8     -3302.093       -2572.997
     -2465.829          37.000          37.000          53.000
  20370615.367    20370616.610    20370614.282    20370614.974    20370616.127
 107048334.542 7  83414294.493 7  79938709.909 9      1232.514         960.409
       920.399          46.000          46.000          58.000
  25391972.004    25391975.394    25391973.514    25391970.713    25391974.950
 133435708.432 4 103975877.921 4  99643553.324 8      1563.290        1218.146
      1167.404          27.000          27.000          48.000
  23056033.412    23056039.056                    23056034.312    23056038.324
 123247725.198 7  95859359.695 6                      4508.788        3506.843
                        45.000          37.000
  21839613.116    21839615.679                    21839613.048    21839615.274
 116909197.405 8  90929395.753 7                     -1442.409       -1121.879
                        51.000          46.000
  21051777.501    21051778.257                    21051777.105    21051778.521
 112731396.311 8  87679955.858 8                      2348.734        1826.816
                        53.000          48.000
  22546630.882    22546631.965                    22546630.834    22546633.383
 120397770.726 7  93642694.973 6                     -4008.708       -3117.868
                        44.000          39.000
  20935081.089    20935082.718                    20935080.709    20935081.745
 111596074.282 8  86796745.428 7                     -1032.170        -802.792
                        53.000          46.000
  22052440.107    22052442.974                    22052440.528    22052443.682
 117841552.901 7  91654546.264 6                      2088.762        1624.653
                        47.000          39.000
  24367256.196    24367262.288                    24367256.864    24367259.034
 130394147.995 7 101417646.120 6                      3551.900        2762.561
                        43.000          38.000
  23287324.563    23287325.991                    23287324.108    23287326.443
 124309323.332 8  96685035.808 7                     -3118.982       -2425.899
                        49.000          43.000
  19635450.866    19635454.025                    19635451.351    19635454.756
 105036471.442 8  81695042.785 7                      -720.294        -560.213
                        53.000          43.000
  20566962.200    20566963.192                    20566961.715    20566961.865
 109980784.157 7  85540635.539 6                      2245.996        1746.943
                        46.000          36.000
  38679595.082                    38679603.977
 203262614.046 7                 151787010.780 7       136.354
       101.878          46.000                          44.000
  38466544.469
 202142291.537 7                                       255.819
                        43.000
  39727313.497                    39727312.178
 208768478.999 6                 155898515.674 7       146.453
       109.373          36.000                          43.000
  41576483.119                    41576490.263
 218485870.376 5                 163155053.398 6       138.363
       103.295          34.000                          36.000
  38319823.352                    38319828.589
 201372109.167 7                 150375226.667 7       141.343
       105.633          46.000                          47.000
 18  7  4 14  5  0.0000000  0 28G04G07G08G10G13G15G16G18G20G21G26G27
                                G30R01R07R08R13R14R15R17R22R23R24S23
                                S25S27S28S36
  24044315.617    24044316.278                    24044314.668    24044316.444
 126353725.602 5  98457448.578 5                     -3752.478       -2923.974
                        33.000          33.000
  24476905.471    24476905.280                    24476904.686    24476906.002
 128627019.104 4 100228848.657 4                       199.640         155.575
                        26.000          26.000
  22700247.737    22700249.823    22700247.279    22700247.356    22700249.748
 119290627.136 6  92953742.153 6  89080677.830 8      2975.944        2318.922
      2222.282          39.000          39.000          52.000
  21504583.984    21504585.532    21504582.511    21504583.875    21504585.599
 113007392.046 7  88057718.925 7  84388662.163 9      2300.113        1792.303
      1717.621          43.000          43.000          55.000
  25333794.751                                    25333794.346    25333793.508
 133129985.116 3 103737651.172 3                      -120.193         -93.574
                        21.000          21.000
  24500490.989    24500489.641                    24500491.552    24500490.629
 128750957.577 5 100325424.031 5                       644.752         502.376
                        31.000          31.000
  21237447.214                                    21237446.387    21237445.807
 111603555.571 6  86963814.102 6                     -2074.496       -1616.517
                        41.000          41.000
  24981920.711                                    24981920.229    24981923.334
 131280882.546 3 102296792.849 3                      3852.800        3002.134
                        23.000          23.000
  20886954.301                                    20886953.279    20886952.602
 109761739.934 7  85528641.228 7                       268.598         209.294
                        42.000          42.000
  22714533.909                                    22714532.677    22714531.921
 119365715.393 6  93012254.675 6                     -2122.225       -1653.703
                        38.000          38.000
  22966356.943    22966359.402    22966358.368    22966356.627    22966360.423
 120689032.141 6  94043403.495 6  90124930.153 8     -3309.813       -2579.097
     -2471.589          37.000          37.000          52.000
  20363615.341    20363616.675    20363614.648    20363615.296    20363616.451
 107011550.989 7  83385631.982 7  79911241.673 9      1219.847         950.524
       910.922          46.000          46.000          58.000
  25383094.021    25383096.960    25383095.589    25383092.853    25383096.396
 133389055.346 4 103939524.868 4  99608714.975 8      1546.971        1205.442
      1155.202          27.000          27.000          48.000
  23030744.570    23030745.926                    23030745.413    23030747.590
 123112538.143 7  95754214.277 6                      4503.804        3502.951
                        46.000          37.000
  21847767.687    21847769.362                    21847767.796    21847769.443
 116952847.427 8  90963345.770 7                     -1467.480       -1141.377
                        52.000          46.000
  21038683.399    21038684.591                    21038682.995    21038684.445
 112661280.054 8  87625421.015 8                      2325.650        1808.860
                        53.000          48.000
  22569175.106    22569179.041                    22569175.720    22569179.790
 120518162.054 7  93736332.607 6                     -4017.282       -3124.530
                        45.000          39.000
  20940963.943    20940964.939                    20940963.907    20940965.151
 111627436.695 8  86821138.406 7                     -1058.628        -823.367
                        53.000          46.000
  22040783.609    22040787.290                    22040782.421    22040786.001
 117779256.074 7  91606093.202 6                      2064.436        1605.605
                        47.000          39.000
  24347345.087    24347349.637                    24347344.510    24347348.008
 130287598.713 7 101334774.474 6                      3551.422        2762.257
                        42.000          36.000
  23304860.219    23304862.552                    23304859.247    23304862.064
 124402928.380 8  96757839.689 7                     -3121.340       -2427.694
                        49.000          42.000
  19639524.614    19639528.729                    19639524.949    19639528.774
 105058263.155 8  81711991.889 7                      -732.465        -569.707
                        53.000          43.000
  20554386.517    20554386.359                    20554386.997    20554388.044
 109913544.985 7  85488338.427 6                      2236.622        1739.554
                        47.000          36.000
  38678816.616                    38678825.497
 203258523.528 7                 151783956.229 7       136.512
       101.901          45.000                          44.000
  38465155.527
 202134618.479 7                                       255.848
                        43.000
  39726477.828                    39726477.790
 208764092.891 6                 155895240.219 7       146.149
       109.147          36.000                          43.000
  41575692.281                    41575701.349
 218481723.814 5                 163151958.216 6       137.695
       103.035          34.000                          37.000
  38319015.603                    38319021.727
 201367865.881 7                 150372058.565 7       141.522
       105.618          46.000                          47.000
 18  7  4 14  5 30.0000000  0 28G04G07G08G10G13G15G16G18G20G21G26G27
                                G30R01R07R08R13R14R15R17R22R23R24S23
                                S25S27S28S36
  24065748.423    24065749.148                    24065748.264    24065749.400
 126466357.025 5  98545213.240 5                     -3756.010       -2926.819
                        34.000          34.000
  24475818.325    24475818.424                    24475819.187    24475817.231
 128621305.601 4 100224396.567 4                       181.435         141.380
                        28.000          28.000
  22683274.735    22683276.715    22683274.202    22683274.175    22683276.202
 119201433.225 6  92884240.420 6  89014072.010 8      2970.370        2314.574
      2218.134          39.000          39.000          52.000
  21491499.125    21491500.650    21491497.557    21491498.972    21491500.625
 112938630.448 7  88004138.478 7  84337314.244 9      2284.061        1779.778
      1705.615          44.000          44.000          55.000
  25334535.484                                    25334534.119    25334533.126
 133133874.576 3 103740681.974 3                      -139.108        -108.304
                        23.000          23.000
  24496862.603    24496862.632                    24496862.519    24496862.834
 128731891.953 5 100310567.724 5                       626.286         488.044
                        31.000          31.000
  21249336.787                                    21249336.232    21249335.472
 111666036.784 6  87012500.747 6                     -2090.840       -1629.227
                        41.000          41.000
  24959933.911                                    24959934.873    24959934.973
 131165336.201 4 102206756.816 4                      3850.392        3000.275
                        24.000          24.000
  20885478.179                                    20885477.696    20885476.617
 109753984.464 7  85522598.011 7                       248.439         193.636
                        42.000          42.000
  22726663.896                                    22726662.813    22726661.548
 119429457.811 6  93061924.090 6                     -2127.227       -1657.590
                        39.000          39.000
  22985275.577    22985277.462    22985276.173    22985274.935    22985278.086
 120788447.683 6  94120870.106 6  90199168.983 8     -3317.729       -2585.268
     -2477.562          36.000          36.000          52.000
  20356688.365    20356689.447    20356687.512    20356688.258    20356689.434
 106975149.111 7  83357266.890 7  79884058.461 9      1207.015         940.577
       901.372          46.000          46.000          58.000
  25374310.134    25374313.371    25374311.595    25374309.230    25374312.531
 133342895.334 4 103903556.046 4  99574244.856 7      1530.454        1192.572
      1142.903          26.000          26.000          46.000
  23005483.199    23005486.702                    23005483.415    23005487.308
 122977501.723 7  95649186.014 6                      4498.645        3498.958
                        46.000          37.000
  21856062.218    21856064.262                    21856062.476    21856064.302
 116997250.977 8  90997881.861 7                     -1492.613       -1160.912
                        51.000          46.000
  21025719.331    21025720.489                    21025719.186    21025720.468
 112591860.429 8  87571428.007 7                      2302.351        1790.712
                        52.000          47.000
  22591769.672    22591776.438                    22591769.564    22591772.760
 120638812.639 7  93830171.889 6                     -4025.951       -3131.319
                        44.000          38.000
  20946996.766    20946999.076                    20946996.852    20946998.088
 111659594.927 8  86846150.345 7                     -1085.246        -844.083
                        53.000          46.000
  22029261.266    22029265.338                    22029261.905    22029266.150
 117717695.184 7  91558212.535 6                      2039.736        1586.465
                        47.000          39.000
  24327436.838    24327441.785                    24327436.775    24327439.993
 130181064.155 7 101251914.262 6                      3550.890        2761.817
                        45.000          37.000
  23322408.244    23322412.045                    23322407.854    23322411.254
 124496605.822 8  96830699.874 7                     -3123.826       -2429.649
                        48.000          43.000
  19643666.944    19643669.330                    19643667.643    19643671.467
 105080423.511 9  81729227.720 7                      -744.800        -579.336
                        54.000          43.000
  20541868.217    20541869.084                    20541867.405    20541867.235
 109846592.918 7  85436264.614 5                      2226.999        1732.126
                        47.000          35.000
  38678038.389                    38678047.178
 203254432.694 7                 151780901.296 7       136.516
       101.912          46.000                          44.000
  38463768.028
 202128331.965 7                                       255.632
                        43.000
  39725644.133                    39725643.166
 208759708.203 6                 155891965.794 7       146.033
       109.004          38.000                          43.000
  41574903.492
 218477577.563 5                                       138.550
                        35.000
  38318209.203                    38318214.164
 201363622.681 7                 150368889.989 7       141.510
       105.642          47.000                          47.000
 18  7  4 14  6  0.0000000  0 28G04G07G08G10G13G15G16G18G20G21G26G27
                                G30R01R07R08R13R14R15R17R22R23R24S23
                                S25S27S28S36
  24087201.121    24087202.035                    24087200.625    24087201.288
 126579091.118 5  98633057.896 5                     -3759.317       -2929.299
                        34.000          34.000
  24474834.855    24474834.420                    24474834.919    24474834.717
 128616136.822 4 100220368.940 4                       163.391         127.304
                        27.000          27.000
  22666333.342    22666335.598    22666332.563    22666332.571    22666335.075
 119112405.218 6  92814867.980 6  88947590.095 8      2965.091        2310.451
      2214.178          40.000          40.000          52.000
  21478504.838    21478506.578    21478504.097    21478505.074    21478507.176
 112870347.751 7  87950931.221 7  84286323.946 9      2268.358        1767.527
      1693.900          43.000          43.000          55.000
  25335380.424                                    25335381.394    25335381.300
 133138324.733 2 103744149.591 2                      -157.393        -122.611
                        16.000          16.000
  24493339.736    24493339.631                    24493339.999    24493339.134
 128713379.588 5 100296142.533 5                       608.148         473.876
                        30.000          30.000
  21261318.976                                    21261318.515    21261317.608
 111729003.635 6  87061565.808 6                     -2106.713       -1641.640
                        41.000          41.000
  24937960.080                                    24937959.651    24937961.557
 131049861.938 3 102116776.924 3                      3848.330        2998.793
                        23.000          23.000
  20884117.052                                    20884116.110    20884115.085
 109746830.209 7  85517023.276 7                       228.721         178.251
                        42.000          42.000
  22738821.097                                    22738820.356    22738818.993
 119493345.065 6  93111706.332 6                     -2131.772       -1661.119
                        38.000          38.000
  23004237.703    23004240.764    23004238.923    23004237.757    23004241.116
 120888095.982 6  94198518.066 6  90273581.589 8     -3325.203       -2591.019
     -2483.092          37.000          37.000          52.000
  20349834.421    20349835.351    20349833.420    20349834.103    20349835.377
 106939130.374 7  83329200.345 7  79857161.358 9      1194.516         930.794
       892.008          46.000          46.000          58.000
  25365620.359    25365622.951    25365621.705    25365619.204    25365623.393
 133297230.463 4 103867973.010 4  99540144.449 7      1514.143        1179.804
      1130.652          29.000          29.000          46.000
  22980250.806    22980253.490                    22980251.370    22980254.821
 122842620.741 7  95544278.658 6                      4493.592        3495.011
                        46.000          38.000
  21864498.258    21864500.216                    21864498.224    21864499.569
 117042406.721 8  91033002.989 7                     -1517.403       -1180.226
                        51.000          46.000
  21012886.540    21012887.693                    21012886.444    21012887.876
 112523141.432 8  87517979.911 7                      2279.179        1772.725
                        53.000          47.000
  22614412.630    22614413.303                    22614411.673    22614413.242
 120759719.085 7  93924210.186 6                     -4034.020       -3137.577
                        43.000          38.000
  20953178.953    20953179.685                    20953178.379    20953180.037
 111692547.436 8  86871780.059 7                     -1111.452        -864.444
                        53.000          46.000
  22017879.090    22017883.435                    22017879.765    22017883.677
 117656873.091 7  91510906.485 6                      2015.325        1567.523
                        46.000          39.000
  24307531.266    24307533.421                    24307530.859    24307533.879
 130074545.188 7 101169066.215 6                      3550.626        2761.530
                        44.000          37.000
  23339971.084    23339974.481                    23339970.830    23339973.739
 124590355.520 7  96903616.244 7                     -3125.898       -2431.233
                        47.000          43.000
  19647878.930    19647881.572                    19647879.090    19647882.482
 105102952.455 8  81746750.227 7                      -756.887        -588.678
                        53.000          43.000
  20529400.607    20529401.172                    20529400.282    20529401.389
 109779929.167 7  85384415.043 6                      2217.540        1724.775
                        47.000          36.000
  38677259.990                    38677268.563
 203250342.254 7                 151777846.624 7       136.590
       102.040          46.000                          44.000
  38462382.863
 202120667.542 7                                       255.607
                        43.000
  39724809.683                    39724808.716
 208755323.502 6                 155888691.952 7       146.274
       109.152          38.000                          43.000
  41574115.944                    41574123.695
 218473430.057 5                 163145763.932 6       138.292
       103.132          34.000                          39.000
  38317401.423                    38317406.995
 201359380.073 7                 150365723.145 7       141.558
       105.739          47.000                          47.000
 18  7  4 14  6 30.0000000  0 28G04G07G08G10G13G15G16G18G20G21G26G27
                                G30R01R07R08R13R14R15R17R22R23R24S23
                                S25S27S28S36
  24108671.690    24108672.532                    24108671.188    24108672.213
 126691919.125 5  98720975.758 5                     -3762.372       -2931.806
                        34.000          34.000
  24473953.795    24473952.729                    24473953.102    24473952.869
 128611505.867 4 100216760.422 4                       145.389         113.297
                        28.000          28.000
  22649422.475    22649424.248    22649422.047    22649421.951    22649423.692
 119023538.246 6  92745621.018 6  88881228.423 8      2959.623        2306.231
      2210.111          39.000          39.000          52.000
  21465602.385    21465603.265    21465600.585    21465602.239    21465603.317
 112802539.563 7  87898093.689 7  84235687.990 9      2252.468        1755.157
      1682.013          45.000          45.000          56.000
  25336333.787                                    25336332.575    25336335.030
 133143328.967 3 103748049.015 3                      -176.050        -137.321
                        20.000          20.000
  24489921.514    24489921.585                    24489920.822    24489920.875
 128695414.967 5 100282144.143 5                       589.807         459.549
                        31.000          31.000
  21273391.890                                    21273391.713    21273390.612
 111792447.803 6  87111002.803 6                     -2122.592       -1654.022
                        41.000          41.000
  24915997.514                                    24915996.256    24916000.220
 130934454.704 3 102026849.305 3                      3845.861        2996.857
                        23.000          23.000
  20882868.753                                    20882867.789    20882867.236
 109740270.705 7  85511911.977 7                       208.814         162.723
                        42.000          42.000
  22751004.430                                    22751003.848    22751002.873
 119557370.420 6  93161596.211 6                     -2136.367       -1664.706
                        38.000          38.000
  23023243.300    23023246.371    23023243.582    23023242.804    23023246.847
 120987968.100 6  94276340.471 6  90348161.369 8     -3332.675       -2596.983
     -2488.729          39.000          39.000          50.000
  20343052.065    20343053.112    20343051.213    20343051.756    20343053.320
 106903489.544 7  83301428.271 7  79830546.455 9      1181.838         920.894
       882.524          46.000          46.000          58.000
  25357023.915    25357026.098    25357025.260    25357022.436    25357025.699
 133252055.300 4 103832771.562 4  99506409.736 7      1497.818        1167.110
      1118.465          28.000          28.000          47.000
  22955047.177    22955051.194                    22955047.503    22955052.572
 122707893.294 7  95439490.710 6                      4488.422        3490.934
                        47.000          38.000
  21873072.008    21873073.302                    21873072.396    21873074.113
 117088305.548 8  91068702.066 7                     -1542.228       -1199.548
                        51.000          46.000
  21000183.975    21000185.378                    21000183.998    21000185.217
 112455118.876 8  87465073.496 8                      2255.927        1754.586
                        53.000          48.000
  22637101.070    22637103.628                    22637098.888    22637102.545
 120880869.803 7  94018438.452 6                     -4042.273       -3144.013
                        42.000          38.000
  20959508.259    20959509.983                    20959507.746    20959509.189
 111726285.431 8  86898020.700 7                     -1137.574        -884.818
                        53.000          46.000
  22006634.374    22006637.715                    22006634.944    22006638.213
 117596785.903 7  91464172.024 6                      1990.765        1548.334
                        46.000          40.000
  24287625.802    24287627.535                    24287626.824    24287629.609
 129968035.836 7 101086225.646 6                      3550.279        2761.314
                        45.000          39.000
  23357546.387    23357549.480                    23357545.741    23357548.287
 124684170.240 8  96976583.197 7                     -3128.163       -2433.070
                        48.000          43.000
  19652157.297    19652161.263                    19652158.119    19652162.084
 105125843.224 8  81764554.153 7                      -768.941        -598.090
                        53.000          43.000
  20516987.485    20516985.970                    20516987.171    20516987.678
 109713548.278 7  85332785.475 6                      2208.079        1717.380
                        47.000          36.000
  38676480.773                    38676489.148
 203246245.747 7                 151774787.374 7       136.800
       102.127          46.000                          44.000
  38460995.801
 202113007.701 7                                       255.831
                        44.000
  39723973.699                    39723973.162
 208750932.775 6                 155885413.022 7       147.139
       109.898          36.000                          43.000
  41573324.687                    41573332.830
 218469277.830 5                 163142660.362 6       138.540
       103.449          35.000                          36.000
  38316592.955                    38316598.356
 201355133.428 7                 150362550.397 7       141.749
       105.847          45.000                          47.000
 18  7  4 14  7  0.0000000  0 28G04G07G08G10G13G15G16G18G20G21G26G27
                                G30R01R07R08R13R14R15R17R22R23R24S23
                                S25S27S28S36
  24130160.994    24130160.938                    24130160.531    24130161.383
 126804844.671 5  98808969.614 5                     -3765.696       -2934.295
                        34.000          34.000
  24473176.047    24473174.795                    24473176.153    24473175.656
 128607418.613 4 100213575.522 4                       127.204          99.166
                        29.000          29.000
  22632543.660    22632546.019    22632543.150    22632542.893    22632545.473
 118934839.922 6  92676505.468 6  88814992.696 8      2953.855        2301.739
      2205.815          40.000          40.000          52.000
  21452790.323    21452791.665    21452788.740    21452790.093    21452791.725
 112735213.974 7  87845632.210 7  84185412.412 9      2236.157        1742.478
      1669.876          44.000          44.000          55.000
  25337392.657                                    25337391.531    25337392.851
 133148893.110 4 103752384.685 4                      -194.673        -151.692
                        24.000          24.000
  24486607.919    24486608.145                    24486608.157    24486607.867
 128678005.180 5 100268578.098 5                       571.179         445.114
                        32.000          32.000
  21285556.495                                    21285556.308    21285555.332
 111856373.590 6  87160815.078 6                     -2138.844       -1666.646
                        41.000          41.000
  24894051.036                                    24894050.027    24894051.923
 130819121.746 3 101936979.525 3                      3843.354        2994.751
                        20.000          20.000
  20881734.699                                    20881733.879    20881733.174
 109734311.831 7  85507268.695 7                       188.730         147.017
                        42.000          42.000
  22763215.407                                    22763214.434    22763213.248
 119621537.921 6  93211596.837 6                     -2141.189       -1668.449
                        39.000          39.000
  23042291.141    23042294.852    23042291.621    23042291.039    23042294.515
 121088067.634 6  94354340.040 6  90422910.970 8     -3340.361       -2602.804
     -2494.405          37.000          37.000          50.000
  20336343.050    20336344.335    20336342.260    20336342.831    20336344.328
 106868233.814 7  83273956.284 7  79804219.134 9      1168.834         910.824
       872.870          46.000          46.000          57.000
  25348520.977    25348524.366    25348523.372    25348521.395    25348524.871
 133207377.537 4 103797957.751 4  99473046.492 7      1480.947        1154.019
      1105.917          24.000          24.000          47.000
  22929875.097    22929880.041                    22929874.476    22929877.914
 122573329.452 7  95334829.971 6                      4482.661        3486.534
                        47.000          37.000
  21881786.380    21881787.668                    21881786.803    21881788.190
 117134951.523 8  91104982.258 7                     -1567.258       -1218.959
                        51.000          46.000
  20987613.038    20987614.110                    20987613.401    20987614.631
 112387802.674 8  87412716.452 8                      2232.169        1736.143
                        53.000          48.000
  22659833.686    22659836.825                    22659832.708    22659835.785
 121002266.992 7  94112858.431 6                     -4050.711       -3150.522
                        42.000          38.000
  20965985.587    20965987.299                    20965985.151    20965986.669
 111760813.335 8  86924875.720 7                     -1163.992        -905.340
                        53.000          47.000
  21995528.762    21995534.892                    21995529.921    21995533.223
 117537442.469 7  91418016.030 6                      1965.770        1528.940
                        46.000          39.000
  24267727.053    24267730.317                    24267726.037    24267729.321
 129861542.830 7 101003397.814 6                      3549.475        2760.687
                        45.000          39.000
  23375134.012    23375135.735                    23375133.666    23375136.147
 124778055.564 8  97049605.054 7                     -3130.639       -2434.962
                        48.000          43.000
  19656506.366    19656509.291                    19656506.117    19656509.729
 105149101.565 8  81782643.975 7                      -781.344        -607.715
                        53.000          43.000
  20504627.744    20504628.841                    20504627.929    20504628.217
 109647456.670 8  85281380.886 6                      2198.196        1709.678
                        48.000          36.000
  38675700.922                    38675709.956
 203242149.313 7                 151771728.274 7       136.582
       101.993          47.000                          44.000
  38459612.482
 202105353.802 7                                       255.048
                        43.000
  39723137.585                    39723137.644
 208746541.625 6                 155882133.907 7       146.403
       109.449          38.000                          43.000
  41572534.594                    41572542.546
 218465123.813 5                 163139561.676 6       138.570
       103.538          35.000                          39.000
  38315785.426                    38315789.949
 201350887.325 7                 150359376.451 7       141.675
       105.838          46.000                          47.000
 18  7  4 14  7 30.0000000  0 28G04G07G08G10G13G15G16G18G20G21G26G27
                                G30R01R07R08R13R14R15R17R22R23R24S23
                                S25S27S28S36
  24151669.007    24151669.268                    24151668.646    24151668.343
 126917869.287 5  98897040.679 5                     -3768.951       -2936.893
                        34.000          34.000
  24472501.999    24472502.731                    24472502.089    24472502.018
 128603878.024 4 100210816.629 4                       109.083          85.044
                        28.000          28.000
  22615697.443    22615700.386    22615697.521    22615697.333    22615699.570
 118846315.777 6  92607525.652 6  88748887.043 8      2947.999        2297.184
      2201.479          40.000          40.000          52.000
  21440071.537    21440072.520    21440070.151    21440071.404    21440072.956
 112668376.748 7  87793551.273 7  84135501.520 9      2219.896        1729.797
      1657.723          44.000          44.000          55.000
  25338558.054                                    25338557.293    25338559.797
 133155021.073 3 103757159.733 3                      -213.409        -166.266
                        20.000          20.000
  24483402.064    24483401.480                    24483402.100    24483401.611
 128661155.094 5 100255448.192 5                       552.469         430.497
                        33.000          33.000
  21297813.625                                    21297813.279    21297812.389
 111920782.707 6  87211003.986 6                     -2154.814       -1679.064
                        41.000          41.000
  24872118.291                                    24872119.321    24872120.668
 130703867.989 3 101847171.456 3                      3840.554        2992.718
                        23.000          23.000
  20880715.476                                    20880714.900    20880714.364
 109728957.389 7  85503096.410 7                       168.520         131.368
                        42.000          42.000
  22775453.489                                    22775452.838    22775451.592
 119685850.090 6  93261710.191 6                     -2146.025       -1672.178
                        38.000          38.000
  23061382.998    23061386.807    23061383.731    23061383.008    23061386.742
 121188395.840 6  94432517.810 6  90497831.314 8     -3347.905       -2608.749
     -2500.041          40.000          40.000          50.000
  20329708.203    20329709.671    20329707.525    20329708.102    20329709.599
 106833368.102 7  83246788.203 7  79778183.054 9      1155.834         900.673
       863.146          46.000          46.000          58.000
  25340114.404    25340118.985    25340117.075    25340115.180    25340117.477
 133163202.138 4 103763535.373 4  99440058.358 7      1464.146        1140.882
      1093.393          26.000          26.000          47.000
  22904733.934    22904739.598                    22904733.546    22904737.271
 122438937.363 7  95230302.820 6                      4476.875        3482.012
                        46.000          37.000
  21890640.888    21890641.295                    21890640.653    21890641.651
 117182346.272 8  91141844.819 7                     -1592.137       -1238.311
                        51.000          46.000
  20975175.571    20975176.482                    20975175.599    20975176.870
 112321199.590 8  87360914.055 8                      2208.342        1717.634
                        53.000          48.000
  22682614.131    22682618.217                    22682613.419    22682616.269
 121123909.346 7  94207469.068 6                     -4058.650       -3156.702
                        43.000          39.000
  20972610.940    20972612.786                    20972610.901    20972612.388
 111796132.613 8  86952346.252 7                     -1190.328        -925.790
                        53.000          47.000
  21984564.374    21984569.323                    21984565.121    21984568.980
 117478849.758 7  91372443.926 6                      1940.690        1509.434
                        46.000          39.000
  24247828.457    24247832.067                    24247828.998    24247831.962
 129755070.339 7 100920585.933 6                      3548.900        2760.278
                        45.000          39.000
  23392735.111    23392737.373                    23392735.474    23392738.112
 124872014.788 8  97122684.385 7                     -3133.080       -2436.788
                        48.000          42.000
  19660922.778    19660926.196                    19660923.611    19660926.989
 105172731.232 9  81801022.596 7                      -793.669        -617.296
                        54.000          43.000
  20492323.609    20492324.003                    20492323.931    20492324.579
 109581659.626 7  85230205.410 5                      2188.412        1702.129
                        47.000          35.000
  38674922.055                    38674931.027
 203238057.444 7                 151768672.948 7       136.424
       101.865          46.000                          44.000
  38458229.271
 202099090.905 7                                       254.576
                        44.000
  39722303.326                    39722302.526
 208742154.467 6                 155878857.316 7       146.291
       109.246          38.000                          43.000
  41571742.932                    41571753.494
 218460973.542 5                 163136457.270 6       138.465
       103.467          33.000                          41.000
  38314977.489                    38314982.310
 201346645.529 7                 150356203.046 7       141.552
       105.671          45.000                          47.000
 18  7  4 14  8  0.0000000  0 28G04G07G08G10G13G15G16G18G20G21G26G27
                                G30R01R07R08R13R14R15R17R22R23R24S23
                                S25S27S28S36
  24173195.361    24173195.891                    24173194.942    24173195.342
 127030989.880 5  98985186.545 5                     -3772.126       -2939.323
                        33.000          33.000
  24471932.106    24471932.402                    24471932.687    24471932.947
 128600883.364 4 100208483.152 4                        90.932          70.823
                        28.000          28.000
  22598885.417    22598887.842    22598885.099    22598884.723    22598887.608
 118757966.666 6  92538682.206 6  88682912.083 8      2942.207        2292.669
      2197.153          39.000          39.000          52.000
  21427445.730    21427447.442    21427444.428    21427445.827    21427447.444
 112602029.251 7  87741851.944 7  84085956.330 9      2203.594        1717.082
      1645.551          44.000          44.000          55.000
  25339831.286                                    25339831.695    25339833.255
 133161711.788 3 103762373.250 3                      -232.209        -180.915
                        20.000          20.000
  24480301.929    24480301.883                    24480302.247    24480301.392
 128644865.213 5 100242754.806 5                       533.855         415.992
                        33.000          33.000
  21310162.008                                    21310161.002    21310159.987
 111985672.827 6  87261567.703 6                     -2170.784       -1691.501
                        41.000          41.000
  24850201.823                                    24850202.780    24850202.929
 130588693.968 3 101757425.540 3                      3838.042        2990.665
                        23.000          23.000
  20879811.475                                    20879810.872    20879810.130
 109724206.687 7  85499394.567 7                       148.522         115.754
                        42.000          42.000
  22787719.258                                    22787717.993    22787717.308
 119750306.239 6  93311935.743 6                     -2150.763       -1675.909
                        38.000          38.000
  23080517.984    23080521.376    23080518.093    23080517.527    23080521.113
 121288949.658 6  94510871.383 6  90572920.156 8     -3355.341       -2614.590
     -2505.604          39.000          39.000          49.000
  20323148.124    20323149.010    20323147.106    20323147.800    20323149.142
 106798892.887 7  83219924.404 7  79752438.578 9      1142.886         890.540
       853.449          46.000          46.000          58.000
  25331803.886    25331807.978    25331806.582    25331803.495    25331807.109
 133119529.736 4 103729504.929 4  99407445.860 7      1447.552        1127.991
      1081.004          24.000          24.000          46.000
  22879625.073    22879631.133                    22879625.451    22879629.349
 122304720.747 7  95125912.164 6                      4471.115        3477.511
                        45.000          38.000
  21899633.058    21899634.133                    21899633.428    21899634.537
 117230486.775 8  91179287.422 7                     -1616.945       -1257.624
                        51.000          46.000
  20962872.033    20962872.613                    20962871.561    20962873.042
 112255312.296 8  87309668.381 8                      2184.498        1699.054
                        53.000          48.000
  22705438.828    22705443.423                    22705438.503    22705441.195
 121245791.821 7  94302266.488 6                     -4066.471       -3162.863
                        43.000          38.000
  20979385.321    20979385.868                    20979384.823    20979386.495
 111832240.555 9  86980430.198 7                     -1216.505        -946.170
                        54.000          47.000
  21973739.622    21973745.473                    21973741.059    21973744.652
 117421009.209 7  91327456.854 6                      1915.663        1489.963
                        46.000          39.000
  24227935.882    24227938.879                    24227936.343    24227939.266
 129648618.429 7 100837790.070 6                      3548.302        2759.758
                        45.000          39.000
  23410351.355    23410353.753                    23410350.869    23410352.968
 124966046.704 8  97195820.262 6                     -3135.351       -2438.577
                        49.000          41.000
  19665409.812    19665412.859                    19665410.362    19665414.192
 105196730.969 9  81819689.051 7                      -805.965        -626.859
                        54.000          44.000
  20480073.364    20480076.501                    20480073.219    20480075.196
 109516157.119 7  85179259.045 6                      2178.685        1694.469
                        46.000          36.000
  38674143.598                    38674153.080
 203233969.071 7                 151765620.251 7       136.400
       101.893          46.000                          44.000
  38456849.681
 202091470.649 7                                       253.799
                        43.000
  39721470.950                    39721468.651
 208737771.255 6                 155875584.242 7       146.169
       109.208          38.000                          43.000
  41570955.634
 218456827.164 5                                       138.150
                        33.000
  38314169.778                    38314175.403
 201342398.601 7                 150353042.056 7       141.823
       105.775          46.000                          47.000
 18  7  4 14  8 30.0000000  0 28G04G07G08G10G13G15G16G18G20G21G26G27
                                G30R01R07R08R13R14R15R17R22R23R24S23
                                S25S27S28S36
  24194737.745    24194738.302                    24194737.123    24194738.890
 127144198.927 5  99073401.315 5                     -3775.218       -2941.829
                        32.000          32.000
  24471465.476    24471465.521                    24471465.120    24471464.758
 128598429.185 4 100206570.775 4                        72.654          56.604
                        29.000          29.000
  22582105.590    22582107.758    22582105.303    22582105.642    22582107.762
 118669788.449 6  92469971.945 6  88617064.745 8      2936.327        2288.029
      2192.695          40.000          40.000          52.000
  21414913.167    21414914.392    21414911.499    21414912.904    21414914.803
 112536168.225 7  87690531.670 7  84036774.411 9      2187.067        1704.225
      1633.203          43.000          43.000          55.000
  25341211.599                                    25341210.577    25341212.371
 133168959.829 3 103768021.147 3                      -251.180        -195.720
                        22.000          22.000
  24477307.641    24477307.733                    24477307.407    24477307.760
 128629131.268 5 100230494.646 5                       515.034         401.325
                        32.000          32.000
  21322600.041                                    21322599.760    21322598.876
 112051036.654 6  87312500.535 6                     -2186.773       -1703.987
                        41.000          41.000
  24828299.896                                    24828298.999    24828301.145
 130473595.986 4 101667738.918 4                      3835.059        2988.403
                        26.000          26.000
  20879021.676                                    20879020.505    20879020.202
 109720054.150 7  85496158.832 7                       128.301          99.933
                        42.000          42.000
  22800010.497                                    22800010.070    22800008.724
 119814899.296 6  93362267.988 6                     -2155.613       -1679.709
                        38.000          38.000
  23099694.222    23099697.304    23099694.550    23099694.137    23099697.510
 121389721.345 6  94589394.724 6  90648171.683 8     -3362.815       -2620.401
     -2511.170          39.000          39.000          49.000
  20316661.121    20316662.493    20316660.257    20316660.896    20316662.287
 106764804.164 7  83193361.764 7  79726982.720 9      1129.669         880.311
       843.621          46.000          46.000          58.000
  25323588.406    25323592.356    25323590.574    25323588.669    25323591.951
 133076356.598 3 103695863.524 3  99375206.205 7      1430.517        1114.631
      1068.217          22.000          22.000          46.000
  22854550.029    22854554.754                    22854549.960    22854555.600
 122170678.734 7  95021657.316 6                      4465.057        3472.781
                        45.000          37.000
  21908764.244    21908766.188                    21908764.437    21908765.690
 117279365.599 8  91217304.284 7                     -1641.685       -1276.867
                        51.000          46.000
  20950700.635    20950702.070                    20950700.557    20950702.034
 112190138.507 8  87258977.670 8                      2160.365        1680.286
                        53.000          48.000
  22728306.354    22728309.601                    22728305.931    22728310.028
 121367905.384 7  94397243.634 6                     -4074.512       -3169.084
                        44.000          38.000
  20986304.822    20986307.672                    20986305.241    20986306.620
 111869130.165 9  87009122.110 7                     -1242.809        -966.639
                        54.000          46.000
  21963056.871    21963062.068                    21963056.967    21963059.607
 117363916.888 7  91283051.735 6                      1890.346        1470.266
                        46.000          39.000
  24208045.890    24208048.449                    24208046.042    24208049.206
 129542182.442 7 100755006.573 6                      3547.429        2759.083
                        46.000          38.000
  23427979.452    23427982.087                    23427978.670    23427980.843
 125060145.438 8  97269008.119 6                     -3137.845       -2440.520
                        49.000          41.000
  19669964.193    19669967.029                    19669964.831    19669968.379
 105221095.294 8  81838639.081 7                      -818.386        -636.519
                        53.000          43.000
  20467877.916    20467880.610                    20467879.034    20467879.506
 109450944.848 7  85128538.392 6                      2168.840        1686.891
                        46.000          37.000
  38673365.072                    38673374.565
 203229878.252 7                 151762565.463 7       136.198
       101.734          46.000                          44.000
  38455469.092
 202083846.297 7                                       254.049
                        43.000
  39720634.923                    39720634.338
 208733386.060 6                 155872310.154 7       145.970
       108.987          39.000                          43.000
  41570167.359                    41570174.502
 218452678.443 5                 163130265.763 6       138.629
       103.441          34.000                          39.000
  38313362.590                    38313368.198
 201338154.681 7                 150349869.808 7       141.028
       105.402          45.000                          47.000
 18  7  4 14  9  0.0000000  0 28G04G07G08G10G13G15G16G18G20G21G26G27
                                G30R01R07R08R13R14R15R17R22R23R24S23
                                S25S27S28S36
  24216297.853    24216298.613                    24216297.587    24216298.154
 127257495.701 5  99161684.437 5                     -3777.990       -2943.885
                        32.000          32.000
  24471101.455    24471101.998                    24471101.133    24471101.708
 128596516.417 4 100205080.343 4                        54.723          42.724
                        29.000          29.000
  22565359.367    22565361.553    22565358.869    22565358.714    22565360.865
 118581784.611 6  92401397.541 6  88551347.628 8      2930.555        2283.551
      2188.424          40.000          40.000          52.000
  21402473.659    21402474.593    21402472.098    21402473.607    21402474.927
 112470797.261 7  87639593.285 7  83987958.451 9      2170.773        1691.510
      1621.033          45.000          45.000          55.000
  25342696.536                                    25342696.935    25342697.717
 133176766.926 4 103774104.563 4                      -269.514        -209.986
                        25.000          25.000
  24474420.357    24474420.682                    24474420.016    24474419.879
 128613955.852 5 100218669.665 5                       496.526         386.938
                        33.000          33.000
  21335128.617                                    21335128.005    21335126.834
 112116873.957 6  87363802.306 6                     -2202.491       -1716.246
                        41.000          41.000
  24806412.534                                    24806412.116    24806413.762
 130358576.833 4 101578113.667 4                      3832.806        2986.634
                        27.000          27.000
  20878345.479                                    20878344.369    20878343.908
 109716501.601 7  85493390.614 7                       108.362          84.502
                        42.000          42.000
  22812328.504                                    22812327.923    22812326.582
 119879630.179 6  93412707.604 6                     -2160.008       -1683.105
                        38.000          38.000
  23118911.741    23118915.403    23118912.130    23118911.662    23118915.523
 121490710.031 6  94668087.136 6  90723585.257 8     -3369.947       -2625.916
     -2516.510          39.000          39.000          50.000
  20310248.485    20310249.784    20310247.485    20310248.162    20310249.359
 106731104.648 7  83167102.409 7  79701817.505 9      1116.773         870.220
       833.957          46.000          46.000          58.000
  25315468.881    25315472.369    25315470.774    25315468.234    25315471.461
 133033685.597 4 103662613.402 4  99343341.500 7      1413.908        1101.848
      1055.896          27.000          27.000          46.000
  22829508.701    22829512.983                    22829508.583    22829513.434
 122036817.495 7  94917543.064 6                      4459.049        3468.187
                        46.000          37.000
  21918032.044    21918034.741                    21918032.835    21918034.543
 117328981.860 8  91255894.691 7                     -1666.153       -1295.907
                        51.000          45.000
  20938664.216    20938665.342                    20938663.840    20938665.392
 112125682.738 8  87208845.428 8                      2136.487        1661.703
                        53.000          48.000
  22751216.723    22751218.795                    22751216.290    22751218.607
 121490246.663 7  94492397.911 6                     -4081.799       -3174.644
                        44.000          37.000
  20993371.913    20993374.013                    20993371.884    20993373.447
 111906800.546 9  87038421.275 7                     -1268.700        -986.777
                        54.000          46.000
  21952513.112    21952518.183                    21952514.362    21952516.603
 117307578.507 7  91239233.014 6                      1865.390        1450.887
                        46.000          38.000
  24188160.503    24188164.673                    24188158.763    24188161.566
 129435764.436 7 100672237.054 6                      3546.944        2758.688
                        46.000          38.000
  23445620.091    23445621.512                    23445619.060    23445622.168
 125154311.975 8  97342248.693 7                     -3140.056       -2442.315
                        48.000          42.000
  19674587.738    19674589.515                    19674587.985    19674591.322
 105245825.255 9  81857873.497 7                      -830.494        -645.921
                        54.000          43.000
  20455736.095    20455739.402                    20455738.291    20455738.403
 109386025.048 7  85078045.233 6                      2159.075        1679.328
                        46.000          36.000
  38672587.114                    38672595.767
 203225787.108 7                 151759510.334 7       136.293
       101.781          46.000                          44.000
  38454091.357
 202077600.668 7                                       253.626
                        43.000
  39719800.083                    39719799.632
 208729000.888 6                 155869034.946 7       146.196
       109.154          38.000                          43.000
  41569376.257
 218448528.442 5                                       138.326
                        34.000
  38312555.582                    38312560.218
 201333915.031 7                 150346695.370 7       141.578
       105.722          45.000                          47.000
 18  7  4 14  9 30.0000000  0 28G04G07G08G10G13G15G16G18G20G21G26G27
                                G30R01R07R08R13R14R15R17R22R23R24S23
                                S25S27S28S36
  24237873.341    24237873.681                    24237873.662    24237874.070
 127370877.929 5  99250034.162 5                     -3781.104       -2946.341
                        31.000          31.000
  24470840.533    24470840.127                    24470839.777    24470839.973
 128595144.913 4 100204011.625 4                        36.362          28.314
                        28.000          28.000
  22548646.254    22548648.417    22548645.706    22548645.760    22548648.242
 118493956.824 6  92332960.334 6  88485761.976 8      2924.349        2278.746
      2183.782          40.000          40.000          52.000
  21390127.382    21390128.708    21390126.060    21390127.011    21390129.025
 112405918.553 7  87589038.459 7  83939510.082 9      2154.109        1678.545
      1608.597          44.000          44.000          56.000
  25344288.411                                    25344287.696    25344288.522
 133185133.038 3 103780623.657 3                      -288.469        -224.727
                        20.000          20.000
  24471638.853    24471639.021                    24471638.529    24471638.209
 128599340.107 5 100207280.783 5                       477.503         372.153
                        32.000          32.000
  21347746.775                                    21347746.318    21347745.132
 112183183.084 6  87415471.741 6                     -2218.531       -1728.697
                        41.000          41.000
  24784539.843                                    24784540.611    24784541.751
 130243637.967 4 101488551.033 4                      3829.691        2984.221
                        28.000          28.000
  20877783.498                                    20877782.789    20877781.815
 109713548.886 7  85491089.801 7                        88.016          68.568
                        42.000          42.000
  22824672.859                                    22824671.968    22824670.721
 119944497.968 6  93463253.918 6                     -2164.921       -1686.944
                        38.000          38.000
  23138170.248    23138173.363    23138170.675    23138170.360    23138173.805
 121591913.466 6  94746946.889 6  90799159.187 8     -3377.397       -2631.750
     -2522.096          39.000          39.000          50.000
  20303910.256    20303911.130    20303908.960    20303909.859    20303910.902
 106697795.694 7  83141147.379 7  79676943.938 9      1103.505         859.895
       824.046          46.000          46.000          58.000
  25307445.336    25307448.021    25307446.817    25307444.613    25307448.038
 132991518.191 4 103629755.695 4  99311852.846 7      1396.858        1088.399
      1043.090          24.000          24.000          47.000
  22804502.784    22804505.659                    22804501.651    22804505.708
 121903141.590 7  94813572.985 6                      4452.427        3463.002
                        46.000          38.000
  21927439.103    21927441.361                    21927439.232    21927440.679
 117379333.357 8  91295056.957 7                     -1690.936       -1315.183
                        51.000          45.000
  20926762.317    20926763.622                    20926762.582    20926763.322
 112061948.398 8  87159274.290 8                      2112.074        1642.730
                        53.000          48.000
  22774171.185    22774171.381                    22774168.797    22774172.387
 121612811.926 7  94587726.377 6                     -4089.478       -3180.685
                        43.000          37.000
  21000584.486    21000586.876                    21000584.788    21000586.729
 111945249.797 8  87068326.239 7                     -1294.969       -1007.188
                        53.000          46.000
  21942112.270    21942114.672                    21942112.886    21942115.936
 117251996.044 7  91196002.212 6                      1839.804        1431.013
                        47.000          38.000
  24168276.800    24168278.676                    24168275.623    24168279.919
 129329365.317 7 100589482.202 6                      3545.935        2758.008
                        47.000          38.000
  23463273.773    23463276.430                    23463272.833    23463275.342
 125248546.169 8  97415541.872 6                     -3142.632       -2444.271
                        48.000          41.000
  19679279.574    19679282.669                    19679279.164    19679282.380
 105270920.844 8  81877392.283 7                      -842.924        -655.614
                        53.000          43.000
  20443652.937    20443651.956                    20443652.746    20443653.470
 109321399.121 7  85027780.646 6                      2148.970        1671.445
                        46.000          37.000
  38671807.574                    38671817.489
 203221695.600 7                 151756454.678 7       135.869
       101.472          46.000                          44.000
  38452714.376
 202069987.083 7                                       253.280
                        44.000
  39718965.695                    39718965.091
 208724615.967 6                 155865760.917 7       145.797
       108.914          38.000                          43.000
  41568585.506                    41568595.300
 218444378.36415                 163124064.901 6       138.119
       103.219          35.000                          39.000
  38311748.175                    38311753.089
 201329671.816 7                 150343527.051 7       140.997
       105.286          46.000                          47.000
 18  7  4 14 10  0.0000000  0 28G04G07G08G10G13G15G16G18G20G21G26G27
                                G30R01R07R08R13R14R15R17R22R23R24S23
                                S25S27S28S36
  24259465.433    24259466.974                    24259465.729    24259466.350
 127484344.351 5  99338449.507 5                     -3783.660       -2948.314
                        32.000          32.000
  24470682.032    24470682.025                    24470681.511    24470682.000
 128594315.575 4 100203365.378 4                        18.635          14.528
                        28.000          28.000
  22531966.880    22531969.360    22531966.542    22531966.553    22531968.964
 118406307.479 6  92264662.176 6  88420309.577 8      2918.604        2274.257
      2179.493          40.000          40.000          52.000
  21377875.534    21377876.536    21377873.949    21377875.415    21377877.005
 112341535.148 7  87538869.582 7  83891431.584 9      2137.771        1665.821
      1596.403          44.000          44.000          55.000
  25345987.862                                    25345987.326    25345985.383
 133194059.043 3 103787578.957 3                      -306.865        -239.127
                        23.000          23.000
  24468964.109    24468964.381                    24468964.339    24468963.294
 128585286.075 5 100196329.609 5                       459.059         357.764
                        33.000          33.000
  21360454.877                                    21360454.060    21360453.097
 112249963.446 6  87467508.368 6                     -2233.869       -1740.667
                        41.000          41.000
  24762683.890                                    24762683.256    24762684.877
 130128781.714 4 101399052.668 4                      3827.069        2982.204
                        25.000          25.000
  20877335.644                                    20877335.213    20877334.295
 109711196.974 7  85489257.154 7                        68.346          53.294
                        42.000          42.000
  22837043.107                                    22837042.021    22837040.709
 120009502.806 6  93513907.024 6                     -2169.128       -1690.211
                        38.000          38.000
  23157469.098    23157472.132    23157469.929    23157469.375    23157472.429
 121693330.212 6  94825972.882 6  90874892.415 8     -3384.092       -2636.979
     -2527.078          37.000          37.000          51.000
  20297646.391    20297647.569    20297645.245    20297646.292    20297647.225
 106664879.579 7  83115498.467 7  79652363.725 9      1090.631         849.845
       814.444          47.000          47.000          57.000
  25299517.514    25299519.363    25299518.673    25299516.504    25299520.185
 132949856.692 4 103597292.201 4  99280741.988 7      1380.227        1075.472
      1030.668          27.000          27.000          46.000
  22779531.499    22779534.399                    22779530.963    22779535.070
 121769656.288 7  94709751.154 6                      4446.234        3458.169
                        46.000          37.000
  21936982.638    21936983.748                    21936982.465    21936983.413
 117430418.755 8  91334790.034 7                     -1715.000       -1333.906
                        51.000          44.000
  20914996.266    20914997.198                    20914995.819    20914997.066
 111998939.393 8  87110267.311 8                      2088.115        1624.122
                        53.000          48.000
  22797163.617    22797166.875                    22797162.798    22797166.073
 121735597.633 7  94683226.304 6                     -4096.508       -3186.114
                        43.000          37.000
  21007943.538    21007945.668                    21007943.765    21007945.372
 111984476.929 8  87098836.215 7                     -1320.545       -1027.090
                        53.000          46.000
  21931854.365    21931856.663                    21931853.619    21931855.977
 117197173.340 7  91153362.357 6                      1814.719        1411.419
                        47.000          38.000
  24148396.748    24148398.633                    24148396.378    24148400.844
 129222986.802 7 100506743.401 6                      3545.511        2757.634
                        47.000          40.000
  23480939.550    23480942.639                    23480938.521    23480941.353
 125342848.459 8  97488888.052 6                     -3144.605       -2445.804
                        48.000          41.000
  19684038.578    19684043.185                    19684039.209    19684042.200
 105296382.744 9  81897195.981 7                      -854.918        -664.910
                        54.000          43.000
  20431624.176    20431623.194                    20431623.264    20431624.260
 109257068.943 8  84977746.069 6                      2139.370        1663.937
                        48.000          36.000
  38671030.460                    38671039.273
 203217605.370 7                 151753399.995 7       136.273
       101.809          46.000                          44.000
  38451338.591
 202062382.083 7                                       253.772
                        44.000
  39718130.682                    39718130.860
 208720231.571 6                 155862486.225 7       146.114
       109.210          37.000                          43.000
  41567796.482                    41567805.713
 218440229.927 6                 163120971.559 6       138.463
       103.483          36.000                          40.000
  38310941.208                    38310946.289
 201325432.927 7                 150340361.450 7       141.312
       105.498          45.000                          47.000
 18  7  4 14 10 30.0000000  0 28G04G07G08G10G13G15G16G18G20G21G26G27
                                G30R01R07R08R13R14R15R17R22R23R24S23
                                S25S27S28S36
  24281072.777    24281074.258                    24281072.827    24281073.036
 127597893.774 5  99426929.462 5                     -3786.356       -2950.405
                        31.000          31.000
  24470628.402    24470628.023                    24470627.822    24470627.521
 128594028.812 4 100203141.962 4                          .486            .469
                        29.000          29.000
  22515322.535    22515324.797    22515321.873    22515322.189    22515324.242
 118318839.726 6  92196505.506 6  88354992.772 8      2912.512        2269.488
      2174.959          40.000          40.000          52.000
  21365718.352    21365719.743    21365717.139    21365718.117    21365720.299
 112277650.196 7  87489089.124 7  83843725.312 9      2121.066        1652.781
      1583.926          44.000          44.000          55.000
  25347793.431                                    25347791.059    25347792.749
 133203545.555 3 103794971.055 3                      -325.487        -253.579
                        22.000          22.000
  24466396.973    24466396.868                    24466397.637    24466396.702
 128571795.795 5 100185817.738 5                       440.228         343.051
                        32.000          32.000
  21373252.333                                    21373251.859    21373250.593
 112317214.247 6  87519911.564 6                     -2249.619       -1752.938
                        41.000          41.000
  24740843.251                                    24740842.666    24740844.808
 130014010.484 4 101309620.615 4                      3824.107        2979.847
                        28.000          28.000
  20877002.827                                    20877002.289    20877001.169
 109709446.970 7  85487893.524 7                        48.218          37.549
                        42.000          42.000
  22849438.765                                    22849437.801    22849436.902
 120074644.917 6  93564667.098 6                     -2173.774       -1693.803
                        38.000          38.000
  23176808.981    23176811.354    23176809.595    23176808.371    23176811.630
 121794959.107 6  94905164.178 6  90950784.053 8     -3391.217       -2642.549
     -2532.397          38.000          38.000          52.000
  20291457.820    20291458.568    20291456.647    20291457.700    20291458.624
 106632358.639 7  83090157.472 7  79628078.608 9      1077.441         839.528
       804.555          47.000          47.000          58.000
  25291685.567    25291688.777    25291687.664    25291685.064    25291688.240
 132908703.599 3 103565224.822 3  99250010.766 7      1363.246        1062.341
      1018.029          22.000          22.000          47.000
  22754597.600    22754597.243                    22754595.913    22754600.610
 121636367.255 7  94606081.964 6                      4439.587        3453.055
                        45.000          39.000
  21946662.761    21946664.136                    21946662.749    21946663.682
 117482236.978 8  91375093.084 7                     -1739.484       -1352.952
                        51.000          45.000
  20903366.056    20903365.821                    20903365.848    20903366.753
 111936660.258 8  87061828.012 8                      2063.730        1605.128
                        53.000          48.000
  22820197.398    22820201.240                    22820197.629    22820200.747
 121858600.385 7  94778895.049 6                     -4103.802       -3191.826
                        43.000          38.000
  21015448.675    21015449.936                    21015448.464    21015450.104
 112024480.733 8  87129950.272 7                     -1346.456       -1047.236
                        53.000          46.000
  21921736.016    21921740.977                    21921737.452    21921738.506
 117143113.611 8  91111315.917 6                      1789.237        1391.620
                        48.000          38.000
  24128521.859    24128525.299                    24128521.158    24128524.619
 129116630.878 7 100424022.198 6                      3544.778        2757.078
                        46.000          40.000
  23498618.603    23498619.318                    23498617.499    23498620.681
 125437219.768 8  97562287.913 6                     -3146.887       -2447.563
                        48.000          41.000
  19688867.140    19688869.137                    19688867.694    19688871.088
 105322212.358 9  81917285.673 7                      -867.121        -674.419
                        54.000          43.000
  20419648.897    20419651.120                    20419649.282    20419649.199
 109193036.827 7  84927943.321 6                      2129.341        1656.166
                        47.000          37.000
  38670252.192                    38670261.551
 203213518.387 7                 151750348.019 7       136.175
       101.724          46.000                          44.000
  38449964.857
 202054786.328 7                                       252.381
                        44.000
  39717298.162                    39717297.439
 208715851.116 6                 155859215.990 7       146.153
       109.043          38.000                          43.000
  41567009.139                    41567016.595
 218436083.277 5                 163117870.334 6       138.062
       102.913          34.000                          39.000
  38310134.637                    38310139.751
 201321194.675 7                 150337197.420 7       141.147
       105.339          46.000                          46.000
 18  7  4 14 11  0.0000000  0 28G04G07G08G10G13G15G16G18G20G21G26G27
                                G30R01R07R08R13R14R15R17R22R23R24S23
                                S25S27S28S36
  24302696.365    24302696.345                    24302695.829    24302695.580
 127711522.586 5  99515471.344 5                     -3788.989       -2952.420
                        31.000          31.000
  24470676.041    24470675.116                    24470676.091    24470675.928
 128594282.701 4 100203339.785 4                       -17.317         -13.427
                        27.000          27.000
  22498712.584    22498714.517    22498711.863    22498712.231    22498713.902
 118231553.285 6  92128490.116 6  88289811.370 8      2906.607        2264.873
      2170.520          40.000          40.000          52.000
  21353656.661    21353657.720    21353655.164    21353656.944    21353657.962
 112214264.145 7  87439697.416 7  83796391.599 9      2104.648        1639.993
      1571.651          43.000          43.000          55.000
  25349704.705                                    25349702.458    25349703.419
 133213591.293 4 103802798.923 4                      -344.072        -268.103
                        24.000          24.000
  24463937.287    24463936.964                    24463937.269    24463937.134
 128558868.598 5 100175744.604 5                       421.615         328.505
                        34.000          34.000
  21386138.392                                    21386137.691    21386136.796
 112384931.763 6  87572678.443 6                     -2264.911       -1764.858
                        40.000          40.000
  24719019.443                                    24719019.098    24719020.470
 129899323.939 4 101220254.503 4                      3821.582        2977.892
                        28.000          28.000
  20876784.112                                    20876783.293    20876782.582
 109708297.172 7  85486997.592 7                        28.442          22.143
                        42.000          42.000
  22861860.726                                    22861860.060    22861858.587
 120139921.691 6  93615532.109 6                     -2178.026       -1697.170
                        38.000          38.000
  23196187.786    23196191.381    23196188.741    23196187.162    23196190.697
 121896796.108 6  94984517.631 6  91026831.110 8     -3397.879       -2647.682
     -2537.374          38.000          38.000          53.000
  20285344.669    20285345.394    20285343.312    20285344.368    20285345.206
 106600232.572 7  83065124.180 7  79604088.372 9      1064.395         829.375
       794.816          47.000          47.000          58.000
  25283952.075    25283954.229    25283953.024    25283951.290    25283954.976
 132868058.727 3 103533553.511 3  99219659.097 7      1346.511        1049.231
      1005.525          23.000          23.000          46.000
  22729698.503    22729701.692                    22729698.842    22729703.368
 121503277.342 7  94502567.629 6                      4433.090        3447.973
                        45.000          38.000
  21956478.744    21956479.991                    21956478.950    21956480.076
 117534783.894 8  91415962.895 7                     -1763.529       -1371.626
                        51.000          46.000
  20891871.528    20891873.199                    20891871.710    20891873.150
 111875112.281 8  87013957.400 8                      2039.469        1586.250
                        53.000          48.000
  22843272.975    22843276.168                    22843271.117    22843275.428
 121981814.477 7  94874728.155 6                     -4110.405       -3197.039
                        42.000          38.000
  21023098.600    21023100.092                    21023098.246    21023099.985
 112065257.654 9  87161665.644 7                     -1371.995       -1067.139
                        54.000          47.000
  21911762.849    21911764.515                    21911763.333    21911765.333
 117089818.367 8  91069864.075 6                      1763.813        1371.843
                        48.000          37.000
  24108648.897    24108652.370                    24108649.815    24108653.772
 129010296.481 7 100341317.736 6                      3544.248        2756.623
                        46.000          40.000
  23516309.544    23516311.161                    23516309.311    23516312.641
 125531657.873 8  97635739.731 7                     -3148.931       -2449.183
                        49.000          42.000
  19693764.961    19693766.794                    19693764.585    19693767.789
 105348407.467 8  81937659.651 7                      -879.129        -683.762
                        53.000          43.000
  20407730.585    20407734.078                    20407730.089    20407731.420
 109129302.117 7  84878371.885 6                      2119.648        1648.584
                        47.000          37.000
  38669475.413                    38669484.275
 203209431.752 7                 151747296.049 7       136.303
       101.773          46.000                          44.000
  38448592.791
 202048573.530 7                                       253.273
                        43.000
  39716464.550                    39716463.647
 208711470.860 6                 155855944.399 7       146.157
       109.153          38.000                          43.000
  41566220.214
 218431936.793 5                                       138.134
                        35.000
  38309327.855                    38309333.352
 201316957.988 7                 150334040.141 7       141.324
       105.500          47.000                          47.000
 18  7  4 14 11 30.0000000  0 28G04G07G08G10G13G15G16G18G20G21G26G27
                                G30R01R07R08R13R14R15R17R22R23R24S23
                                S25S27S28S36
  24324334.004    24324334.457                    24324333.683    24324334.618
 127825227.588 4  99604072.571 4                     -3791.409       -2954.411
                        29.000          29.000
  24470826.419    24470827.902                    24470826.356    24470827.485
 128595076.214 4 100203958.112 4                       -35.506         -27.704
                        29.000          29.000
  22482136.784    22482138.774    22482136.499    22482136.755    22482138.770
 118144449.022 6  92060616.680 6  88224766.000 8      2900.394        2260.058
      2165.882          40.000          40.000          53.000
  21341689.908    21341691.300    21341688.177    21341689.941    21341691.412
 112151378.146 7  87390695.350 7  83749431.289 9      2087.802        1626.871
      1559.089          45.000          45.000          55.000
  25351721.633                                    25351720.650    25351722.530
 133224194.921 3 103811061.482 3                      -362.928        -282.824
                        20.000          20.000
  24461584.611    24461584.428                    24461583.957    24461584.397
 128546505.102 5 100166110.742 5                       402.618         313.736
                        34.000          34.000
  21399112.889                                    21399112.247    21399111.419
 112453113.495 6  87625807.046 6                     -2280.451       -1776.955
                        41.000          41.000
  24697211.763                                    24697210.506    24697212.563
 129784722.656 4 101130954.840 4                      3818.537        2975.458
                        28.000          28.000
  20876679.436                                    20876678.553    20876677.798
 109707746.512 7  85486568.521 7                         8.318           6.466
                        42.000          42.000
  22874307.640                                    22874307.108    22874305.621
 120205331.547 6  93666500.811 6                     -2182.642       -1700.787
                        38.000          38.000
  23215605.617    23215608.246    23215606.806    23215605.131    23215608.261
 121998838.075 5  95064030.814 5  91103031.203 8     -3404.880       -2653.227
     -2542.618          35.000          35.000          53.000
  20279306.461    20279307.072    20279305.176    20279306.047    20279307.001
 106568501.742 7  83040398.865 7  79580393.279 9      1051.058         818.983
       784.864          47.000          47.000          58.000
  25276313.341    25276316.097    25276315.331    25276314.465    25276317.725
 132827922.515 3 103502278.536 3  99189687.255 7      1329.416        1035.816
       992.673          23.000          23.000          46.000
  22704837.219    22704844.951                    22704839.127    22704842.757
 121370390.500 7  94399211.256 6                      4426.153        3442.554
                        44.000          37.000
  21966430.821    21966431.818                    21966430.376    21966431.570
 117588056.569 8  91457397.186 7                     -1787.839       -1390.520
                        51.000          45.000
  20880514.944    20880515.958                    20880514.774    20880516.482
 111814297.468 8  86966657.026 8                      2014.890        1567.121
                        53.000          48.000
  22866384.586    22866384.853                    22866383.763    22866388.067
 122105234.221 6  94970721.191 6                     -4117.547       -3202.485
                        41.000          38.000
  21030892.147    21030894.324                    21030892.568    21030894.302
 112106804.369 9  87193979.738 7                     -1397.736       -1087.164
                        54.000          47.000
  21901933.479    21901936.270                    21901933.555    21901935.296
 117037288.356 8  91029007.415 6                      1738.181        1351.910
                        48.000          38.000
  24088782.970    24088786.790                    24088782.441    24088786.441
 128903983.633 7 100258630.027 6                      3543.337        2755.962
                        46.000          40.000
  23534013.708    23534016.443                    23534013.373    23534016.642
 125626161.536 8  97709242.525 7                     -3151.260       -2450.981
                        50.000          43.000
  19698729.587    19698731.420                    19698729.645    19698733.281
 105374967.033 9  81958317.089 7                      -891.452        -693.361
                        54.000          43.000
  20395867.412    20395868.626                    20395866.991    20395867.679
 109065864.820 7  84829031.771 6                      2109.551        1640.801
                        47.000          36.000
  38668697.713                    38668706.684
 203205345.596 7                 151744244.429 7       136.135
       101.647          46.000                          44.000
  38447222.648
 202040992.552 7                                       252.022
                        43.000
  39715630.463                    39715630.538
 208707092.167 6                 155852674.900 7       145.941
       108.957          37.000                          43.000
  41565429.055                    41565439.339
 218427791.334 5                 163111681.968 6       138.772
       103.755          33.000                          37.000
  38308521.692                    38308526.742
 201312716.906 7                 150330877.112 7       141.359
       105.460          45.000                          47.000
 18  7  4 14 12  0.0000000  0 28G04G07G08G10G13G15G16G18G20G21G26G27
                                G30R01R07R08R13R14R15R17R22R23R24S23
                                S25S27S28S36
  24345985.064    24345986.098                    24345984.709    24345985.659
 127939006.723 5  99692731.558 5                     -3794.229       -2956.610
                        31.000          31.000
  24471080.995    24471081.322                    24471080.901    24471081.043
 128596409.144 4 100204996.743 4                       -53.519         -41.739
                        28.000          28.000
  22465596.840    22465598.666    22465596.164    22465596.154    22465598.272
 118057529.138 6  91992886.917 6  88159858.314 8      2893.986        2255.048
      2161.086          40.000          40.000          52.000
  21329818.836    21329819.874    21329817.173    21329818.453    21329820.293
 112088994.502 7  87342084.736 7  83702846.120 9      2070.870        1613.646
      1546.418          44.000          44.000          55.000
  25353845.323                                    25353845.357    25353843.964
 133235356.740 3 103819759.006 3                      -381.574        -297.432
                        23.000          23.000
  24459339.248    24459339.709                    24459339.671    24459338.892
 128534706.323 5 100156916.914 5                       383.628         298.956
                        34.000          34.000
  21412175.642                                    21412175.021    21412173.845
 112521758.044 6  87679296.281 6                     -2296.109       -1789.213
                        41.000          41.000
  24675419.542                                    24675419.985    24675421.715
 129670208.478 4 101041723.040 4                      3815.406        2973.021
                        29.000          29.000
  20876688.141                                    20876687.691    20876687.112
 109707795.328 7  85486606.573 7                       -11.850          -9.275
                        42.000          42.000
  22886779.927                                    22886779.313    22886778.517
 120270874.237 6  93717573.008 6                     -2187.206       -1704.224
                        38.000          38.000
  23235061.982    23235065.014    23235063.220    23235062.126    23235065.299
 122101082.938 6  95143702.083 6  91179382.819 8     -3411.749       -2658.516
     -2547.740          36.000          36.000          52.000
  20273343.588    20273344.417    20273342.461    20273343.512    20273344.339
 106537167.718 7  83015982.742 7  79556994.499 9      1037.605         808.552
       774.856          47.000          47.000          58.000
  25268773.367    25268775.435    25268774.697    25268773.054    25268776.565
 132788296.612 4 103471401.220 4  99160096.484 7      1312.095        1022.342
       979.799          24.000          24.000          46.000
  22680019.176    22680021.668                    22680019.215    22680023.174
 121237711.402 7  94296016.428 6                      4418.872        3436.902
                        46.000          37.000
  21976517.064    21976520.223                    21976517.091    21976519.367
 117642052.508 8  91499394.022 7                     -1812.132       -1409.470
                        51.000          46.000
  20869295.599    20869296.476                    20869295.614    20869297.225
 111754219.435 8  86919929.712 8                      1990.097        1547.823
                        53.000          48.000
  22889537.456    22889536.962                    22889534.550    22889538.608
 122228856.471 6  95066871.728 6                     -4124.291       -3207.806
                        41.000          38.000
  21038830.956    21038833.115                    21038830.747    21038832.644
 112149119.052 9  87226891.143 7                     -1423.503       -1107.191
                        54.000          46.000
  21892245.498    21892249.762                    21892246.815    21892249.621
 116985526.558 8  90988748.264 6                      1712.227        1331.726
                        48.000          38.000
  24068918.892    24068922.747                    24068919.695    24068923.289
 128797693.409 7 100175959.918 6                      3542.416        2755.211
                        47.000          41.000
  23551728.822    23551731.025                    23551729.151    23551731.844
 125720730.686 8  97782796.266 7                     -3153.629       -2452.878
                        49.000          43.000
  19703762.672    19703765.533                    19703762.775    19703766.768
 105401891.244 9  81979258.134 7                      -903.806        -702.981
                        54.000          43.000
  20384059.165    20384061.187                    20384059.720    20384060.417
 109002726.348 7  84779924.081 6                      2099.368        1632.818
                        47.000          36.000
  38667920.469                    38667929.782
 203201261.793 7                 151741195.062 7       135.818
       101.390          45.000                          44.000
  38445852.991
 202033425.077 7                                       252.092
                        44.000
  39714797.759                    39714797.461
 208702713.803 6                 155849405.879 7       146.001
       108.919          38.000                          43.000
  41564641.672
 218423645.608 5                                       138.118
                        34.000
  38307715.439                    38307720.662
 201308478.440 7                 150327714.231 7       141.358
       105.539          45.000                          47.000
 18  7  4 14 12 30.0000000  0 28G04G07G08G10G13G15G16G18G20G21G26G27
                                G30R01R07R08R13R14R15R17R22R23R24S23
                                S25S27S28S36
  24367651.942    24367652.557                    24367651.721    24367651.958
 128052866.359 5  99781453.251 5                     -3796.557       -2958.338
                        31.000          31.000
  24471438.838    24471438.669                    24471438.004    24471437.620
 128598289.256 4 100206461.746 4                       -71.703         -55.958
                        26.000          26.000
  22449092.971    22449095.594    22449092.729    22449092.955    22449095.107
 117970803.496 6  91925308.514 6  88095095.681 8      2887.716        2250.162
      2156.415          40.000          40.000          52.000
  21318044.833    21318046.318    21318043.707    21318044.779    21318046.690
 112027123.549 7  87293873.624 7  83656643.804 9      2053.942        1600.458
      1533.768          44.000          44.000          56.000
  25356076.597                                    25356077.991    25356077.368
 133247084.828 3 103828897.764 3                      -400.410        -311.971
                        21.000          21.000
  24457203.504    24457203.745                    24457203.184    24457202.558
 128523481.678 5 100148170.473 5                       364.716         284.217
                        34.000          34.000
  21425327.436                                    21425327.101    21425325.933
 112590871.690 6  87733151.055 6                     -2311.431       -1801.142
                        41.000          41.000
  24653646.724                                    24653646.372    24653648.533
 129555791.155 4 100952566.745 4                      3812.378        2970.697
                        28.000          28.000
  20876813.471                                    20876812.786    20876812.140
 109708451.729 7  85487118.069 7                       -31.798         -24.724
                        42.000          42.000
  22899279.420                                    22899278.587    22899277.136
 120336556.764 6  93768754.187 6                     -2191.613       -1707.762
                        38.000          38.000
  23254557.587    23254561.292    23254559.737    23254557.672    23254561.417
 122203536.798 5  95223536.198 5  91255890.500 8     -3418.550       -2663.806
     -2552.812          34.000          34.000          53.000
  20267458.253    20267459.011    20267457.132    20267458.061    20267458.996
 106506240.102 7  82991883.307 7  79533899.206 9      1024.249         798.133
       764.881          47.000          47.000          58.000
  25261330.845    25261333.859    25261333.312    25261330.992    25261333.933
 132749190.521 3 103440928.929 3  99130893.876 7      1295.020        1009.120
       967.078          23.000          23.000          46.000
  22655241.083    22655243.700                    22655240.397    22655244.091
 121105252.909 7  94192993.188 6                      4411.653        3431.281
                        47.000          37.000
  21986739.605    21986742.408                    21986740.493    21986742.000
 117696778.056 8  91541958.322 7                     -1836.180       -1428.147
                        51.000          46.000
  20858216.345    20858218.182                    20858215.898    20858217.785
 111694889.337 8  86873784.101 8                      1965.311        1528.567
                        53.000          48.000
  22912723.963    22912727.473                    22912723.275    22912726.883
 122352685.162 6  95163182.823 6                     -4130.790       -3212.856
                        41.000          39.000
  21046914.098    21046915.696                    21046913.930    21046915.896
 112192207.629 9  87260404.464 7                     -1449.063       -1127.049
                        54.000          47.000
  21882705.723    21882709.022                    21882706.025    21882707.770
 116934543.971 8  90949095.148 6                      1686.557        1311.742
                        48.000          38.000
  24049063.240    24049066.368                    24049063.334    24049066.251
 128691435.038 7 100093314.571 6                      3541.558        2754.597
                        47.000          40.000
  23569459.752    23569460.957                    23569458.924    23569461.108
 125815373.485 8  97856407.258 7                     -3155.823       -2454.551
                        49.000          42.000
  19708865.091    19708867.434                    19708865.418    19708869.505
 105429188.126 8  82000489.039 7                      -915.945        -712.395
                        53.000          43.000
  20372309.854    20372311.828                    20372310.053    20372310.140
 108939896.474 7  84731056.431 6                      2089.389        1625.053
                        47.000          36.000
  38667144.662                    38667154.066
 203197187.255 7                 151738152.658 7       135.770
       101.353          45.000                          44.000
  38444486.426
 202025870.402 7                                       251.504
                        44.000
  39713966.645                    39713965.813
 208698344.702 6                 155846142.866 7       145.680
       108.876          38.000                          43.000
  41563853.774                    41563863.446
 218419509.638 5                 163105499.018 6       137.478
       102.572          34.000                          36.000
  38306911.186                    38306916.277
 201304250.157 7                 150324556.579 7       140.711
       105.098          46.000                          47.000
 18  7  4 14 13  0.0000000  0 28G04G07G08G10G13G15G16G18G20G21G26G27
                                G30R01R07R08R13R14R15R17R22R23R24S23
                                S25S27S28S36
  24389332.399    24389333.687                    24389332.083    24389334.112
 128166798.521 5  99870231.486 5                     -3798.898       -2960.142
                        30.000          30.000
  24471899.627    24471899.819                    24471898.860    24471899.602
 128600710.602 4 100208348.487 4                       -89.642         -69.827
                        28.000          28.000
  22432626.079    22432628.070    22432625.578    22432625.596    22432628.184
 117884268.196 6  91857878.419 6  88030475.180 8      2881.385        2245.228
      2151.669          40.000          40.000          52.000
  21306368.198    21306369.445    21306366.741    21306367.819    21306369.767
 111965761.836 7  87246059.322 7  83610821.766 9      2037.010        1587.256
      1521.129          43.000          43.000          56.000
  25358416.168                                    25358414.925    25358415.791
 133259373.595 3 103838473.456 3                      -418.679        -326.330
                        19.000          19.000
  24455176.120    24455175.673                    24455175.708    24455175.581
 128512826.503 5 100139867.753 5                       345.725         269.405
                        32.000          32.000
  21438566.882                                    21438566.975    21438565.628
 112660447.173 6  87787365.685 6                     -2326.798       -1813.030
                        41.000          41.000
  24631891.858                                    24631891.673    24631893.059
 129441466.288 5 100863482.530 5                      3809.343        2968.370
                        30.000          30.000
  20877052.895                                    20877052.174    20877051.317
 109709709.996 7  85488098.548 7                       -51.892         -40.453
                        42.000          42.000
  22911803.845                                    22911803.093    22911801.608
 120402373.157 6  93820039.679 6                     -2196.028       -1711.189
                        38.000          38.000
  23274092.774    23274096.285    23274094.470    23274092.823    23274095.749
 122306191.521 5  95303526.834 5  91332548.167 8     -3425.123       -2668.851
     -2557.676          34.000          34.000          52.000
  20261649.566    20261650.145    20261648.352    20261649.228    20261650.252
 106475714.718 7  82968097.305 7  79511104.291 9      1010.838         787.710
       754.891          47.000          47.000          58.000
  25253987.951    25253990.504    25253989.676    25253988.279    25253989.646
 132710600.380 4 103410858.706 4  99102076.557 7      1277.696         995.707
       954.178          24.000          24.000          46.000
  22630502.073    22630506.932                    22630502.552    22630506.168
 120973014.231 7  94090140.954 6                      4404.296        3425.611
                        47.000          38.000
  21997098.375    21997099.965                    21997098.284    21997099.952
 117752225.191 8  91585083.862 7                     -1860.188       -1446.795
                        51.000          46.000
  20847275.346    20847277.342                    20847275.815    20847277.646
 111636304.796 8  86828218.374 8                      1940.442        1509.278
                        53.000          48.000
  22935949.722    22935952.089                    22935950.161    22935952.615
 122476710.495 7  95259646.898 6                     -4137.300       -3217.976
                        42.000          38.000
  21055140.847    21055142.828                    21055140.693    21055142.673
 112236062.643 9  87294513.899 7                     -1474.490       -1146.830
                        54.000          46.000
  21873309.555    21873313.588                    21873310.291    21873313.708
 116884338.182 7  90910046.196 6                      1660.641        1291.621
                        47.000          39.000
  24029210.298    24029213.494                    24029210.715    24029214.255
 128585203.557 7 100010690.162 6                      3540.693        2753.902
                        47.000          41.000
  23587201.690    23587204.567                    23587201.451    23587203.731
 125910083.820 8  97930070.798 7                     -3158.059       -2456.273
                        49.000          42.000
  19714037.205    19714039.795                    19714037.312    19714041.040
 105456852.263 9  82022005.583 7                      -928.197        -721.898
                        54.000          43.000
  20360617.640    20360620.220                    20360618.059    20360617.637
 108877370.355 8  84682425.006 6                      2079.195        1617.177
                        48.000          36.000
  38666370.612                    38666379.444
 203193116.807 7                 151735113.184 7       135.555
       101.208          46.000                          44.000
  38443122.500
 202019711.297 7                                       251.320
                        44.000
  39713134.981                    39713135.419
 208693980.239 6                 155842883.803 7       145.521
       108.658          38.000                          43.000
  41563069.277                    41563077.244
 218415378.072 5                 163102412.402 6       137.673
       102.859          33.000                          36.000
  38306107.499                    38306112.995
 201300032.993 7                 150321402.180 7       140.703
       105.087          46.000                          47.000
 18  7  4 14 13 30.0000000  0 28G04G07G08G10G13G15G16G18G20G21G26G27
                                G30R01R07R08R13R14R15R17R22R23R24S23
                                S25S27S28S36
  24411026.021    24411026.697                    24411025.876    24411026.381
 128280796.585 5  99959061.072 5                     -3800.887       -2961.679
                        32.000          32.000
  24472462.777    24472461.321                    24472462.979    24472463.202
 128603668.316 4 100210653.182 4                      -107.441         -83.756
                        29.000          29.000
  22416194.260    22416196.838    22416194.191    22416194.237    22416196.388
 117797920.544 6  91790594.558 6  87965994.811 8      2875.148        2240.376
      2147.019          40.000          40.000          52.000
  21294788.110    21294789.173    21294786.409    21294788.116    21294789.223
 111904906.700 7  87198639.748 7  83565378.016 9      2020.126        1574.110
      1508.521          44.000          44.000          56.000
  25360860.061                                    25360859.301    25360860.986
 133272217.889 3 103848481.983 3                      -437.591        -340.881
                        19.000          19.000
  24453255.262    24453255.566                    24453255.304    24453255.527
 128502736.940 5 100132005.784 5                       326.925         254.759
                        31.000          31.000
  21451893.734                                    21451893.240    21451892.030
 112730477.968 6  87841935.120 6                     -2341.894       -1824.835
                        41.000          41.000
  24610153.457                                    24610152.452    24610154.704
 129327230.928 4 100774468.023 4                      3806.449        2966.124
                        28.000          28.000
  20877405.997                                    20877405.166    20877404.401
 109711565.277 7  85489544.236 7                       -71.772         -55.922
                        42.000          42.000
  22924352.587                                    22924351.863    22924350.562
 120468317.896 6  93871425.172 6                     -2200.271       -1714.510
                        39.000          39.000
  23293664.416    23293667.205    23293665.598    23293664.307    23293667.908
 122409040.305 5  95383668.694 5  91409350.765 8     -3431.478       -2673.894
     -2562.440          34.000          34.000          51.000
  20255916.633    20255917.410    20255915.421    20255916.112    20255917.389
 106445588.171 7  82944622.082 7  79488607.203 9       997.634         777.388
       745.002          47.000          47.000          58.000
  25246741.124    25246744.007    25246743.616    25246741.185    25246744.464
 132672522.534 3 103381187.652 3  99073641.827 7      1260.791         982.480
       941.535          21.000          21.000          45.000
  22605804.162    22605810.709                    22605805.128    22605808.421
 120840995.120 7  93987459.535 6                      4396.934        3419.803
                        47.000          37.000
  22007589.270    22007590.856                    22007589.791    22007591.319
 117808386.430 8  91628764.814 7                     -1883.899       -1465.215
                        51.000          46.000
  20836473.813    20836475.966                    20836474.390    20836476.010
 111578464.058 8  86783231.164 8                      1915.668        1489.951
                        52.000          48.000
  22959213.446    22959214.580                    22959210.598    22959214.352
 122600923.290 7  95356256.771 6                     -4143.525       -3222.740
                        43.000          37.000
  21063510.364    21063512.320                    21063510.207    21063512.375
 112280676.849 8  87329213.825 7                     -1499.740       -1166.471
                        53.000          46.000
  21864058.043    21864063.708                    21864059.404    21864062.727
 116834905.879 7  90871598.861 6                      1634.909        1271.615
                        47.000          39.000
  24009363.781    24009367.065                    24009363.810    24009366.361
 128478995.217 8  99928083.746 6                      3540.017        2753.320
                        48.000          40.000
  23604956.504    23604957.842                    23604955.900    23604958.446
 126004856.823 8  98003783.070 7                     -3160.057       -2457.838
                        49.000          43.000
  19719276.078    19719279.667                    19719276.335    19719279.965
 105484878.703 8  82043803.923 7                      -940.245        -731.256
                        53.000          43.000
  20348980.952    20348981.863                    20348981.632    20348981.698
 108815144.863 8  84634027.406 6                      2069.128        1609.341
                        48.000          36.000
  38665595.499                    38665604.744
 203189045.955 7                 151732073.315 7       135.724
       101.316          46.000                          44.000
  38441760.076
 202012176.371 7                                       251.135
                        44.000
  39712305.395                    39712304.708
 208689615.389 6                 155839624.372 7       145.505
       108.552          38.000                          43.000
  41562282.188
 218411244.77615                                       137.973
                        34.000
  38305304.040                    38305309.383
 201295811.463 7                 150318246.646 7       140.836
       105.110          47.000                          47.000
 18  7  4 14 14  0.0000000  0 28G04G07G08G10G13G15G16G18G20G21G26G27
                                G30R01R07R08R13R14R15R17R22R23R24S23
                                S25S27S28S36
  24432731.089    24432731.742                    24432731.331    24432731.925
 128394860.122 5 100047941.667 5                     -3803.123       -2963.558
                        31.000          31.000
  24473127.558    24473127.267                    24473127.103    24473126.902
 128607163.496 4 100213376.672 4                      -125.374         -97.674
                        29.000          29.000
  22399799.247    22399801.860    22399799.235    22399798.986    22399801.615
 117711764.180 6  91723459.747 6  87901657.291 8      2868.726        2235.345
      2142.205          40.000          40.000          52.000
  21283304.912    21283305.783    21283303.168    21283304.394    21283306.036
 111844561.972 7  87151617.897 7  83520315.413 9      2003.055        1560.799
      1495.759          45.000          45.000          56.000
  25363410.782                                    25363408.662    25363409.609
 133285619.526 2 103858924.840 2                      -455.936        -355.321
                        13.000          13.000
  24451444.276    24451443.966                    24451444.495    24451443.358
 128493216.159 5 100124587.010 5                       307.921         240.010
                        33.000          33.000
  21465306.694                                    21465306.227    21465305.224
 112800964.156 6  87896859.400 6                     -2357.088       -1836.709
                        41.000          41.000
  24588433.052                                    24588432.928    24588434.258
 129213088.384 5 100685525.857 5                      3803.282        2963.539
                        30.000          30.000
  20877873.080                                    20877872.334    20877871.388
 109714019.362 7  85491456.525 7                       -91.798         -71.531
                        42.000          42.000
  22936926.072                                    22936925.516    22936923.583
 120534391.782 6  93922911.291 6                     -2204.521       -1717.839
                        38.000          38.000
  23313272.727    23313276.071    23313274.086    23313272.915    23313276.177
 122512082.735 6  95463961.418 6  91486297.953 8     -3437.952       -2678.921
     -2567.305          36.000          36.000          52.000
  20250260.068    20250261.105    20250259.043    20250259.855    20250260.891
 106415863.625 7  82921460.105 7  79466410.311 9       984.147         766.881
       734.931          47.000          47.000          58.000
  25239594.438    25239597.241    25239596.007    25239593.599    25239595.944
 132634960.207 4 103351918.312 4  99045592.041 7      1243.560         969.014
       928.617          24.000          24.000          45.000
  22581151.231    22581152.873                    22581150.503    22581154.439
 120709202.083 7  93884953.911 6                      4389.348        3414.032
                        46.000          37.000
  22018214.530    22018215.839                    22018214.779    22018216.200
 117865261.614 8  91673001.071 7                     -1907.641       -1483.718
                        50.000          45.000
  20825813.411    20825814.190                    20825812.841    20825814.552
 111521371.822 8  86738826.119 8                      1890.605        1470.484
                        52.000          48.000
  22982507.559    22982509.801                    22982507.194    22982510.572
 122725321.464 7  95453010.844 6                     -4149.574       -3227.481
                        42.000          37.000
  21072022.735    21072024.338                    21072022.342    21072024.096
 112326049.976 8  87364504.003 7                     -1525.023       -1186.108
                        53.000          46.000
  21854954.050    21854959.037                    21854954.624    21854957.349
 116786250.964 7  90833756.159 6                      1608.927        1251.316
                        47.000          39.000
  23989520.005    23989523.460                    23989520.329    23989523.741
 128372812.735 8  99845497.433 6                      3538.990        2752.547
                        48.000          41.000
  23622722.277    23622723.808                    23622721.950    23622723.185
 126099693.881 8  98077545.170 7                     -3162.269       -2459.583
                        48.000          42.000
  19724583.469    19724586.087                    19724583.934    19724586.753
 105513269.323 8  82065885.513 7                      -952.346        -740.709
                        53.000          43.000
  20337401.824    20337401.695                    20337401.670    20337401.098
 108753222.103 8  84585865.266 6                      2059.099        1601.526
                        48.000          37.000
  38664821.710                    38664830.376
 203184976.387 7                 151729034.072 7       135.682
       101.334          46.000                          44.000
  38440398.504
 202004655.663 7                                       250.654
                        44.000
  39711475.053                    39711474.438
 208685253.620 6                 155836367.425 7       145.097
       108.373          37.000                          43.000
  41561495.884
 218407114.114 5                                       137.937
                        34.000
  38304500.986                    38304506.115
 201291587.935 7                 150315095.013 7       140.747
       105.051          46.000                          47.000
 18  7  4 14 14 30.0000000  0 28G04G07G08G10G13G15G16G18G20G21G26G27
                                G30R01R07R08R13R14R15R17R22R23R24S23
                                S25S27S28S36
  24454448.660    24454449.926                    24454449.002    24454449.408
 128508986.703 5 100136871.385 5                     -3805.058       -2964.968
                        32.000          32.000
  24473895.082    24473894.515                    24473894.577    24473893.763
 128611195.418 4 100216518.425 4                      -143.201        -111.499
                        29.000          29.000
  22383441.129    22383443.661    22383440.751    22383440.480    22383443.451
 117625800.168 6  91656474.820 6  87837463.401 8      2862.485        2230.537
      2137.610          40.000          40.000          52.000
  21271918.678    21271919.977    21271917.129    21271918.586    21271920.194
 111784729.192 7  87104994.969 7  83475635.116 9      1986.101        1547.615
      1483.128          44.000          44.000          56.000
  25366064.607                                    25366066.702    25366065.537
 133299577.525 2 103869801.210 2                      -474.220        -369.573
                        16.000          16.000
  24449740.090    24449740.411                    24449740.253    24449740.290
 128484264.214 5 100117611.495 5                       289.110         225.291
                        33.000          33.000
  21478806.173                                    21478805.699    21478804.761
 112871903.384 6  87952136.692 6                     -2371.911       -1848.245
                        41.000          41.000
  24566730.083                                    24566728.969    24566731.251
 129099039.428 5 100596656.599 5                      3800.359        2961.265
                        30.000          30.000
  20878453.654                                    20878453.087    20878452.136
 109717071.673 7  85493834.961 7                      -111.516         -86.865
                        42.000          42.000
  22949524.200                                    22949523.234    22949521.364
 120600594.003 6  93974497.424 6                     -2208.628       -1720.993
                        38.000          38.000
  23332917.467    23332920.734    23332919.055    23332917.184    23332920.812
 122615316.017 6  95544402.887 6  91563387.670 8     -3444.033       -2683.685
     -2571.839          36.000          36.000          52.000
  20244680.205    20244681.330    20244679.336    20244680.158    20244681.236
 106386541.918 7  82898612.028 7  79444514.238 9       970.941         756.597
       725.072          47.000          47.000          58.000
  25232543.830    25232547.987    25232545.576    25232544.348    25232547.355
 132597914.325 4 103323051.415 4  99017927.885 7      1226.489         955.611
       915.855          24.000          24.000          43.000
  22556538.953    22556541.761                    22556538.576    22556542.591
 120577639.051 7  93782627.214 6                      4381.784        3408.081
                        46.000          37.000
  22028972.402    22028973.286                    22028972.007    22028973.865
 117922847.302 8  91717789.942 7                     -1931.100       -1501.963
                        50.000          46.000
  20815291.532    20815293.096                    20815291.575    20815293.135
 111465030.466 8  86695005.097 8                      1865.724        1451.130
                        53.000          48.000
  23005835.734    23005838.926                    23005836.183    23005839.889
 122849900.244 6  95549905.363 6                     -4155.410       -3231.897
                        41.000          37.000
  21080676.195    21080678.772                    21080676.230    21080677.818
 112372178.968 9  87400382.093 7                     -1550.016       -1205.545
                        54.000          47.000
  21845995.501    21845995.711                    21845995.632    21845999.112
 116738375.202 7  90796519.460 6                      1583.134        1231.333
                        47.000          39.000
  23969684.045    23969685.494                    23969682.860    23969686.031
 128266656.344 8  99762931.407 6                      3538.292        2752.031
                        48.000          41.000
  23640500.207    23640502.444                    23640499.996    23640501.529
 126194594.259 8  98151356.504 6                     -3164.176       -2461.006
                        49.000          41.000
  19729959.410    19729962.230                    19729959.292    19729962.600
 105542023.198 9  82088249.639 7                      -964.292        -749.985
                        54.000          43.000
  20325878.370    20325878.086                    20325878.303    20325877.718
 108691603.449 7  84537939.671 6                      2049.079        1593.777
                        47.000          37.000
  38664047.117                    38664056.365
 203180908.601 7                 151725996.253 7       135.748
       101.441          46.000                          44.000
  38439039.260
 201997140.208 7                                       250.748
                        44.000
  39710645.902                    39710644.895
 208680892.285 6                 155833110.783 7       145.330
       108.552          39.000                          43.000
  41560708.421
 218402983.686 5                                       138.405
                        34.000
  38303697.614                    38303703.442
 201287369.920 7                 150311946.681 7       140.821
       105.152          46.000                          47.000
 18  7  4 14 15  0.0000000  0 28G04G07G08G10G13G15G16G18G20G21G26G27
                                G30R01R07R08R13R14R15R17R22R23R24S23
                                S25S27S28S36
  24476177.784    24476177.880                    24476177.109    24476177.995
 128623170.175 5 100225845.427 5                     -3807.360       -2966.732
                        33.000          33.000
  24474763.462    24474763.223                    24474763.629    24474761.959
 128615759.668 4 100220074.986 4                      -161.239        -125.630
                        28.000          28.000
  22367118.979    22367121.393    22367118.484    22367118.128    22367120.726
 117540026.560 6  91589638.257 6  87773411.705 8      2855.678        2225.241
      2132.519          40.000          40.000          52.000
  21260630.069    21260631.209    21260628.503    21260629.830    21260631.392
 111725406.489 7  87058769.508 7  83431335.716 9      1968.645        1533.984
      1470.073          44.000          44.000          55.000
  25368827.650                                    25368826.990    25368826.153
 133314088.037 3 103881108.061 3                      -493.097        -384.100
                        18.000          18.000
  24448144.740    24448144.369                    24448144.971    24448144.314
 128475878.478 5 100111077.165 5                       269.840         210.295
                        33.000          33.000
  21492390.308                                    21492390.132    21492389.104
 112943289.826 6  88007762.474 6                     -2387.179       -1860.130
                        40.000          40.000
  24545044.672                                    24545044.577    24545045.901
 128985081.823 4 100507858.507 4                      3796.738        2958.500
                        29.000          29.000
  20879147.409                                    20879146.878    20879146.080
 109720718.002 7  85496676.265 7                      -131.762        -102.678
                        42.000          42.000
  22962145.352                                    22962144.765    22962143.177
 120666919.792 6  94026179.832 6                     -2213.155       -1724.489
                        39.000          39.000
  23352597.416    23352600.764    23352598.386    23352597.359    23352600.410
 122718733.988 6  95624988.266 6  91640615.313 8     -3450.601       -2688.802
     -2576.742          36.000          36.000          50.000
  20239176.693    20239177.564    20239175.744    20239176.529    20239177.550
 106357620.480 7  82876075.848 7  79422917.071 9       957.083         745.816
       714.736          47.000          47.000          58.000
  25225592.740    25225594.543    25225594.462    25225591.624    25225595.466
 132561382.147 4 103294584.724 4  98990647.370 7      1209.006         941.990
       902.770          24.000          24.000          44.000
  22531970.293    22531973.411                    22531970.084    22531974.781
 120446307.049 7  93680480.185 6                      4373.613        3401.731
                        47.000          37.000
  22039861.235    22039862.670                    22039861.249    22039862.889
 117981137.323 8  91763126.623 7                     -1954.930       -1520.478
                        51.000          46.000
  20804910.516    20804911.835                    20804910.351    20804911.597
 111409438.710 8  86651767.089 8                      1840.238        1431.326
                        53.000          48.000
  23029200.360    23029200.034                    23029198.648    23029200.619
 122974651.581 6  95646934.080 6                     -4161.403       -3236.625
                        41.000          37.000
  21089470.573    21089472.659                    21089470.213    21089471.951
 112419057.500 8  87436843.149 7                     -1575.315       -1225.230
                        53.000          47.000
  21837181.650    21837184.488                    21837181.999    21837184.198
 116691277.581 8  90759887.971 6                      1556.682        1210.738
                        48.000          39.000
  23949848.977    23949851.990                    23949849.385    23949851.804
 128160522.979 8  99680383.298 6                      3537.137        2751.091
                        48.000          41.000
  23658289.044    23658291.159                    23658288.995    23658291.116
 126289553.691 8  98225213.767 6                     -3166.559       -2462.816
                        48.000          40.000
  19735401.368    19735403.603                    19735401.762    19735405.527
 105571136.513 9  82110893.320 7                      -976.660        -759.593
                        54.000          43.000
  20314410.868    20314415.027                    20314411.524    20314412.555
 108630286.064 7  84490248.389 6                      2038.658        1585.646
                        46.000          37.000
  38663272.884                    38663281.925
 203176840.310 7                 151722958.564 7       135.477
       101.131          46.000                          44.000
  38437680.416
 201991007.579 7                                       249.756
                        43.000
  39709815.426                    39709814.682
 208676529.997 6                 155829853.162 7       145.315
       108.550          39.000                          43.000
  41559923.746
 218398851.499 5                                       137.924
                        33.000
  38302894.907                    38302900.291
 201283147.790 7                 150308795.166 7       140.470
       104.967          46.000                          47.000
 18  7  4 14 15 30.0000000  0 28G04G07G08G10G13G15G16G18G20G21G26G27
                                G30R01R07R08R13R14R15R17R22R23R24S23
                                S25S27S28S36
  24497916.211    24497917.287                    24497916.059    24497916.660
 128737408.028 5 100314861.862 5                     -3808.757       -2967.882
                        32.000          32.000
  24475732.960    24475732.027                    24475732.837    24475732.540
 128620855.638 4 100224045.851 4                      -178.612        -139.220
                        28.000          28.000
  22350833.583    22350835.479    22350832.817    22350832.781    22350835.298
 117454444.818 6  91522951.211 6  87709503.285 8      2849.580        2220.445
      2127.932          41.000          41.000          52.000
  21249438.527    21249440.054    21249437.361    21249438.390    21249439.968
 111666595.489 7  87012942.772 7  83387418.432 9      1951.896        1520.953
      1457.597          43.000          43.000          55.000
  25371693.919                                    25371694.313    25371694.157
 133329150.618 2 103892845.137 2                      -511.164        -398.241
                        17.000          17.000
  24446657.119    24446656.338                    24446656.993    24446656.305
 128468059.515 5 100104984.485 5                       251.313         195.806
                        34.000          34.000
  21506059.554                                    21506059.013    21506058.236
 113015121.546 6  88063735.218 6                     -2401.700       -1871.449
                        41.000          41.000
  24523376.540                                    24523376.397    24523378.187
 128871216.708 4 100419132.526 4                      3793.904        2956.187
                        29.000          29.000
  20879954.854                                    20879953.579    20879953.052
 109724958.052 7  85499980.217 7                      -151.090        -117.746
                        42.000          42.000
  22974790.277                                    22974789.659    22974788.085
 120733368.070 6  94077957.699 6                     -2216.870       -1727.428
                        39.000          39.000
  23372312.148    23372315.427    23372312.915    23372312.000    23372315.406
 122822334.071 6  95705715.548 6  91717978.961 8     -3456.247       -2693.166
     -2580.972          37.000          37.000          51.000
  20233749.554    20233750.296    20233748.486    20233749.303    20233750.369
 106329100.353 7  82853852.384 7  79401619.583 9       944.069         735.590
       704.947          47.000          47.000          58.000
  25218738.944    25218741.822    25218740.453    25218737.819    25218741.110
 132525364.650 4 103266519.177 4  98963751.201 7      1192.040         928.972
       890.326          25.000          25.000          44.000
  22507446.824    22507448.656                    22507446.181    22507449.568
 120315210.090 8  93578515.898 6                      4365.917        3395.709
                        48.000          37.000
  22050881.215    22050882.555                    22050881.428    22050882.644
 118040129.004 8  91809009.030 7                     -1977.908       -1538.396
                        52.000          45.000
  20794669.751    20794670.987                    20794669.336    20794671.118
 111354599.504 8  86609114.394 8                      1815.487        1412.011
                        53.000          48.000
  23052590.824    23052595.127                    23052592.318    23052595.488
 123099571.073 6  95744093.599 6                     -4166.608       -3240.645
                        41.000          37.000
  21098404.017    21098407.029                    21098404.397    21098406.265
 112466683.009 8  87473885.201 7                     -1599.804       -1244.312
                        53.000          46.000
  21828513.186    21828516.975                    21828514.305    21828516.977
 116644960.047 7  90723863.231 6                      1531.030        1190.789
                        47.000          39.000
  23930020.234    23930022.976                    23930020.311    23930022.415
 128054413.265 8  99597853.581 7                      3536.677        2750.742
                        49.000          42.000
  23676090.444    23676090.274                    23676089.142    23676091.289
 126384571.783 8  98299116.674 6                     -3168.172       -2464.108
                        49.000          41.000
  19740911.040    19740912.143                    19740911.275    19740914.538
 105600608.920 9  82133816.309 7                      -988.289        -768.667
                        54.000          44.000
  20303001.025    20303004.141                    20303000.529    20303002.047
 108569270.510 7  84442791.879 6                      2028.964        1578.079
                        46.000          36.000
  38662498.560                    38662507.421
 203172769.464 7                 151719918.784 7       135.777
       101.373          45.000                          44.000
  38436323.480
 201983507.167 7                                       249.691
                        44.000
  39708983.791                    39708983.901
 208672165.810 6                 155826593.996 7       145.732
       108.807          38.000                          43.000
  41559136.800
 218394716.85715                                       137.962
                        32.000
  38302090.707                    38302096.578
 201278926.137 7                 150305642.353 7       140.907
       105.289          47.000                          47.000
 18  7  4 14 16  0.0000000  0 28G04G07G08G10G13G15G16G18G20G21G26G27
                                G30R01R07R08R13R14R15R17R22R23R24S23
                                S25S27S28S36
  24519664.175    24519666.100                    24519664.062    24519664.617
 128851695.107 5 100403916.615 5                     -3810.538       -2969.295
                        31.000          31.000
  24476802.659    24476803.056                    24476803.208    24476802.868
 128626479.139 4 100228427.818 4                      -196.373        -153.002
                        27.000          27.000
  22334583.835    22334586.411    22334583.389    22334583.578    22334585.855
 117369053.605 6  91456412.622 6  87645737.139 8      2842.997        2215.275
      2122.997          41.000          41.000          52.000
  21238344.625    21238345.258    21238342.832    21238344.456    21238345.876
 111608294.809 7  86967513.691 7  83343882.231 9      1934.682        1507.550
      1444.730          44.000          44.000          56.000
  25374664.738                                    25374665.147    25374664.833
 133344761.384 3 103905009.358 3                      -529.684        -412.671
                        19.000          19.000
  24445276.263    24445275.229                    24445276.054    24445275.157
 128460804.565 5 100099331.291 5                       232.263         180.977
                        32.000          32.000
  21519812.452                                    21519812.093    21519810.828
 113087393.259 6  88120050.824 6                     -2416.519       -1883.028
                        41.000          41.000
  24501725.812                                    24501725.322    24501726.148
 128757442.173 5 100330477.093 5                      3790.868        2954.005
                        30.000          30.000
  20880873.581                                    20880872.775    20880871.906
 109729788.295 7  85503744.051 7                      -171.032        -133.254
                        42.000          42.000
  22987457.393                                    22987456.711    22987454.943
 120799934.766 6  94129827.827 6                     -2221.058       -1730.709
                        39.000          39.000
  23392060.173    23392063.144    23392061.279    23392059.766    23392063.376
 122926110.614 5  95786580.345 5  91795474.362 8     -3462.315       -2697.978
     -2585.497          35.000          35.000          51.000
  20228398.312    20228399.282    20228397.245    20228398.214    20228399.016
 106300979.431 7  82831939.980 7  79380620.198 9       930.508         725.073
       694.866          47.000          47.000          58.000
  25211982.944    25211985.162    25211983.402    25211980.471    25211984.740
 132489859.740 4 103238853.018 4  98937237.816 7      1174.705         915.398
       877.266          24.000          24.000          43.000
  22482965.194    22482966.589                    22482965.719    22482969.330
 120184349.592 7  93476735.533 6                      4357.845        3389.401
                        47.000          37.000
  22062031.554    22062031.727                    22062031.617    22062033.144
 118099815.941 8  91855432.219 7                     -2001.282       -1556.563
                        52.000          45.000
  20784568.635    20784569.619                    20784568.725    20784570.309
 111300512.235 8  86567046.548 8                      1790.173        1392.348
                        53.000          48.000
  23076017.193    23076015.559                    23076015.844    23076018.222
 123224651.329 6  95841378.129 6                     -4172.213       -3245.123
                        40.000          37.000
  21107478.117    21107480.074                    21107477.943    21107479.926
 112515049.461 8  87511503.533 7                     -1624.789       -1263.708
                        53.000          46.000
  21819991.120    21819995.153                    21819992.309    21819995.204
 116599421.303 7  90688444.209 6                      1504.791        1170.414
                        47.000          40.000
  23910195.664    23910197.569                    23910194.387    23910197.330
 127948324.617 8  99515340.263 7                      3535.699        2749.984
                        48.000          42.000
  23693900.023    23693901.055                    23693899.655    23693901.144
 126479644.746 8  98373062.257 7                     -3170.198       -2465.718
                        49.000          42.000
  19746486.902    19746489.015                    19746487.047    19746490.448
 105630436.564 8  82157015.580 7                     -1000.403        -778.043
                        53.000          43.000
  20291646.346    20291647.859                    20291646.967    20291647.693
 108508554.455 7  84395568.303 6                      2018.707        1570.067
                        46.000          36.000
  38661722.540                    38661731.905
 203168692.648 7                 151716873.565 7       135.825
       101.427          46.000                          44.000
  38434966.302
 201976012.820 7                                       249.323
                        44.000
  39708154.621                    39708152.723
 208667795.982 6                 155823330.736 7       145.439
       108.603          39.000                          43.000
  41558348.780
 218390577.550 5                                       137.347
                        34.000
  38301286.974                    38301292.108
 201274700.101 7                 150302482.683 7       140.772
       105.177          47.000                          47.000
 18  7  4 14 16 30.0000000  0 28G04G07G08G10G13G15G16G18G20G21G26G27
                                G30R01R07R08R13R14R15R17R22R23R24S23
                                S25S27S28S36
  24541421.830    24541424.151                    24541422.510    24541423.178
 128966034.017 5 100493011.751 5                     -3812.222       -2970.473
                        30.000          30.000
  24477974.908    24477973.244                    24477974.066    24477973.418
 128632634.708 4 100233224.341 4                      -214.174        -166.934
                        28.000          28.000
  22318372.189    22318373.906    22318371.358    22318371.514    22318373.693
 117283859.494 6  91390027.617 6  87582118.178 8      2836.491        2210.294
      2118.202          41.000          41.000          52.000
  21227348.506    21227349.800    21227347.002    21227348.284    21227349.912
 111550511.392 7  86922487.666 7  83300732.300 9      1917.462        1494.146
      1431.884          44.000          44.000          56.000
  25377739.953                                    25377738.195    25377740.191
 133360925.039 3 103917604.479 3                      -548.023        -427.019
                        18.000          18.000
  24444004.602    24444004.590                    24444004.326    24444003.684
 128454119.729 5 100094122.349 5                       213.381         166.247
                        32.000          32.000
  21533650.094                                    21533649.164    21533648.384
 113160108.570 6  88176712.077 6                     -2431.196       -1894.421
                        41.000          41.000
  24480093.948                                    24480093.368    24480094.243
 128643764.758 4 100241897.384 4                      3787.644        2951.363
                        29.000          29.000
  20881905.948                                    20881905.303    20881904.334
 109735213.190 7  85507971.255 7                      -190.734        -148.643
                        42.000          42.000
  23000148.005                                    23000147.259    23000145.672
 120866624.231 6  94181793.617 6                     -2225.024       -1733.764
                        39.000          39.000
  23411842.808    23411844.995    23411843.059    23411841.955    23411845.482
 123030066.419 5  95867584.806 5  91873103.625 8     -3468.200       -2702.505
     -2589.901          35.000          35.000          50.000
  20223124.367    20223125.049    20223123.152    20223124.089    20223124.982
 106273264.041 7  82810343.575 7  79359923.645 9       917.111         714.627
       684.859          47.000          47.000          58.000
  25205324.114    25205328.275    25205326.484    25205325.032    25205327.346
 132454873.768 4 103211591.232 4  98911111.931 7      1157.521         901.896
       864.333          26.000          26.000          45.000
  22458532.649    22458535.962                    22458531.597    22458535.332
 120053735.175 8  93375146.586 6                      4349.672        3383.117
                        48.000          38.000
  22073311.677    22073313.390                    22073312.012    22073313.093
 118160201.095 8  91902398.451 7                     -2024.445       -1574.565
                        52.000          46.000
  20774610.356    20774611.460                    20774610.249    20774611.830
 111247184.523 8  86525569.459 8                      1764.912        1372.720
                        53.000          48.000
  23099469.888    23099473.993                    23099469.173    23099473.253
 123349893.036 6  95938788.262 6                     -4177.497       -3249.077
                        41.000          36.000
  21116690.817    21116693.081                    21116690.979    21116692.354
 112564159.605 8  87549700.298 7                     -1649.385       -1282.831
                        53.000          45.000
  21811616.001    21811619.921                    21811617.352    21811620.080
 116554668.698 8  90653636.632 6                      1478.672        1150.066
                        48.000          39.000
  23890374.533    23890378.199                    23890374.441    23890377.757
 127842263.226 8  99432848.117 7                      3534.874        2749.396
                        48.000          42.000
  23711722.228    23711722.908                    23711720.935    23711723.553
 126574777.185 8  98447054.087 7                     -3172.096       -2467.130
                        48.000          42.000
  19752130.757    19752132.174                    19752130.237    19752133.174
 105660624.623 8  82180495.182 7                     -1012.252        -787.299
                        53.000          43.000
  20280349.077    20280351.748                    20280349.872    20280349.780
 108448144.426 7  84348582.734 5                      2008.572        1562.232
                        47.000          35.000
  38660948.246                    38660956.403
 203164616.510 7                 151713829.897 7       135.915
       101.531          45.000                          45.000
  38433611.264
 201969905.311 7                                       249.359
                        45.000
  39707321.832                    39707321.422
 208663427.501 6                 155820068.789 7       145.643
       108.833          39.000                          43.000
  41557560.801
 218386438.746 5                                       137.624
                        34.000
  38300482.983                    38300487.487
 201270471.958 7                 150299325.122 7       140.887
       105.214          47.000                          47.000
 18  7  4 14 17  0.0000000  0 28G04G07G08G10G13G15G16G18G20G21G26G27
                                G30R01R07R08R13R14R15R17R22R23R24S23
                                S25S27S28S36
  24563190.386    24563192.459                    24563190.882    24563192.018
 129080424.517 5 100582147.110 5                     -3814.104       -2971.951
                        31.000          31.000
  24479247.544    24479246.223                    24479248.212    24479247.455
 128639323.904 5 100238436.722 5                      -232.052        -180.884
                        30.000          30.000
  22302198.555    22302200.682    22302197.723    22302197.833    22302200.050
 117198866.357 6  91323799.214 6  87518649.299 8      2829.545        2204.814
      2112.946          41.000          41.000          52.000
  21216451.454    21216453.026    21216450.520    21216451.698    21216453.397
 111493249.024 7  86877867.658 7  83257971.462 9      1899.871        1480.430
      1418.742          44.000          44.000          56.000
  25380922.327                                    25380923.131    25380921.981
 133377642.926 3 103930631.432 3                      -566.639        -441.584
                        19.000          19.000
  24442840.751    24442840.662                    24442840.912    24442840.071
 128448007.627 5 100089359.669 5                       194.001         151.174
                        32.000          32.000
  21547571.462                                    21547570.842    21547570.114
 113233266.347 6  88233718.111 6                     -2446.125       -1906.114
                        41.000          41.000
  24458480.464                                    24458480.434    24458481.347
 128530187.574 4 100153395.729 4                      3784.092        2948.659
                        29.000          29.000
  20883051.388                                    20883051.056    20883050.087
 109741234.653 6  85512663.320 6                      -210.870        -164.279
                        41.000          41.000
  23012862.222                                    23012861.411    23012859.630
 120933437.489 6  94233855.889 6                     -2229.378       -1737.223
                        39.000          39.000
  23431658.505    23431662.329    23431659.360    23431658.129    23431662.428
 123134200.964 6  95948728.551 6  91950866.383 8     -3474.313       -2707.270
     -2594.473          37.000          37.000          50.000
  20217928.081    20217928.954    20217926.864    20217927.692    20217928.832
 106245957.412 7  82789065.689 7  79339532.337 9       903.191         703.755
       674.439          47.000          47.000          58.000
  25198765.771    25198769.123    25198768.525    25198765.381    25198768.478
 132420409.753 3 103184736.120 3  98885375.823 7      1139.833         888.234
       851.201          20.000          20.000          45.000
  22434145.306    22434147.946                    22434144.419    22434147.966
 119923373.615 7  93273754.325 6                      4340.961        3376.259
                        47.000          39.000
  22084722.001    22084724.695                    22084722.503    22084724.191
 118221283.433 8  91949906.942 7                     -2047.850       -1592.804
                        52.000          45.000
  20764794.144    20764795.092                    20764794.327    20764796.080
 111194621.021 8  86484686.760 8                      1739.179        1352.687
                        53.000          48.000
  23122952.009    23122956.623                    23122952.505    23122957.264
 123475293.906 6  96036322.186 6                     -4182.829       -3253.249
                        41.000          36.000
  21126043.148    21126043.825                    21126042.940    21126044.933
 112614012.608 8  87588474.844 7                     -1674.342       -1302.254
                        53.000          44.000
  21803389.065    21803391.129                    21803390.020    21803393.304
 116510705.418 7  90619442.976 6                      1452.045        1129.326
                        47.000          40.000
  23870559.552    23870563.986                    23870559.430    23870562.804
 127736231.666 7  99350379.209 7                      3533.730        2748.416
                        47.000          42.000
  23729554.550    23729556.657                    23729553.758    23729556.729
 126669970.975 7  98521093.631 7                     -3174.389       -2468.944
                        46.000          43.000
  19757841.370    19757843.743                    19757841.186    19757845.043
 105691175.069 8  82204256.641 7                     -1024.577        -796.916
                        53.000          43.000
  20269109.379    20269112.650                    20269110.476    20269111.666
 108388043.318 7  84301837.443 6                      1998.077        1553.991
                        46.000          36.000
  38660171.568                    38660181.076
 203160543.560 7                 151710788.578 7       135.395
       101.094          46.000                          45.000
  38432257.522
 201962431.569 7                                       248.942
                        45.000
  39706493.077                    39706490.358
 208659061.318 6                 155816808.506 7       145.402
       108.516          38.000                          43.000
  41556775.600                    41556782.980
 218382301.600 5                 163077710.012 6       137.621
       102.861          34.000                          38.000
  38299678.207                    38299683.819
 201266248.309 7                 150296170.541 7       140.571
       104.941          47.000                          47.000
 18  7  4 14 17 30.0000000  0 28G04G07G08G10G13G15G16G18G20G21G26G27
                                G30R01R07R08R13R14R15R17R22R23R24S23
                                S25S27S28S36
  24584966.253    24584967.582                    24584965.984    24584966.695
 129194857.948 4 100671315.920 4                     -3815.080       -2972.762
                        28.000          28.000
  24480620.179    24480620.285                    24480620.475    24480620.618
 128646539.397 4 100244059.151 4                      -249.278        -194.189
                        27.000          27.000
  22286062.347    22286063.899    22286061.341    22286061.588    22286063.482
 117114069.271 6  91257723.573 6  87455326.820 8      2823.286        2199.943
      2108.284          41.000          41.000          52.000
  21205653.441    21205654.525    21205651.899    21205652.991    21205654.842
 111436502.861 7  86833649.885 7  83215596.098 9      1882.921        1467.178
      1406.054          44.000          44.000          56.000
  25384207.839                                    25384207.811    25384206.745
 133394908.472 3 103944085.095 3                      -584.583        -455.511
                        22.000          22.000
  24441785.412    24441785.632                    24441785.733    24441784.958
 128442462.328 5 100085038.658 5                       175.343         136.653
                        32.000          32.000
  21561575.382                                    21561574.962    21561573.778
 113306858.679 6  88291062.764 6                     -2460.351       -1917.143
                        40.000          40.000
  24436885.352                                    24436886.102    24436887.749
 128416705.608 4 100064968.318 4                      3781.106        2946.318
                        29.000          29.000
  20884309.407                                    20884309.049    20884308.367
 109747845.462 6  85517814.595 6                      -230.195        -179.370
                        41.000          41.000
  23025598.545                                    23025597.608    23025596.174
 121000367.165 6  94286008.845 6                     -2232.911       -1739.955
                        38.000          38.000
  23451506.516    23451510.541    23451508.181    23451505.294    23451510.430
 123238505.218 5  96030004.500 5  92028755.839 8     -3479.699       -2711.404
     -2598.486          34.000          34.000          51.000
  20212808.342    20212809.391    20212807.351    20212808.089    20212809.268
 106219053.984 7  82768101.977 7  79319442.117 9       890.048         693.542
       664.642          47.000          47.000          58.000
  25192306.539    25192309.451    25192308.041    25192306.063    25192309.768
 132386462.083 3 103158283.404 3  98860025.307 7      1123.006         875.012
       838.553          22.000          22.000          45.000
  22409805.028    22409809.153                    22409804.844    22409808.346
 119793262.528 7  93172556.844 6                      4332.782        3370.048
                        46.000          39.000
  22096261.279    22096262.590                    22096261.712    22096263.459
 118283053.560 8  91997950.374 7                     -2070.431       -1610.379
                        51.000          46.000
  20755120.596    20755122.187                    20755120.451    20755122.170
 111142817.470 8  86444395.122 8                      1714.071        1333.154
                        53.000          48.000
  23146465.363    23146467.817                    23146463.669    23146467.431
 123600842.877 6  96133971.317 5                     -4187.538       -3256.988
                        41.000          35.000
  21135533.060    21135534.364                    21135532.683    21135534.242
 112664599.218 8  87627819.958 7                     -1698.463       -1321.031
                        52.000          44.000
  21795309.045    21795313.326                    21795310.045    21795313.200
 116467527.840 8  90585860.429 6                      1426.172        1109.218
                        48.000          40.000
  23850749.998    23850753.108                    23850749.719    23850752.947
 127630223.995 8  99267928.851 7                      3533.129        2747.975
                        48.000          43.000
  23747398.615    23747399.660                    23747396.838    23747399.773
 126765218.792 7  98595175.212 7                     -3175.818       -2470.063
                        47.000          42.000
  19763618.385    19763622.784                    19763618.741    19763622.409
 105722080.719 8  82228294.360 7                     -1036.086        -805.843
                        53.000          43.000
  20257929.609    20257926.444                    20257928.824    20257928.736
 108328245.546 8  84255328.064 6                      1988.165        1546.335
                        48.000          36.000
  38659397.072                    38659405.123
 203156466.383 7                 151707743.981 7       135.865
       101.489          46.000                          44.000
  38430904.375
 201954957.485 7                                       248.989
                        44.000
  39705658.852                    39705658.792
 208654690.579 6                 155813544.625 7       145.725
       108.868          39.000                          43.000
  41555987.410                    41555993.753
 218378159.486 6                 163074616.999 6       138.483
       103.332          36.000                          38.000
  38298874.247                    38298879.161
 201262014.500 7                 150293015.358 7       141.217
       105.357          47.000                          47.000
 18  7  4 14 18  0.0000000  0 28G04G07G08G10G13G15G16G18G20G21G26G27
                                G30R01R07R08R13R14R15R17R22R23R24S23
                                S25S27S28S36
  24606750.597    24606752.219                    24606750.325    24606751.991
 129309335.696 4 100760519.323 4                     -3816.948       -2974.209
                        27.000          27.000
  24482094.629    24482092.601                    24482094.340    24482094.311
 128654284.181 4 100250094.049 4                      -267.374        -208.351
                        28.000          28.000
  22269963.740    22269965.713    22269963.374    22269963.182    22269965.556
 117029473.347 6  91191804.690 6  87392154.566 8      2816.105        2194.414
      2102.949          40.000          40.000          52.000
  21194953.928    21194955.460    21194952.658    21194953.947    21194955.764
 111380278.400 7  86789838.639 7  83173610.325 9      1865.068        1453.316
      1392.754          44.000          44.000          56.000
  25387598.290                                    25387597.621    25387598.394
 133412724.566 3 103957967.758 3                      -603.507        -470.244
                        22.000          22.000
  24440839.180    24440839.272                    24440839.458    24440838.082
 128437488.237 5 100081162.766 5                       155.914         121.456
                        31.000          31.000
  21575662.514                                    21575662.212    21575661.294
 113380887.367 6  88348747.435 6                     -2475.259       -1928.794
                        40.000          40.000
  24415310.105                                    24415309.853    24415311.311
 128303323.933 5  99976619.046 5                      3777.458        2943.490
                        30.000          30.000
  20885680.472                                    20885679.845    20885678.983
 109755048.940 7  85523427.700 7                      -250.430        -195.111
                        42.000          42.000
  23038357.409                                    23038356.481    23038355.275
 121067416.049 6  94338254.717 6                     -2237.284       -1743.328
                        38.000          38.000
  23471387.245    23471390.778    23471389.026    23471387.780    23471391.524
 123342980.514 5  96111413.780 5  92106773.024 8     -3485.651       -2716.116
     -2602.921          34.000          34.000          50.000
  20207766.347    20207767.454    20207765.440    20207766.208    20207767.318
 106192558.729 7  82747456.331 7  79299656.702 9       876.024         682.610
       654.183          47.000          47.000          58.000
  25185944.814    25185948.593    25185947.228    25185944.335    25185948.740
 132353035.450 4 103132236.696 4  98835063.881 7      1105.118         861.197
       825.283          25.000          25.000          45.000
  22385513.417    22385513.192                    22385513.415    22385517.054
 119663410.228 7  93071560.683 6                      4323.638        3362.875
                        47.000          39.000
  22107929.010    22107931.853                    22107929.169    22107931.099
 118345512.599 8  92046529.623 7                     -2093.795       -1628.523
                        51.000          46.000
  20745589.416    20745590.495                    20745589.793    20745591.302
 111091780.533 8  86404699.743 8                      1688.084        1312.968
                        53.000          48.000
  23170005.508    23170007.668                    23170003.857    23170005.656
 123726539.907 6  96231735.606 6                     -4192.732       -3260.952
                        41.000          36.000
  21145160.557    21145161.202                    21145160.666    21145162.287
 112715920.790 8  87667736.708 7                     -1723.313       -1340.357
                        52.000          45.000
  21787377.731    21787382.599                    21787378.525    21787380.333
 116425141.199 8  90552893.049 6                      1399.311        1088.371
                        48.000          39.000
  23830944.001    23830948.603                    23830944.896    23830948.681
 127524244.792 7  99185500.647 7                      3531.769        2747.035
                        47.000          43.000
  23765251.903    23765253.888                    23765251.299    23765254.134
 126860524.225 8  98669301.598 7                     -3178.162       -2471.898
                        48.000          42.000
  19769463.435    19769465.592                    19769463.561    19769466.760
 105753345.337 8  82252611.276 7                     -1048.500        -815.464
                        53.000          43.000
  20246802.791    20246803.903                    20246804.066    20246804.446
 108268755.990 8  84209058.425 6                      1977.492        1538.047
                        48.000          37.000
  38658620.073                    38658629.251
 203152388.644 7                 151704698.740 7       135.675
       101.286          47.000                          44.000
  38429553.445
 201947495.359 7                                       248.211
                        44.000
  39704827.742                    39704827.280
 208650320.699 6                 155810281.376 7       145.488
       108.613          39.000                          43.000
  41555197.473                    41555205.652
 218374015.968 6                 163071522.771 6       137.893
       102.892          36.000                          38.000
  38298068.846                    38298074.365
 201257787.188 7                 150289860.749 7       140.566
       105.017          47.000                          47.000
 18  7  4 14 18 30.0000000  0 28G04G07G08G10G13G15G16G18G20G21G26G27
                                G30R01R07R08R13R14R15R17R22R23R24S23
                                S25S27S28S36
  24628546.639    24628547.053                    24628546.719    24628547.361
 129423872.788 4 100849768.885 4                     -3818.490       -2975.441
                        29.000          29.000
  24483672.012    24483671.357                    24483671.697    24483671.506
 128662574.282 5 100256553.836 5                      -285.082        -222.194
                        30.000          30.000
  22253907.775    22253909.896    22253907.387    22253907.209    22253909.612
 116945097.861 6  91126057.595 6  87329146.936 8      2809.215        2189.014
      2097.801          40.000          40.000          53.000
  21184358.171    21184358.902    21184356.571    21184358.087    21184359.453
 111324594.581 7  86746448.674 7  83132028.280 9      1847.541        1439.570
      1379.586          44.000          44.000          56.000
  25391095.957                                    25391095.433    25391097.379
 133431107.500 3 103972292.142 3                      -621.841        -484.637
                        21.000          21.000
  24440004.441    24440004.399                    24440004.427    24440004.047
 128433103.030 5 100077745.731 5                       136.733         106.565
                        32.000          32.000
  21589835.559                                    21589835.070    21589834.096
 113455367.387 6  88406783.796 6                     -2489.814       -1940.109
                        40.000          40.000
  24393756.735                                    24393756.055    24393757.980
 128190060.694 5  99888362.095 5                      3773.786        2940.573
                        30.000          30.000
  20887167.534                                    20887166.448    20887165.682
 109762861.780 7  85529515.644 7                      -270.189        -210.538
                        42.000          42.000
  23051142.340                                    23051141.391    23051140.085
 121134600.593 6  94390606.296 6                     -2241.319       -1746.491
                        38.000          38.000
  23491303.861    23491308.301    23491305.054    23491304.328    23491307.543
 123447641.703 6  96192967.904 6  92184929.056 8     -3491.369       -2720.548
     -2607.201          36.000          36.000          48.000
  20202805.745    20202806.578    20202804.718    20202805.535    20202806.758
 106166489.923 7  82727142.970 7  79280189.740 9       862.197         671.862
       643.857          47.000          47.000          58.000
  25179687.280    25179689.416    25179689.441    25179686.723    25179688.456
 132320148.147 3 103106610.231 3  98810505.190 7      1087.717         847.428
       812.127          23.000          23.000          45.000
  22361274.859    22361277.037                    22361274.693    22361277.838
 119533838.828 8  92970782.975 6                      4314.791        3355.894
                        48.000          39.000
  22119727.741    22119730.453                    22119728.187    22119730.616
 118408675.052 8  92095655.974 7                     -2116.754       -1646.375
                        50.000          46.000
  20736206.089    20736207.458                    20736206.129    20736207.369
 111041530.195 8  86365616.160 8                      1662.298        1292.898
                        53.000          48.000
  23193572.397    23193575.299                    23193573.040    23193575.400
 123852397.869 6  96329625.053 5                     -4197.535       -3264.788
                        41.000          35.000
  21154929.288    21154930.720                    21154928.823    21154931.165
 112767991.641 8  87708236.229 7                     -1747.783       -1359.372
                        52.000          45.000
  21779598.019    21779599.563                    21779598.005    21779600.235
 116383564.754 8  90520555.836 6                      1372.748        1067.672
                        49.000          39.000
  23811149.196    23811153.043                    23811149.293    23811152.278
 127418312.456 8  99103108.892 7                      3530.700        2746.148
                        48.000          43.000
  23783120.392    23783122.152                    23783119.558    23783121.469
 126955904.229 7  98743486.011 6                     -3180.224       -2473.516
                        47.000          39.000
  19775377.765    19775381.581                    19775378.134    19775382.038
 105784985.826 8  82277220.553 7                     -1060.537        -824.886
                        53.000          44.000
  20235739.010    20235738.868                    20235739.914    20235740.253
 108209592.739 7  84163042.580 6                      1967.022        1529.938
                        47.000          36.000
  38657847.894                    38657856.581
 203148328.619 7                 151701666.941 7       135.477
       101.190          47.000                          44.000
  38428205.096
 201941435.426 7                                       247.618
                        43.000
  39703999.838                    39703999.027
 208645967.988 6                 155807030.693 7       145.429
       108.581          39.000                          43.000
  41554412.059                    41554420.616
 218369891.042 6                 163068443.021 6       137.527
       102.585          37.000                          37.000
  38297267.610                    38297272.789
 201253576.819 7                 150286711.661 7       140.530
       104.995          47.000                          47.000
 18  7  4 14 19  0.0000000  0 28G04G07G08G10G13G15G16G18G20G21G26G27
                                G30R01R07R08R13R14R15R17R22R23R24S23
                                S25S27S28S36
  24650349.648    24650350.163                    24650349.832    24650350.946
 129538448.193 4 100939048.342 4                     -3819.629       -2976.380
                        27.000          27.000
  24485349.660    24485349.396                    24485349.837    24485350.097
 128671390.597 4 100263423.682 4                      -302.522        -235.790
                        26.000          26.000
  22237890.547    22237892.406    22237889.724    22237889.848    22237892.170
 116860926.124 6  91060469.259 6  87266291.444 8      2802.386        2183.655
      2092.699          41.000          41.000          53.000
  21173861.084    21173862.470    21173859.911    21173861.187    21173863.032
 111269434.500 7  86703466.810 7  83090837.333 9      1830.016        1425.957
      1366.542          44.000          44.000          56.000
  25394699.145                                    25394699.014    25394698.541
 133450038.769 3 103987043.780 3                      -640.043        -498.752
                        21.000          21.000
  24439278.753    24439278.382                    24439279.185    24439278.808
 128429289.005 5 100074773.802 5                       117.762          91.651
                        33.000          33.000
  21604090.824                                    21604090.099    21604089.137
 113530277.987 6  88465155.661 6                     -2504.108       -1951.259
                        41.000          41.000
  24372223.024                                    24372222.183    24372222.817
 128076898.906 5  99800184.138 5                      3770.490        2938.074
                        30.000          30.000
  20888766.523                                    20888765.623    20888764.940
 109771264.969 7  85536063.581 7                      -289.816        -225.863
                        42.000          42.000
  23063949.531                                    23063948.081    23063946.952
 121201901.513 6  94443048.540 6                     -2245.172       -1749.503
                        38.000          38.000
  23511251.187    23511255.594    23511253.199    23511251.483    23511256.084
 123552467.713 5  96274650.427 5  92263208.154 8     -3496.937       -2724.872
     -2611.359          35.000          35.000          50.000
  20197923.102    20197923.835    20197921.815    20197922.627    20197923.870
 106140830.174 7  82707148.372 7  79261028.248 9       848.559         661.216
       633.663          47.000          47.000          58.000
  25173528.736    25173530.300    25173530.146    25173528.270    25173531.106
 132287782.579 4 103081390.354 4  98786336.128 7      1070.213         833.980
       799.204          25.000          25.000          46.000
  22337084.606    22337088.066                    22337084.648    22337088.980
 119404533.780 7  92870212.400 6                      4305.797        3348.974
                        47.000          38.000
  22131654.596    22131656.791                    22131654.926    22131657.329
 118472519.170 8  92145312.487 7                     -2139.355       -1663.999
                        50.000          46.000
  20726965.893    20726967.019                    20726965.768    20726967.057
 110992049.747 8  86327131.386 8                      1636.580        1272.893
                        53.000          48.000
  23217168.744    23217167.214                    23217167.781    23217171.667
 123978394.130 6  96427622.046 6                     -4202.156       -3268.337
                        41.000          37.000
  21164833.836    21164837.417                    21164833.677    21164835.903
 112820790.144 8  87749301.718 7                     -1771.933       -1378.194
                        53.000          45.000
  21771965.264    21771969.905                    21771965.831    21771968.234
 116342781.364 8  90488835.445 6                      1346.235        1047.040
                        48.000          39.000
  23791357.876    23791361.536                    23791358.522    23791361.285
 127312408.664 8  99020739.341 7                      3529.704        2745.319
                        48.000          43.000
  23800996.278    23800999.979                    23800997.662    23800999.711
 127051339.405 7  98817713.345 6                     -3181.980       -2474.918
                        47.000          39.000
  19781359.897    19781362.802                    19781359.728    19781363.341
 105816983.343 8  82302107.497 7                     -1072.440        -834.126
                        53.000          43.000
  20224731.943    20224736.534                    20224733.102    20224735.073
 108150738.331 7  84117266.937 6                      1956.768        1521.945
                        47.000          37.000
  38657074.845                    38657083.879
 203144267.555 7                 151698634.514 7       135.455
       101.171          47.000                          44.000
  38426859.314
 201934006.697 7                                       247.857
                        43.000
  39703172.118                    39703170.348
 208641613.936 6                 155803778.752 7       145.346
       108.547          39.000                          43.000
  41553626.106                    41553635.450
 218365764.225 6                 163065361.695 6       137.912
       102.956          36.000                          38.000
  38296466.135                    38296471.157
 201249365.546 7                 150283563.696 7       140.606
       104.974          47.000                          47.000
 18  7  4 14 19 30.0000000  0 28G04G07G08G10G13G15G16G18G20G21G26G27
                                G30R01R07R08R13R14R15R17R22R23R24S23
                                S25S27S28S36
  24672160.201    24672160.897                    24672159.896    24672160.042
 129653059.930 4 101028356.129 4                     -3821.363       -2977.683
                        28.000          28.000
  24487127.544    24487127.461                    24487126.843    24487127.132
 128680732.346 4 100270702.973 4                      -320.497        -249.806
                        26.000          26.000
  22221911.833    22221914.083    22221911.357    22221911.260    22221913.794
 116776959.077 6  90995040.410 6  87203588.814 8      2795.099        2178.056
      2087.295          40.000          40.000          53.000
  21163464.702    21163466.005    21163462.949    21163464.498    21163465.983
 111214799.823 7  86660894.358 7  83050038.740 9      1812.070        1412.052
      1353.205          44.000          44.000          56.000
  25398405.073                                    25398404.286    25398404.606
 133469517.409 3 104002221.946 3                      -658.618        -513.209
                        23.000          23.000
  24438661.817    24438662.103                    24438661.855    24438661.608
 128426046.231 5 100072246.957 5                        98.267          76.584
                        32.000          32.000
  21618427.084                                    21618426.831    21618425.437
 113605617.007 6  88523861.377 6                     -2518.770       -1962.654
                        40.000          40.000
  24350708.107                                    24350708.079    24350708.930
 127963839.925 4  99712086.301 4                      3766.606        2934.956
                        29.000          29.000
  20890477.674                                    20890476.802    20890476.343
 109780257.796 7  85543070.990 7                      -309.946        -241.491
                        42.000          42.000
  23076777.946                                    23076776.872    23076775.885
 121269317.770 6  94495580.686 6                     -2249.460       -1752.830
                        38.000          38.000
  23531231.113    23531233.626    23531231.825    23531230.898    23531234.064
 123657456.111 5  96356459.518 5  92341608.512 8     -3502.615       -2729.340
     -2615.586          34.000          34.000          50.000
  20193117.994    20193119.229    20193116.950    20193117.754    20193118.870
 106115580.593 7  82687473.380 7  79242173.046 9       834.492         650.229
       623.140          47.000          47.000          58.000
  25167467.976    25167471.532    25167470.830    25167466.866    25167471.574
 132255939.717 3 103056577.745 3  98762557.337 7      1052.416         820.052
       785.954          22.000          22.000          46.000
  22312946.152    22312951.171                    22312946.750    22312949.882
 119275499.721 7  92769852.623 6                      4296.240        3341.483
                        47.000          38.000
  22143707.446    22143710.556                    22143707.920    22143711.067
 118537042.120 8  92195496.990 7                     -2162.376       -1681.822
                        49.000          46.000
  20717869.912    20717871.432                    20717869.960    20717870.979
 110943341.594 8  86289247.289 8                      1610.385        1252.508
                        53.000          48.000
  23240786.461    23240792.992                    23240787.521    23240791.683
 124104523.782 6  96525722.777 6                     -4206.913       -3272.000
                        40.000          38.000
  21174874.979    21174876.460                    21174875.202    21174876.815
 112874313.544 8  87790931.013 7                     -1796.514       -1397.282
                        53.000          46.000
  21764481.734    21764487.879                    21764482.668    21764484.728
 116302792.909 8  90457733.326 6                      1319.339        1026.135
                        49.000          39.000
  23771572.680    23771575.323                    23771572.951    23771575.982
 127206534.172 8  98938392.581 7                      3528.286        2744.240
                        48.000          43.000
  23818885.440    23818887.405                    23818885.852    23818887.924
 127146829.648 7  98891983.505 6                     -3184.241       -2476.612
                        47.000          38.000
  19787408.382    19787410.553                    19787407.953    19787411.560
 105849337.310 8  82327271.694 7                     -1084.779        -843.719
                        53.000          44.000
  20213784.399    20213784.480                    20213784.930    20213785.961
 108092193.379 7  84071732.002 6                      1946.014        1513.590
                        46.000          37.000
  38656301.609                    38656310.686
 203140205.040 7                 151695600.799 7       135.109
       100.892          47.000                          44.000
  38425513.711
 201926583.206 7                                       246.949
                        44.000
  39702342.290                    39702341.794
 208637258.154 6                 155800526.322 7       144.879
       108.280          39.000                          43.000
  41552839.930                    41552849.904
 218361636.351 6                 163062279.435 6       137.252
       102.394          36.000                          38.000
  38295664.064                    38295669.277
 201245149.957 8                 150280419.650 7       140.222
       104.707          48.000                          47.000
 18  7  4 14 20  0.0000000  0 28G04G07G08G10G13G15G16G18G20G21G26G27
                                G30R01R07R08R13R14R15R17R22R23R24S23
                                S25S27S28S36
  24693977.811    24693979.273                    24693978.205    24693979.306
 129767714.580 5 101117697.357 5                     -3822.449       -2978.485
                        30.000          30.000
  24489006.660    24489005.589                    24489006.483    24489006.567
 128690607.720 4 100278398.037 4                      -338.063        -263.452
                        27.000          27.000
  22205974.609    22205976.893    22205974.008    22205974.086    22205976.237
 116693207.805 6  90929779.708 6  87141047.310 8      2788.164        2172.608
      2082.063          41.000          41.000          53.000
  21153169.555    21153171.228    21153168.530    21153169.801    21153171.590
 111160701.264 7  86618739.666 7  83009640.500 9      1794.314        1398.176
      1339.925          44.000          44.000          56.000
  25402217.004                                    25402217.900    25402216.349
 133489551.632 4 104017833.050 4                      -677.099        -527.576
                        25.000          25.000
  24438155.509    24438155.365                    24438155.787    24438154.745
 128423384.699 5 100070173.055 5                        79.021          61.531
                        33.000          33.000
  21632846.734                                    21632846.338    21632845.304
 113681391.638 6  88582906.516 6                     -2533.041       -1973.782
                        41.000          41.000
  24329214.829                                    24329214.439    24329216.639
 127850893.912 4  99624076.505 4                      3763.058        2932.236
                        29.000          29.000
  20892302.462                                    20892302.125    20892301.202
 109789848.925 7  85550544.602 7                      -329.659        -256.902
                        42.000          42.000
  23089630.244                                    23089629.759    23089628.198
 121336857.533 6  94548209.035 6                     -2253.349       -1755.826
                        39.000          39.000
  23551240.794    23551245.669    23551242.652    23551241.033    23551245.143
 123762613.479 5  96438400.280 5  92420135.053 8     -3507.942       -2733.521
     -2619.573          34.000          34.000          50.000
  20188393.227    20188394.285    20188392.097    20188393.022    20188394.095
 106090751.272 7  82668125.860 7  79223631.676 9       820.726         639.536
       612.884          47.000          47.000          58.000
  25161511.551    25161512.863    25161512.812    25161509.765    25161512.738
 132224629.412 3 103032180.138 3  98739176.297 7      1034.781         806.353
       772.730          23.000          23.000          47.000
  22288860.239    22288864.669                    22288860.637    22288864.690
 119146750.303 7  92669714.217 6                      4286.853        3334.241
                        47.000          38.000
  22155889.194    22155893.455                    22155889.832    22155892.275
 118602250.274 8  92246214.423 7                     -2185.007       -1699.474
                        49.000          46.000
  20708920.272    20708920.755                    20708920.415    20708921.700
 110895417.538 8  86251973.044 8                      1584.421        1232.325
                        53.000          48.000
  23264433.375    23264437.870                    23264433.919    23264437.907
 124230791.968 6  96623931.248 6                     -4211.167       -3275.432
                        41.000          38.000
  21185053.828    21185054.933                    21185053.334    21185055.128
 112928568.091 9  87833128.977 7                     -1820.651       -1416.072
                        54.000          46.000
  21757149.451    21757152.732                    21757150.251    21757152.775
 116263610.247 8  90427257.953 6                      1292.688        1005.397
                        49.000          39.000
  23751794.821    23751799.135                    23751795.688    23751797.842
 127100699.051 8  98856076.429 7                      3527.202        2743.360
                        48.000          43.000
  23836786.228    23836788.268                    23836786.670    23836789.611
 127242383.501 7  98966303.129 6                     -3186.064       -2478.016
                        45.000          38.000
  19793523.788    19793528.065                    19793524.304    19793528.444
 105882056.889 8  82352720.252 7                     -1096.725        -853.023
                        53.000          43.000
  20202896.773    20202897.813                    20202896.993    20202897.438
 108033968.663 7  84026446.112 6                      1935.495        1505.360
                        47.000          36.000
  38655530.073                    38655539.361
 203136151.227 7                 151692573.751 7       134.932
       100.752          47.000                          44.000
  38424172.145
 201919174.505 7                                       246.528
                        44.000
  39701513.644                    39701514.291
 208632910.762 6                 155797280.352 7       144.609
       108.102          40.000                          43.000
  41552058.032                    41552065.965
 218357514.852 5                 163059201.569 6       137.158
       102.466          35.000                          38.000
  38294863.544                    38294868.793
 201240946.076 7                 150277271.477 7       140.129
       104.642          47.000                          47.000
 18  7  4 14 20 30.0000000  0 28G04G07G08G10G13G15G16G18G20G21G26G27
                                G30R01R07R08R13R14R15R17R22R23R24S23
                                S25S27S28S36
  24715802.300    24715803.632                    24715801.987    24715802.950
 129882401.178 4 101207063.450 4                     -3823.202       -2979.074
                        29.000          29.000
  24490985.305    24490984.170                    24490984.952    24490985.902
 128701007.128 4 100286501.456 4                      -355.143        -276.675
                        29.000          29.000
  22190076.924    22190079.072    22190076.487    22190076.542    22190078.662
 116609665.404 6  90864681.763 6  87078661.778 8      2781.574        2167.423
      2077.116          41.000          41.000          53.000
  21142975.800    21142977.307    21142974.629    21142975.982    21142977.360
 111107131.801 7  86576997.250 7  82969637.358 9      1777.043        1384.656
      1326.979          43.000          43.000          56.000
  25406133.758                                    25406133.259    25406134.124
 133510132.488 4 104033870.102 4                      -694.917        -541.572
                        27.000          27.000
  24437757.781    24437758.451                    24437757.508    24437757.896
 128421295.796 5 100068545.353 5                        60.298          46.974
                        32.000          32.000
  21647347.421                                    21647346.540    21647345.434
 113757590.779 6  88642282.452 6                     -2546.795       -1984.513
                        40.000          40.000
  24307741.907                                    24307742.062    24307743.872
 127738053.806 4  99536149.230 4                      3759.787        2929.669
                        29.000          29.000
  20894239.866                                    20894239.277    20894238.405
 109800028.752 7  85558476.945 7                      -348.898        -271.892
                        42.000          42.000
  23102504.435                                    23102504.228    23102502.308
 121404511.818 6  94600926.646 6                     -2256.805       -1758.554
                        39.000          39.000
  23571282.644    23571286.403    23571283.734    23571282.199    23571286.852
 123867928.720 5  96520464.010 5  92498779.484 8     -3512.796       -2737.296
     -2623.233          35.000          35.000          50.000
  20183746.805    20183748.071    20183745.785    20183746.710    20183747.715
 106066334.740 7  82649099.991 7  79205398.549 9       807.212         628.962
       602.767          47.000          47.000          58.000
  25155651.948    25155654.519    25155654.274    25155651.654    25155654.460
 132193843.885 4 103008191.408 4  98716187.111 7      1017.630         793.014
       759.921          24.000          24.000          46.000
  22264828.089    22264831.220                    22264827.570    22264831.616
 119018281.225 7  92569793.888 6                      4277.834        3327.178
                        46.000          39.000
  22168195.604    22168198.586                    22168196.518    22168199.475
 118668131.568 8  92297455.404 7                     -2206.996       -1716.552
                        49.000          46.000
  20700116.353    20700116.875                    20700115.994    20700117.355
 110848270.859 8  86215303.431 8                      1558.822        1212.379
                        53.000          48.000
  23288103.379    23288106.732                    23288103.476    23288107.464
 124357186.232 6  96722237.788 6                     -4214.939       -3278.360
                        40.000          37.000
  21195366.820    21195369.025                    21195366.140    21195368.781
 112983541.884 9  87875886.352 7                     -1844.177       -1434.363
                        54.000          46.000
  21749965.947    21749967.764                    21749967.486    21749969.521
 116225227.439 8  90397404.668 6                      1266.352         984.924
                        49.000          39.000
  23732023.378    23732026.429                    23732023.138    23732025.851
 126994895.000 8  98773784.470 7                      3526.570        2742.876
                        48.000          42.000
  23854696.224    23854701.085                    23854697.116    23854699.792
 127337991.736 7  99040665.048 6                     -3187.636       -2479.291
                        45.000          39.000
  19799708.335    19799710.783                    19799707.848    19799711.568
 105915133.096 9  82378446.173 7                     -1108.256        -861.984
                        54.000          43.000
  20192067.390    20192066.459                    20192067.101    20192067.576
 107976056.042 7  83981402.971 6                      1925.372        1497.491
                        47.000          37.000
  38654758.280                    38654767.577
 203132095.996 7                 151689545.334 7       135.346
       101.078          47.000                          44.000
  38422830.865
 201913150.549 7                                       246.340
                        43.000
  39700686.114                    39700686.856
 208628563.199 6                 155794033.747 7       145.325
       108.433          40.000                          43.000
  41551273.158                    41551281.280
 218353393.080 5                 163056123.529 6       137.754
       102.703          35.000                          39.000
  38294063.402                    38294068.485
 201236741.854 8                 150274129.785 7       140.464
       104.856          48.000                          47.000
 18  7  4 14 21  0.0000000  0 28G04G07G08G10G13G15G16G18G20G21G26G27
                                G30R01R07R08R13R14R15R17R22R23R24S23
                                S25S27S28S36
  24737630.418    24737631.417                    24737629.829    24737632.333
 129997112.509 5 101296448.780 5                     -3824.124       -2979.783
                        30.000          30.000
  24493062.542    24493063.436                    24493063.279    24493062.037
 128711924.596 4 100295008.546 4                      -372.607        -290.326
                        28.000          28.000
  22174218.536    22174220.790    22174217.946    22174218.119    22174220.394
 116526328.520 6  90799743.947 6  87016429.715 8      2774.436        2161.869
      2071.809          41.000          41.000          53.000
  21132882.031    21132883.341    21132880.484    21132882.065    21132883.615
 111054088.035 7  86535664.474 7  82930026.780 9      1759.360        1370.929
      1313.801          45.000          45.000          56.000
  25410152.935                                    25410153.186    25410154.172
 133531254.433 4 104050328.726 4                      -713.223        -555.649
                        26.000          26.000
  24437468.445    24437466.788                    24437468.520    24437467.979
 128419775.337 5 100067360.594 5                        41.131          32.072
                        31.000          31.000
  21661926.831                                    21661926.450    21661925.330
 113834207.628 6  88701983.879 6                     -2560.859       -1995.495
                        40.000          40.000
  24286288.144                                    24286288.751    24286290.379
 127625315.642 4  99448301.374 4                      3756.180        2926.806
                        29.000          29.000
  20896288.344                                    20896287.447    20896286.647
 109810792.062 7  85566863.957 7                      -368.536        -287.170
                        42.000          42.000
  23115399.302                                    23115398.801    23115397.334
 121472274.366 6  94653728.623 6                     -2260.661       -1761.566
                        38.000          38.000
  23591351.520    23591355.558    23591353.672    23591351.432    23591355.382
 123973394.378 5  96602644.974 5  92577536.228 8     -3517.967       -2741.336
     -2627.088          32.000          32.000          52.000
  20179178.437    20179179.427    20179177.286    20179178.365    20179179.403
 106042327.063 7  82630392.712 7  79187470.743 9       793.393         618.247
       592.473          47.000          47.000          58.000
  25149893.624    25149897.159    25149895.007    25149892.900    25149895.844
 132163579.077 4 102984608.493 4  98693586.782 7      1000.225         779.329
       746.906          25.000          25.000          45.000
  22240847.466    22240850.694                    22240847.972    22240851.597
 118890092.032 7  92470091.215 6                      4268.306        3319.807
                        47.000          38.000
  22180626.762    22180630.185                    22180627.877    22180630.728
 118734678.306 8  92349213.956 7                     -2229.320       -1733.921
                        49.000          46.000
  20691455.561    20691457.477                    20691456.348    20691457.622
 110801899.001 8  86179236.456 8                      1532.750        1192.143
                        53.000          49.000
  23311795.988    23311799.803                    23311795.267    23311798.851
 124483697.030 7  96820634.972 6                     -4218.905       -3281.403
                        42.000          36.000
  21205813.147    21205816.408                    21205812.866    21205815.118
 113039227.307 9  87919197.214 7                     -1868.047       -1452.945
                        54.000          47.000
  21742932.467    21742934.026                    21742933.227    21742935.745
 116187639.378 8  90368169.534 6                      1239.636         964.173
                        49.000          39.000
  23712255.531    23712259.174                    23712256.111    23712258.937
 126889117.996 8  98691513.532 7                      3525.412        2741.981
                        48.000          43.000
  23872616.586    23872620.743                    23872616.794    23872619.726
 127433648.933 7  99115065.002 6                     -3189.469       -2480.639
                        45.000          41.000
  19805956.424    19805960.090                    19805956.961    19805960.268
 105948560.494 9  82404445.259 7                     -1120.120        -871.185
                        54.000          44.000
  20181294.306    20181296.067                    20181294.553    20181295.882
 107918451.580 7  83936599.510 6                      1914.996        1489.447
                        47.000          36.000
  38653986.118                    38653995.105
 203128035.152 7                 151686512.620 7       135.403
       101.108          47.000                          44.000
  38421490.484
 201905755.550 7                                       246.453
                        44.000
  39699858.886                    39699858.703
 208624210.961 6                 155790783.650 7       144.999
       108.216          39.000                          43.000
  41550487.178
 218349266.022 5                                       137.476
                        35.000
  38293261.634                    38293267.325
 201232527.497 8                 150270991.516 7       140.674
       105.023          48.000                          47.000
 18  7  4 14 21 30.0000000  0 28G04G07G08G10G13G15G16G18G20G21G26G27
                                G30R01R07R08R13R14R15R17R22R23R24S23
                                S25S27S28S36
  24759464.861    24759465.581                    24759464.943    24759465.178
 130111850.492 4 101385854.879 4                     -3824.986       -2980.533
                        29.000          29.000
  24495239.430    24495240.294                    24495239.915    24495240.495
 128723363.552 4 100303922.018 4                      -389.945        -303.765
                        28.000          28.000
  22158400.515    22158402.536    22158399.790    22158399.608    22158402.086
 116443203.173 6  90734970.974 6  86954355.621 8      2767.321        2156.408
      2066.580          41.000          41.000          53.000
  21122889.392    21122890.486    21122887.772    21122889.263    21122890.911
 111001575.573 7  86494745.692 7  82890812.953 9      1741.696        1357.148
      1300.588          44.000          44.000          56.000
  25414276.194                                    25414275.114    25414275.855
 133552920.233 4 104067211.235 4                      -731.259        -569.784
                        24.000          24.000
  24437288.319    24437287.849                    24437288.507    24437287.109
 128418827.738 5 100066622.218 5                        22.188          17.255
                        32.000          32.000
  21676586.070                                    21676586.051    21676584.829
 113911243.849 6  88762012.083 6                     -2574.807       -2006.341
                        40.000          40.000
  24264855.646                                    24264855.107    24264856.322
 127512684.825 5  99360537.144 5                      3752.701        2924.152
                        30.000          30.000
  20898448.135                                    20898447.411    20898446.403
 109822142.039 7  85575708.106 7                      -388.064        -302.350
                        42.000          42.000
  23128315.322                                    23128314.739    23128313.164
 121540148.087 6  94706617.210 6                     -2264.291       -1764.397
                        38.000          38.000
  23611450.435    23611453.169    23611451.932    23611449.495    23611452.992
 124079012.066 4  96684944.398 4  92656406.480 8     -3523.013       -2745.270
     -2630.874          28.000          28.000          52.000
  20174689.119    20174689.724    20174687.519    20174688.605    20174689.606
 106018733.353 7  82612008.005 7  79169852.065 9       779.620         607.523
       582.203          47.000          47.000          58.000
  25144234.290    25144237.379    25144235.442    25144233.613    25144235.011
 132133839.866 4 102961435.058 4  98671378.940 7       982.547         765.542
       733.668          26.000          26.000          45.000
  22216921.509    22216925.076                    22216921.392    22216924.687
 118762191.187 8  92370612.815 6                      4258.548        3312.264
                        48.000          38.000
  22193184.398    22193186.475                    22193184.292    22193186.754
 118801891.486 8  92401490.845 7                     -2251.413       -1751.134
                        49.000          46.000
  20682943.177    20682943.303                    20682942.200    20682943.891
 110756308.042 8  86143776.844 8                      1506.716        1171.882
                        53.000          48.000
  23335507.752    23335514.420                    23335508.518    23335511.416
 124610323.128 7  96919121.889 5                     -4222.724       -3284.316
                        42.000          35.000
  21216392.899    21216396.440                    21216393.079    21216395.149
 113095625.254 9  87963062.264 8                     -1891.682       -1471.289
                        54.000          48.000
  21736048.538    21736049.601                    21736049.108    21736051.099
 116150852.165 8  90339557.271 6                      1212.950         943.390
                        49.000          39.000
  23692494.533    23692497.849                    23692494.987    23692498.005
 126783372.709 8  98609267.261 7                      3524.422        2741.231
                        48.000          43.000
  23890545.878    23890550.423                    23890546.291    23890550.159
 127529358.658 7  99189505.840 6                     -3191.069       -2481.936
                        45.000          41.000
  19812271.763    19812273.739                    19812272.417    19812276.291
 105982342.978 9  82430720.509 7                     -1131.983        -880.408
                        54.000          43.000
  20170581.261    20170582.736                    20170580.742    20170581.772
 107861160.201 7  83892039.562 6                      1904.566        1481.361
                        47.000          36.000
  38653213.243                    38653221.982
 203123974.031 7                 151683480.064 7       135.556
       101.249          47.000                          44.000
  38420152.064
 201898366.215 7                                       246.383
                        44.000
  39699030.488                    39699030.328
 208619857.702 6                 155787532.724 7       145.390
       108.478          39.000                          43.000
  41549701.555                    41549711.171
 218345137.811 5                 163049958.086 6       137.900
       102.834          35.000                          38.000
  38292460.028                    38292465.603
 201228308.930 8                 150267844.224 7       140.436
       104.958          48.000                          46.000
 18  7  4 14 22  0.0000000  0 28G04G07G08G10G13G15G16G18G20G21G26G27
                                G30R01R07R08R13R14R15R17R22R23R24S23
                                S25S27S28S36
  24781303.515    24781304.371                    24781302.834    24781304.738
 130226613.462 4 101475280.502 4                     -3825.604       -2981.126
                        26.000          26.000
  24497516.363    24497516.039                    24497514.831    24497515.551
 128735323.492 4 100313241.441 4                      -407.196        -317.226
                        28.000          28.000
  22142622.897    22142624.750    22142622.176    22142622.121    22142624.502
 116360291.398 6  90670364.416 6  86892441.009 9      2760.288        2150.864
      2061.244          41.000          41.000          54.000
  21112998.187    21112999.109    21112996.720    21112997.913    21112999.499
 110949596.608 7  86454242.618 7  82851997.514 9      1723.798        1343.206
      1287.259          44.000          44.000          56.000
  25418502.038                                    25418502.016    25418502.028
 133575129.815 4 104084517.352 4                      -749.129        -583.742
                        24.000          24.000
  24437217.187    24437217.114                    24437217.295    24437216.534
 128418453.894 5 100066330.942 5                         3.083           2.407
                        33.000          33.000
  21691325.337                                    21691324.907    21691324.076
 113988697.938 6  88822365.892 6                     -2588.642       -2017.094
                        40.000          40.000
  24243443.507                                    24243443.398    24243444.307
 127400163.400 4  99272858.175 4                      3748.958        2921.250
                        28.000          28.000
  20900719.382                                    20900718.869    20900717.885
 109834078.950 6  85585009.604 6                      -407.558        -317.646
                        41.000          41.000
  23141252.361                                    23141251.917    23141250.568
 121608133.165 6  94759592.570 6                     -2267.924       -1767.194
                        38.000          38.000
  23631576.620    23631581.018    23631578.595    23631576.443    23631580.678
 124184779.934 5  96767360.875 5  92735388.912 8     -3527.999       -2749.108
     -2634.548          32.000          32.000          51.000
  20170278.306    20170279.016    20170276.894    20170277.795    20170278.982
 105995555.273 7  82593947.171 7  79152543.761 9       765.846         596.743
       571.887          47.000          47.000          58.000
  25138675.183    25138678.168    25138676.534    25138673.829    25138676.790
 132104627.671 3 102938672.282 3  98649564.660 7       965.149         752.061
       720.697          22.000          22.000          44.000
  22193049.574    22193051.557                    22193050.200    22193053.466
 118634583.879 8  92271362.739 6                      4248.823        3304.597
                        48.000          39.000
  22205864.783    22205866.868                    22205864.732    22205866.681
 118869768.556 8  92454284.101 7                     -2273.554       -1768.293
                        50.000          46.000
  20674575.069    20674576.938                    20674574.723    20674575.971
 110711500.919 8  86108926.893 8                      1480.602        1151.578
                        53.000          48.000
  23359241.746    23359245.557                    23359242.594    23359244.988
 124737062.221 7  97017696.667 5                     -4226.346       -3287.050
                        42.000          34.000
  21227106.382    21227109.383                    21227106.342    21227108.692
 113152733.434 9  88007479.720 8                     -1915.281       -1489.649
                        54.000          48.000
  21729314.525    21729317.882                    21729314.937    21729317.322
 116114868.336 8  90311569.865 6                      1186.192         922.585
                        49.000          39.000
  23672740.742    23672744.017                    23672740.349    23672742.495
 126677660.656 8  98527046.834 7                      3523.379        2740.384
                        49.000          42.000
  23908485.327    23908488.831                    23908486.031    23908490.194
 127625121.067 7  99263987.669 6                     -3192.879       -2483.361
                        45.000          41.000
  19818653.242    19818656.437                    19818653.612    19818657.401
 106016480.627 8  82457272.020 7                     -1143.706        -889.571
                        53.000          43.000
  20159924.503    20159928.999                    20159925.779    20159926.708
 107804183.726 7  83847724.556 6                      1894.008        1473.094
                        46.000          37.000
  38652440.175                    38652449.169
 203119912.983 8                 151680447.800 7       135.536
       101.175          48.000                          44.000
  38418814.843
 201890978.416 7                                       246.302
                        44.000
  39698201.140                    39698201.633
 208615503.215 6                 155784280.352 7       145.462
       108.630          39.000                          43.000
  41548916.936                    41548924.858
 218341007.724 5                 163046873.870 6       137.782
       102.808          35.000                          38.000
  38291658.315                    38291663.877
 201224098.692 8                 150264694.966 7       140.712
       105.057          49.000                          47.000
 18  7  4 14 22 30.0000000  0 28G04G07G08G10G13G15G16G18G20G21G26G27
                                G30R01R07R08R13R14R15R17R22R23R24S23
                                S25S27S28S36
  24803147.526    24803147.837                    24803146.813    24803148.533
 130341400.031 4 101564724.461 4                     -3826.355       -2981.532
                        27.000          27.000
  24499890.898    24499890.151                    24499890.118    24499890.604
 128747804.401 4 100322966.820 4                      -424.515        -330.732
                        29.000          29.000
  22126886.178    22126888.233    22126885.778    22126885.589    22126887.830
 116277595.670 6  90605926.207 6  86830687.732 9      2753.186        2145.279
      2055.889          41.000          41.000          54.000
  21103208.606    21103210.164    21103207.435    21103208.477    21103210.330
 110898153.757 7  86414157.296 7  82813582.416 9      1706.033        1329.346
      1273.963          44.000          44.000          57.000
  25422832.548                                    25422831.281    25422832.066
 133597883.970 4 104102247.865 4                      -767.235        -598.034
                        24.000          24.000
  24437254.903    24437255.431                    24437255.355    24437254.564
 128418655.523 5 100066488.065 5                       -16.113         -12.512
                        32.000          32.000
  21706143.433                                    21706142.939    21706141.996
 114066568.837 6  88883044.509 6                     -2602.418       -2027.886
                        40.000          40.000
  24222053.168                                    24222052.790    24222053.445
 127287753.512 4  99185266.119 4                      3745.371        2918.448
                        28.000          28.000
  20903102.858                                    20903102.070    20903101.183
 109846603.054 7  85594768.650 7                      -427.039        -332.753
                        42.000          42.000
  23154210.804                                    23154210.256    23154209.128
 121676229.940 6  94812654.965 6                     -2271.550       -1770.027
                        38.000          38.000
  23651732.635    23651735.856    23651734.539    23651732.497    23651735.614
 124290696.543 5  96849893.230 5  92814482.432 8     -3532.862       -2752.793
     -2638.106          32.000          32.000          52.000
  20165947.272    20165947.948    20165945.723    20165946.840    20165947.656
 105972794.993 8  82576211.887 8  79135547.447 9       751.916         585.914
       561.517          48.000          48.000          58.000
  25133217.064    25133218.925    25133218.374    25133217.551    25133219.524
 132075944.388 4 102916321.709 4  98628145.332 7       947.441         738.284
       707.550          25.000          25.000          44.000
  22169235.481    22169238.324                    22169234.154    22169237.242
 118507275.728 8  92172345.331 6                      4238.747        3296.797
                        48.000          39.000
  22218668.609    22218670.804                    22218668.697    22218670.174
 118938307.560 8  92507592.187 7                     -2295.432       -1785.346
                        50.000          46.000
  20666353.978    20666355.979                    20666354.372    20666355.695
 110667480.889 8  86074689.122 8                      1454.407        1131.192
                        53.000          48.000
  23382998.301    23382998.437                    23382997.087    23383000.628
 124863911.022 6  97116356.764 5                     -4229.843       -3289.911
                        40.000          35.000
  21237952.605    21237954.977                    21237952.631    21237954.877
 113210549.755 9  88052447.951 8                     -1938.830       -1507.988
                        54.000          48.000
  21722731.249    21722734.872                    21722731.453    21722733.935
 116079689.643 8  90284208.669 6                      1159.331         901.661
                        48.000          40.000
  23652991.725    23652995.399                    23652991.905    23652994.683
 126571983.691 8  98444853.691 7                      3522.217        2739.513
                        49.000          42.000
  23926437.017    23926440.098                    23926435.665    23926439.000
 127720937.111 7  99338511.206 6                     -3194.590       -2484.630
                        45.000          40.000
  19825101.258    19825105.218                    19825101.842    19825105.537
 106050974.649 9  82484100.684 7                     -1155.517        -898.725
                        54.000          44.000
  20149330.271    20149329.036                    20149330.323    20149331.628
 107747524.196 7  83803656.045 6                      1883.568        1465.016
                        46.000          37.000
  38651667.501                    38651676.474
 203115852.058 7                 151677415.433 7       135.570
       101.210          47.000                          44.000
  38417477.891
 201884981.985 7                                       245.836
                        45.000
  39697374.020                    39697373.372
 208611149.937 6                 155781030.333 7       145.300
       108.509          40.000                          43.000
  41548130.778                    41548139.065
 218336879.034 5                 163043791.229 6       138.205
       103.185          35.000                          37.000
  38290856.890                    38290862.047
 201219889.296 7                 150261551.753 7       140.428
       104.927          47.000                          47.000
 18  7  4 14 23  0.0000000  0 28G04G07G08G10G13G15G16G18G20G21G26G27
                                G30R01R07R08R13R14R15R17R22R23R24S23
                                S25S27S28S36
  24824993.905    24824996.891                    24824993.407    24824995.251
 130456208.297 4 101654185.338 4                     -3827.390       -2982.342
                        25.000          25.000
  24502364.550    24502364.313                    24502364.663    24502364.277
 128760805.423 4 100333097.477 4                      -442.116        -344.552
                        27.000          27.000
  22111191.204    22111192.965    22111190.703    22111190.779    22111192.947
 116195118.417 7  90541658.227 7  86769097.600 9      2745.557        2139.388
      2050.248          42.000          42.000          54.000
  21093522.036    21093523.072    21093520.342    21093521.747    21093523.311
 110847248.802 7  86374491.127 7  82775569.003 9      1687.768        1315.156
      1260.372          44.000          44.000          56.000
  25427265.744                                    25427264.557    25427265.091
 133621181.937 3 104120402.153 3                      -785.792        -612.180
                        18.000          18.000
  24437402.672    24437402.612                    24437403.119    24437402.580
 128419432.971 5 100067093.903 5                       -35.608         -27.700
                        31.000          31.000
  21721040.949                                    21721040.211    21721039.371
 114144854.614 6  88944046.390 6                     -2616.498       -2038.818
                        40.000          40.000
  24200682.212                                    24200682.876    24200684.439
 127175456.760 4  99097762.210 4                      3741.169        2915.343
                        27.000          27.000
  20905597.857                                    20905596.772    20905595.861
 109859713.651 7  85604984.710 7                      -446.910        -348.243
                        42.000          42.000
  23167190.410                                    23167189.688    23167187.997
 121744437.430 6  94865803.643 6                     -2275.416       -1773.008
                        37.000          37.000
  23671915.159    23671917.946    23671917.979    23671914.878    23671917.933
 124396759.787 5  96932539.860 5  92893685.386 8     -3537.950       -2756.792
     -2641.938          30.000          30.000          53.000
  20161696.028    20161696.460    20161694.306    20161695.445    20161696.300
 105950453.844 8  82558803.201 8  79118864.128 9       737.611         574.759
       550.812          48.000          48.000          58.000
  25127860.215    25127861.906    25127861.017    25127859.529    25127861.360
 132047791.083 3 102894384.063 3  98607121.778 7       929.532         724.351
       694.076          23.000          23.000          44.000
  22145475.294    22145478.490                    22145474.752    22145478.664
 118380271.528 7  92073564.348 6                      4228.342        3288.768
                        47.000          38.000
  22231594.578    22231597.287                    22231595.524    22231596.821
 119007505.939 8  92561413.127 7                     -2317.596       -1802.592
                        50.000          45.000
  20658282.214    20658282.749                    20658281.764    20658282.901
 110624250.406 8  86041065.432 8                      1427.762        1110.474
                        53.000          49.000
  23406772.486    23406774.906                    23406771.404    23406775.557
 124990865.163 6  97215098.783 6                     -4233.456       -3292.712
                        40.000          36.000
  21248931.592    21248932.094                    21248931.377    21248933.289
 113269071.552 9  88097964.890 7                     -1962.510       -1526.395
                        54.000          47.000
  21716299.577    21716302.923                    21716299.808    21716301.571
 116045319.206 8  90257476.110 6                      1132.113         880.551
                        48.000          40.000
  23633249.808    23633253.552                    23633250.400    23633253.596
 126466342.665 8  98362688.519 7                      3520.731        2738.369
                        48.000          42.000
  23944396.331    23944399.106                    23944394.752    23944399.061
 127816806.405 7  99413076.172 6                     -3196.579       -2486.245
                        45.000          41.000
  19831616.554    19831619.204                    19831617.080    19831620.730
 106085824.757 9  82511206.308 7                     -1167.699        -908.192
                        54.000          44.000
  20138793.771    20138795.395                    20138794.014    20138794.756
 107691182.888 7  83759835.045 6                      1872.697        1456.580
                        46.000          37.000
  38650894.571                    38650903.502
 203111791.806 8                 151674383.342 7       135.285
       101.015          48.000                          44.000
  38416143.191
 201877614.060 7                                       245.409
                        43.000
  39696545.114                    39696545.301
 208606797.666 6                 155777779.689 7       144.987
       108.252          39.000                          43.000
  41547345.824                    41547352.965
 218332750.683 5                 163040704.420 6       137.282
       102.423          35.000                          37.000
  38290054.910                    38290060.881
 201215680.741 8                 150258408.967 7       140.378
       104.800          48.000                          47.000
 18  7  4 14 23 30.0000000  0 29G04G07G08G10G11G13G15G16G18G20G21G26
                                G27G30R01R07R08R13R14R15R17R22R23R24
                                S23S25S27S28S36
  24846845.179    24846846.336                    24846845.447    24846846.850
 130571038.415 4 101743663.276 4                     -3828.143       -2983.013
                        28.000          28.000
  24504938.182    24504938.289                    24504937.703    24504937.410
 128774328.117 4 100343634.615 4                      -459.584        -358.260
                        27.000          27.000
  22095538.726    22095540.764    22095538.086    22095538.371    22095540.294
 116112863.741 7  90477563.688 7  86707673.674 8      2737.889        2133.435
      2044.573          42.000          42.000          53.000
  21083938.200    21083939.125    21083936.638    21083937.906    21083939.542
 110796885.541 7  86335247.040 7  82737960.097 9      1669.533        1300.920
      1246.732          44.000          44.000          56.000
  25855147.609
 135869715.027 5                                      3749.432
                        30.000
  25431802.143                                    25431801.446    25431802.690
 133645025.251 3 104138981.360 3                      -803.949        -626.411
                        21.000          21.000
  24437661.216    24437660.408                    24437661.251    24437659.787
 128420788.875 5 100068150.467 5                       -55.055         -42.873
                        32.000          32.000
  21736017.375                                    21736016.577    21736015.623
 114223555.231 6  89005371.522 6                     -2630.465       -2049.664
                        40.000          40.000
  24179336.246                                    24179336.503    24179337.417
 127063276.871 4  99010349.377 4                      3737.152        2912.106
                        26.000          26.000
  20908204.451                                    20908203.522    20908202.892
 109873412.553 7  85615659.181 7                      -466.589        -363.568
                        42.000          42.000
  23180191.060                                    23180190.005    23180189.351
 121812757.276 6  94919039.869 6                     -2279.325       -1776.061
                        38.000          38.000
  23692127.383    23692130.561    23692128.842    23692127.145    23692130.006
 124502969.417 5  97015300.554 5  92972997.683 8     -3542.966       -2760.686
     -2645.670          31.000          31.000          52.000
  20157524.896    20157525.425    20157523.379    20157524.493    20157525.409
 105928535.165 8  82541723.715 8  79102496.286 9       723.366         563.662
       540.181          48.000          48.000          58.000
  25122602.698    25122606.286    25122604.485    25122603.347    25122606.718
 132020170.870 4 102872861.805 4  98586496.280 7       911.570         710.339
       680.773          24.000          24.000          43.000
  22121774.725    22121778.577                    22121774.059    22121778.393
 118253578.031 7  91975025.045 6                      4217.688        3280.405
                        47.000          38.000
  22244645.099    22244646.836                    22244645.190    22244646.811
 119077362.583 8  92615746.060 7                     -2339.677       -1819.738
                        50.000          44.000
  20650357.364    20650358.177                    20650356.933    20650357.979
 110581813.534 8  86008059.000 8                      1401.088        1089.764
                        53.000          48.000
  23430564.359    23430571.477                    23430565.374    23430570.300
 125117922.813 6  97313921.289 5                     -4237.116       -3295.599
                        39.000          35.000
  21260042.080    21260044.279                    21260041.924    21260043.504
 113328297.911 9  88144029.814 7                     -1986.116       -1544.775
                        54.000          46.000
  21710018.935    21710021.701                    21710019.634    21710022.254
 116011759.903 8  90231374.423 6                      1104.908         859.395
                        48.000          40.000
  23613515.409    23613520.489                    23613515.794    23613519.014
 126360740.843 7  98280553.820 7                      3519.240        2737.217
                        47.000          42.000
  23962365.672    23962368.405                    23962365.091    23962368.915
 127912731.020 7  99487684.162 7                     -3198.587       -2487.734
                        45.000          42.000
  19838198.810    19838202.490                    19838198.937    19838202.671
 106121032.768 8  82538590.318 7                     -1179.724        -917.565
                        53.000          44.000
  20128317.805    20128318.026                    20128318.361    20128318.580
 107635163.208 7  83716264.206 6                      1861.774        1448.039
                        47.000          37.000
  38650123.114                    38650131.909
 203107735.573 7                 151671354.425 7       135.007
       100.844          47.000                          44.000
  38414810.513
 201870254.076 7                                       245.072
                        42.000
  39695718.220                    39695717.650
 208602449.357 6                 155774533.290 7       144.991
       108.284          40.000                          43.000
  41546559.088                    41546568.012
 218328625.300 6                 163037624.368 6       137.068
       102.364          37.000                          38.000
  38289255.457                    38289260.119
 201211471.184 7                 150255264.361 7       140.166
       104.610          47.000                          47.000
 18  7  4 14 24  0.0000000  0 29G04G07G08G10G11G13G15G16G18G20G21G26
                                G27G30R01R07R08R13R14R15R17R22R23R24
                                S23S25S27S28S36
  24868701.366    24868702.439                    24868701.938    24868701.835
 130685889.904 4 101833157.859 4                     -3828.384       -2983.224
                        29.000          29.000
  24507610.736    24507608.864                    24507610.420    24507610.002
 128788373.102 3 100354578.736 3                      -476.595        -371.277
                        22.000          22.000
  22079928.680    22079931.320    22079928.292    22079928.473    22079930.938
 116030834.822 6  90413645.075 6  86646418.335 8      2730.780        2127.869
      2039.216          41.000          41.000          53.000
  21074457.637    21074459.370    21074456.339    21074457.891    21074459.476
 110747067.268 7  86296427.628 7  82700758.162 9      1651.819        1287.163
      1233.517          44.000          44.000          56.000
  25833743.540
 135757230.021 5                                      3749.737
                        32.000
  25436444.134                                    25436444.640    25436443.380
 133669414.707 4 104157986.080 4                      -821.871        -640.355
                        24.000          24.000
  24438029.473    24438028.582                    24438029.897    24438028.701
 128422725.131 5 100069659.246 5                       -73.962         -57.597
                        33.000          33.000
  21751072.223                                    21751071.907    21751070.616
 114302670.474 6  89067019.736 6                     -2643.805       -2060.092
                        40.000          40.000
  24158011.790                                    24158011.535    24158012.425
 126951216.728 4  98923029.818 4                      3733.572        2909.284
                        27.000          27.000
  20910923.276                                    20910922.661    20910921.746
 109887700.798 7  85626792.887 7                      -485.757        -378.562
                        42.000          42.000
  23193213.872                                    23193213.135    23193211.839
 121881190.813 6  94972364.678 6                     -2282.714       -1778.765
                        38.000          38.000
  23712366.428    23712369.526    23712367.381    23712365.796    23712369.810
 124609324.822 5  97098174.873 5  93052418.876 8     -3547.298       -2764.138
     -2648.993          33.000          33.000          50.000
  20153434.777    20153435.350    20153433.266    20153434.435    20153435.233
 105907041.792 7  82524975.634 7  79086446.044 9       709.588         552.920
       529.876          47.000          47.000          58.000
  25117449.831    25117452.662    25117451.092    25117447.156    25117452.036
 131993086.224 4 102851756.909 4  98566270.752 7       894.225         696.825
       667.793          25.000          25.000          45.000
  22098132.771    22098136.754                    22098132.925    22098135.892
 118127201.535 7  91876732.313 6                      4207.489        3272.479
                        47.000          39.000
  22257816.359    22257819.680                    22257816.685    22257819.353
 119147876.627 8  92670590.294 7                     -2361.118       -1836.467
                        50.000          44.000
  20642581.208    20642582.239                    20642581.037    20642582.233
 110540174.321 8  85975672.972 8                      1374.961        1069.416
                        53.000          48.000
  23454379.302    23454380.273                    23454377.987    23454381.910
 125245082.237 6  97412822.961 5                     -4240.045       -3297.836
                        40.000          35.000
  21271284.759    21271286.150                    21271284.609    21271285.993
 113388227.647 8  88190641.812 7                     -2009.090       -1562.607
                        53.000          45.000
  21703892.351    21703895.001                    21703891.948    21703894.849
 115979015.096 8  90205906.244 6                      1078.178         838.549
                        48.000          40.000
  23593788.344    23593792.990                    23593789.374    23593793.095
 126255180.828 8  98198451.628 7                      3518.192        2736.376
                        48.000          43.000
  23980346.398    23980347.417                    23980346.093    23980349.521
 128008712.143 7  99562336.111 6                     -3199.963       -2488.881
                        46.000          41.000
  19844847.126    19844850.674                    19844847.498    19844851.802
 106156600.582 8  82566254.168 7                     -1191.267        -926.586
                        53.000          43.000
  20117902.103    20117903.091                    20117903.359    20117904.066
 107579467.991 7  83672945.715 6                      1851.374        1439.988
                        47.000          37.000
  38649351.349                    38649360.798
 203103684.373 7                 151668329.151 7       135.255
       101.008          47.000                          44.000
  38413479.887
 201862903.062 7                                       245.025
                        43.000
  39694891.986                    39694891.367
 208598106.289 6                 155771289.780 7       144.693
       108.073          39.000                          43.000
  41545776.730                    41545784.554
 218324504.904 6                 163034546.997 6       137.623
       102.695          37.000                          38.000
  38288455.280                    38288460.511
 201207266.542 8                 150252124.983 7       140.379
       104.831          48.000                          47.000
 18  7  4 14 24 30.0000000  0 29G04G07G08G10G11G13G15G16G18G20G21G26
                                G27G30R01R07R08R13R14R15R17R22R23R24
                                S23S25S27S28S36
  24890559.840    24890560.658                    24890560.228    24890560.942
 130800757.229 4 101922664.751 4                     -3829.077       -2983.688
                        29.000          29.000
  24510381.832    24510382.554                    24510381.319    24510381.685
 128802936.032 4 100365926.496 4                      -493.842        -384.811
                        28.000          28.000
  22064362.136    22064364.531    22064361.382    22064361.606    22064363.656
 115949029.916 6  90349901.019 6  86585330.285 8      2723.274        2122.050
      2033.621          41.000          41.000          53.000
  21065080.982    21065082.261    21065079.461    21065081.101    21065082.627
 110697792.148 7  86258031.458 7  82663961.838 9      1633.583        1272.955
      1219.906          44.000          44.000          56.000
  25812336.436
 135644738.962 5                                      3750.298
                        32.000
  25441188.718                                    25441188.285    25441186.188
 133694346.469 3 104177413.456 3                      -840.024        -654.539
                        22.000          22.000
  24438508.140    24438508.573                    24438508.387    24438507.467
 128425239.312 5 100071618.395 5                       -93.305         -72.700
                        34.000          34.000
  21766205.569                                    21766204.698    21766203.836
 114382194.671 6  89128986.617 6                     -2657.399       -2070.715
                        40.000          40.000
  24136709.603                                    24136710.221    24136710.486
 126839274.342 4  98835802.080 4                      3729.685        2906.156
                        28.000          28.000
  20913753.185                                    20913752.843    20913752.063
 109902574.088 7  85638382.463 7                      -505.406        -393.805
                        42.000          42.000
  23206256.971                                    23206256.471    23206254.808
 121949733.615 6  95025774.637 6                     -2286.422       -1781.636
                        37.000          37.000
  23732631.709    23732634.247    23732633.031    23732631.247    23732634.195
 124715820.266 5  97181158.215 5  93131944.595 8     -3551.957       -2767.740
     -2652.455          32.000          32.000          51.000
  20149425.213    20149425.907    20149423.726    20149424.897    20149425.830
 105885971.455 7  82508557.191 7  79070711.702 9       695.448         541.901
       519.324          47.000          47.000          58.000
  25112396.686    25112399.720    25112398.271    25112396.029    25112399.457
 131966534.515 4 102831067.245 4  98546443.197 7       876.286         682.823
       654.355          24.000          24.000          44.000
  22074551.230    22074552.419                    22074551.028    22074554.987
 118001143.116 7  91778686.962 6                      4196.778        3264.150
                        47.000          39.000
  22271111.814    22271113.739                    22271111.612    22271113.445
 119219041.046 8  92725940.388 7                     -2382.831       -1853.283
                        50.000          44.000
  20634953.630    20634954.749                    20634953.710    20634955.351
 110499331.556 8  85943906.406 8                      1348.262        1048.670
                        53.000          49.000
  23478209.108    23478212.945                    23478209.230    23478213.480
 125372335.193 6  97511797.355 6                     -4242.970       -3299.983
                        41.000          37.000
  21282658.206    21282660.166                    21282658.048    21282659.167
 113448854.012 9  88237795.632 7                     -2032.362       -1580.726
                        54.000          45.000
  21697914.443    21697920.394                    21697916.191    21697919.554
 115947083.470 8  90181070.544 6                      1050.964         817.432
                        48.000          40.000
  23574070.616    23574072.316                    23574070.168    23574073.332
 126149660.123 7  98116380.030 7                      3516.871        2735.348
                        47.000          43.000
  23998337.110    23998337.604                    23998336.819    23998339.889
 128104746.210 7  99637029.223 6                     -3201.806       -2490.291
                        45.000          39.000
  19851563.178    19851566.567                    19851563.126    19851567.530
 106192524.681 8  82594195.120 7                     -1203.257        -935.865
                        53.000          44.000
  20107548.720    20107549.264                    20107548.059    20107547.485
 107524094.934 7  83629877.811 6                      1840.576        1431.560
                        47.000          37.000
  38648581.864                    38648590.468
 203099634.964 7                 151665305.059 7       135.075
       100.892          47.000                          44.000
  38412151.076
 201856946.448 7                                       244.707
                        42.000
  39694065.708                    39694065.161
 208593765.947 6                 155768048.734 7       144.963
       108.325          39.000                          43.000
  41544992.785                    41545000.333
 218320386.258 6                 163031471.330 6       137.238
       102.621          36.000                          38.000
  38287655.829                    38287661.061
 201203064.560 8                 150248991.119 7       139.995
       104.551          48.000                          47.000
 18  7  4 14 25  0.0000000  0 29G04G07G08G10G11G13G15G16G18G20G21G26
                                G27G30R01R07R08R13R14R15R17R22R23R24
                                S23S25S27S28S36
  24912420.007    24912421.734                    24912419.493    24912420.478
 130915631.294 4 102012176.900 4                     -3829.537       -2984.145
                        27.000          27.000
  24513250.099    24513250.079                    24513250.297    24513249.795
 128818009.095 4 100377671.704 4                      -511.133        -398.252
                        26.000          26.000
  22048836.367    22048839.136    22048836.166    22048836.323    22048838.573
 115867444.169 6  90286327.731 6  86524405.890 8      2715.695        2116.105
      2027.941          41.000          41.000          53.000
  21055806.499    21055807.817    21055805.198    21055806.386    21055808.303
 110649054.663 7  86220054.221 7  82627566.990 9      1615.454        1258.783
      1206.333          44.000          44.000          56.000
  25790927.173
 135532236.712 5                                      3749.986
                        35.000
  25446034.921                                    25446034.249    25446034.104
 133719812.177 3 104197256.858 3                      -857.936        -668.588
                        19.000          19.000
  24439095.654    24439094.245                    24439095.281    24439095.193
 128428324.547 5 100074022.474 5                      -112.596         -87.718
                        33.000          33.000
  21781414.487                                    21781413.970    21781412.878
 114462118.666 6  89191265.042 6                     -2670.931       -2081.273
                        40.000          40.000
  24115428.883                                    24115428.785    24115429.363
 126727444.134 4  98748661.701 4                      3725.601        2903.061
                        28.000          28.000
  20916693.782                                    20916692.864    20916692.253
 109918024.992 7  85650422.135 7                      -524.848        -408.954
                        42.000          42.000
  23219319.608                                    23219319.114    23219317.850
 122018378.215 6  95079263.909 6                     -2290.032       -1784.435
                        38.000          38.000
  23752921.791    23752924.927    23752923.241    23752921.493    23752924.507
 124822446.238 5  97264243.354 5  93211567.804 8     -3556.581       -2771.341
     -2655.887          32.000          32.000          51.000
  20145494.845    20145495.506    20145493.554    20145494.684    20145495.590
 105865318.283 7  82492463.812 7  79055288.880 9       681.269         530.889
       508.764          47.000          47.000          58.000
  25107444.018    25107448.067    25107445.805    25107442.693    25107447.495
 131940509.406 3 102810787.963 3  98527008.908 7       858.591         668.987
       641.146          23.000          23.000          44.000
  22051028.221    22051029.308                    22051028.141    22051031.138
 117875400.391 8  91680887.137 6                      4185.906        3255.718
                        48.000          38.000
  22284525.395    22284527.769                    22284525.324    22284527.308
 119290845.864 8  92781788.558 7                     -2404.343       -1870.056
                        50.000          44.000
  20627474.499    20627476.026                    20627474.213    20627475.899
 110459279.770 8  85912755.044 8                      1321.666        1027.941
                        53.000          49.000
  23502056.003    23502059.701                    23502055.381    23502057.928
 125499670.704 7  97610836.001 6                     -4246.064       -3302.498
                        42.000          36.000
  21294160.344    21294161.415                    21294159.986    21294161.354
 113510166.938 9  88285483.433 7                     -2055.345       -1598.638
                        54.000          45.000
  21692091.473    21692093.641                    21692091.692    21692094.754
 115915958.513 8  90156862.244 6                      1023.909         796.366
                        48.000          41.000
  23554356.626    23554359.836                    23554357.707    23554360.420
 126044172.259 8  98034333.959 7                      3515.514        2734.285
                        48.000          43.000
  24016336.273    24016339.361                    24016335.381    24016338.068
 128200825.688 7  99711757.653 6                     -3203.604       -2491.666
                        44.000          40.000
  19858343.921    19858346.921                    19858343.929    19858348.027
 106228797.435 8  82622407.257 7                     -1215.076        -945.079
                        53.000          44.000
  20097251.380    20097252.399                    20097251.810    20097252.629
 107469037.695 8  83587055.518 6                      1829.853        1423.227
                        48.000          37.000
  38647810.082                    38647818.849
 203095581.042 8                 151662277.607 7       135.111
       100.834          48.000                          44.000
  38410823.688
 201849610.541 7                                       244.446
                        43.000
  39693238.423                    39693238.203
 208589420.595 6                 155764803.431 7       144.612
       107.811          39.000                          43.000
  41544207.588                    41544215.952
 218316262.772 6                 163028399.639 6       136.993
       102.339          37.000                          38.000
  38286856.044                    38286860.954
 201198860.451 8                 150245849.027 7       139.896
       104.487          48.000                          47.000
