     2              OBSERVATION DATA    G (GPS)             RINEX VERSION / TYPE
TerraSat GeoGenius GPS+GLONASS Decoder  11-Jun-99 12:23:06  PGM / RUN BY / DATE
P001____                      P0013261                      MARKER NAME
                                                            OBSERVER / AGENCY
      8874          TRIMBLE              722 306            REC # / TYPE / VERS
00000000            EXT_COMP_L12_GP                         ANT # / TYPE
  4155077.6222   816409.8371  4754417.6170                  APPROX POSITION XYZ
        0.0000        0.0000        0.0000                  ANTENNA: DELTA H/E/N
     1     1     0                                          WAVELENGTH FACT L1/2
     5    C1    P2    L1    L2    D1                        # / TYPES OF OBSERV
     5                                                      INTERVAL
  1998    11    22    11    15   20.000000        GPS       TIME OF FIRST OBS
                                                            END OF HEADER
 98 11 22 11 15 20.0000000  0  8G02G27G10G13G17G18G19G26
  22826815.461                      -21167.40519         0.00000     -3020.688  
  20538782.828                        -164.65212         0.00000      -163.453  
  20796669.711                        2234.54919         0.00000       180.813  
  20655487.805                        1977.44219         0.00000       286.453  
  24766297.914                      -13974.15319         0.00000     -2325.688  
  24504003.563                       20377.48519         0.00000      2914.281  
  22350678.477                       15198.80819         0.00000      2174.594  
  23363535.852                      -55225.86219         0.00000     -3445.000  
 98 11 22 11 15 25.0000000  0  8G02G27G10G13G17G18G19G26
  22823943.656                      -36257.95809         0.00000     -3015.422  
  20538629.875                        -967.50503         0.00000      -157.516  
  20796845.023                        3155.17409         0.00000       187.609  
  20655762.906                        3423.50609         0.00000       292.141  
  24764087.766                      -25587.08609         0.00000     -2319.313  
  24506778.594                       34958.46709         0.00000      2918.328  
  22352749.734                       26082.86309         0.00000      2179.172  
  23360259.672                      -72440.95809         0.00000     -3440.891  
 98 11 22 11 15 30.0000000  0  8G02G27G10G13G17G18G19G26
  22821077.070                      -51322.88409         0.00000     -3010.422  
  20538482.344                       -1741.48001         0.00000      -151.891  
  20797026.461                        4108.71409         0.00000       194.016  
  20656043.367                        4897.27709         0.00000       297.547  
  24761883.633                      -37169.03409         0.00000     -2313.281  
  24509556.633                       49558.88509         0.00000      2922.078  
  22354825.055                       36988.80609         0.00000      2183.375  
  23356987.094                      -89636.59609         0.00000     -3437.156  
 98 11 22 11 15 35.0000000  0  8G02G27G10G13G17G18G19G26
  22818216.430                      -66356.61109         0.00000     -3003.141  
  20538341.609                       -2481.09801         0.00000      -144.047  
  20797215.375                        5100.60209         0.00000       202.656  
  20656330.211                        6404.42709         0.00000       305.250  
  24759686.195                      -48714.47309         0.00000     -2304.984  
  24512339.688                       64184.60409         0.00000      2928.141  
  22356905.586                       47922.22709         0.00000      2189.891  
  23353719.859                     -106807.08009         0.00000     -3431.125  
 98 11 22 11 15 40.0000000  0  8G02G27G10G13G17G18G19G26
  22815361.836                      -81357.44109         0.00000     -2997.219  
  20538207.734                       -3185.17405         0.00000      -137.609  
  20797411.063                        6132.39009         0.00000       210.000  
  20656623.656                        7946.44709         0.00000       311.547  
  24757497.313                      -60221.87109         0.00000     -2298.000  
  24515127.570                       78837.17509         0.00000      2932.859  
  22358991.750                       58884.96409         0.00000      2195.141  
  23350457.297    23350461.797     -123950.82509    -10683.88519     -3426.422  
 98 11 22 11 15 45.0000000  0  8G02G27G10G13G17G18G19G26
  22812512.547                      -96328.54909         0.00000     -2991.734  
  20538079.922                       -3856.92808         0.00000      -131.563  
  20797614.703                        7200.90809         0.00000       216.922  
  20656922.961                        9520.17509         0.00000       317.469  
  24755313.508                      -71694.20009         0.00000     -2291.406  
  24517921.422                       93513.49409         0.00000      2937.156  
  22361082.977                       69873.95809         0.00000      2199.969  
  23347199.711    23347203.648     -141071.18209    -24024.40109     -3422.234  
 98 11 22 11 15 50.0000000  0  8G02G27G10G13G17G18G19G26
  22809668.797    22809672.676     -111273.34209     -2324.82819     -2985.375  
  20537957.516                       -4499.52306         0.00000      -124.672  
  20797824.297    20797827.109        8303.01209       689.00619       224.719  
  20657227.891    20657228.816       11122.48209       501.36719       324.266  
  24753137.164                      -83134.53009         0.00000     -2283.906  
  24520714.898                      108210.28305         0.00000      2942.313  
  22363178.352                       80885.99409         0.00000      2205.641  
  23343945.555    23343949.305     -158171.62009    -37349.41009     -3417.156  
 98 11 22 11 15 55.0000000  0  8G02G27G10G13G17G18G19G26
  22806830.633    22806834.441     -126188.27809    -13946.85509     -2980.234  
  20537841.680    20537844.176       -5109.54006       -93.51519      -118.984  
  20798041.141    20798043.883        9442.10909      1576.62709       231.250  
  20657538.938    20657539.875       12756.55809      1774.67409       329.719  
  24750966.672                      -94539.21209         0.00000     -2277.609  
  24523519.250                      122930.93407         0.00000      2946.266  
  22365279.305    22365283.582       91924.52009      5160.75719      2210.125  
  23340696.266    23340701.070     -175248.53909    -50656.11209     -3413.281  
 98 11 22 11 16  0.0000000  0  8G02G27G10G13G17G18G19G26
  22803997.070    22804000.891     -141076.91909    -25548.38809     -2975.047  
  20537730.930    20537733.367       -5690.46104      -546.18109      -113.219  
  20798264.469    20798266.801       10614.33009      2490.06509       237.813  
  20657855.250    20657855.953       14418.52609      3069.72006       335.234  
  24748802.539                     -105911.94309         0.00000     -2271.297  
  24526325.148                      137671.63609         0.00000      2950.141  
  22367383.844    22367388.098      102985.88709     13779.99209      2214.641  
  23337450.258    23337454.898     -192305.54609    -63947.29009     -3409.328  
 98 11 22 11 16  5.0000000  0  8G02G27G10G13G17G18G19G26
  22801169.164    22801173.066     -155937.98009    -37128.43709     -2969.406  
  20537626.297    20537628.664       -6240.93406      -975.11809      -107.016  
  20798493.641    20798496.219       11820.89209      3430.24309       244.781  
  20658177.078    20658177.945       16109.81809      4387.61608       341.250  
  24746645.039                     -117251.33709         0.00000     -2264.469  
  24529132.906                      152433.77607         0.00000      2954.641  
  22369493.328    22369497.863      114071.72509     22418.30809      2219.688  
  23334208.508    23334213.301     -209340.79409    -77221.49309     -3404.813  
 98 11 22 11 16 10.0000000  0  8G02G27G10G13G17G18G19G26
  22798346.313    22798350.098     -170772.68709    -48687.93709     -2964.297  
  20537527.102    20537529.445       -6762.21603     -1381.30809      -101.344  
  20798729.797    20798732.715       13060.57009      4396.22809       251.234  
  20658504.281    20658505.184       17829.29409      5727.46709       346.703  
  24744493.117                     -128558.17109         0.00000     -2258.125  
  24531947.172                      167216.13109         0.00000      2958.516  
  22371607.523    22371611.918      125181.16409     31075.00209      2224.266  
  23330970.680    23330975.414     -226355.24309    -90479.48209     -3400.797  
 98 11 22 11 16 15.0000000  0  8G02G27G10G13G17G18G19G26
  22795528.195    22795531.992     -185581.75509    -60227.46509     -2959.672  
  20537433.266    20537435.621       -7255.24804     -1765.48709       -96.203  
  20798971.820    20798974.551       14332.51409      5387.35109       257.188  
  20658836.766    20658837.668       19576.23309      7088.71509       351.719  
  24742348.109    24742351.355     -139833.00709     -7024.89119     -2252.156  
  24534762.273    24534768.660      182017.81509      9225.43819      2961.844  
  22373726.063    22373730.293      136313.66009     39749.66109      2228.391  
  23327736.656    23327740.852     -243349.53009   -103721.76209     -3397.250  
 98 11 22 11 16 20.0000000  0  8G02G27G10G13G17G18G19G26
  22792714.305    22792718.336     -200366.79809    -71748.27009     -2954.688  
  20537344.500    20537346.844       -7721.75806     -2129.00309       -90.719  
  20799219.609    20799222.410       15634.93509      6402.21709       263.453  
  20659174.164    20659174.926       21349.09109      8470.15409       357.094  
  24740207.758    24740211.461     -151077.31909    -15786.69709     -2245.891  
  24537585.273    24537592.145      196837.23509     20772.99209      2965.578  
  22375848.836    22375852.785      147467.69509     48441.10309      2232.891  
  23324506.734    23324510.039     -260325.23509   -116949.57709     -3393.375  
 98 11 22 11 16 25.0000000  0  8G02G27G10G13G17G18G19G26
  22789905.773    22789909.793     -215128.10309    -83250.58309     -2949.703  
  20537260.945    20537263.266       -8161.72506     -2471.83809       -85.156  
  20799473.430    20799475.914       16967.81609      7440.82709       269.828  
  20659516.391    20659517.094       23147.64509      9871.62109       362.453  
  24738073.844    24738076.527     -162291.32409    -24524.86309     -2239.578  
  24540406.992    24540410.426      211674.21809     32334.21909      2969.297  
  22377975.344    22377979.199      158643.05109     57149.16409      2237.391  
  23321279.750    23321282.633     -277282.45209   -130162.98909     -3389.391  
 98 11 22 11 16 30.0000000  0  8G02G27G10G13G17G18G19G26
  22787102.281    22787106.582     -229861.01809    -94730.77309     -2944.188  
  20537183.086    20537185.488       -8570.41304     -2790.30009       -79.047  
  20799733.914    20799736.457       18335.90409      8506.88509       276.703  
  20659864.398    20659864.973       24976.64509     11296.81909       368.406  
  24735946.867    24735949.609     -173470.34909    -33235.78409     -2232.750  
  24543232.414    24543241.453      226533.40605     43912.81409      2973.672  
  22380106.492    22380110.441      169844.44309     65877.52009      2242.453  
  23318056.961    23318060.043     -294216.30409   -143358.18809     -3384.875  
 98 11 22 11 16 35.0000000  0  8G02G27G10G13G17G18G19G26
  22784302.836    22784306.914     -244571.39109   -106193.40109     -2939.594  
  20537110.242    20537112.738       -8953.51502     -3088.82709       -73.813  
  20799999.648    20800002.941       19733.50509      9595.91509       282.703  
  20660217.016    20660217.566       26830.22709     12741.17009       373.406  
  24733825.414    24733827.957     -184620.33009    -41924.06209     -2226.844  
  24546064.938    24546074.328      241408.80507     55503.97809      2976.859  
  22382242.047    22382246.219      181066.03709     74621.62309      2246.563  
  23314838.086    23314840.477     -311132.54209   -156539.66209     -3381.281  
 98 11 22 11 16 40.0000000  0  8G02G27G10G13G17G18G19G26
  22781508.219    22781512.133     -259256.71709   -117636.51609     -2935.109  
  20537042.656    20537045.105       -9308.30805     -3365.29209       -68.672  
  20800271.750    20800274.586       21163.25609     10709.99209       288.656  
  20660574.969    20660575.566       28710.87409     14206.60509       378.297  
  24731709.445    24731712.527     -195738.60709    -50587.64509     -2221.000  
  24548899.906    24548907.480      256302.89509     67109.73609      2980.172  
  22384381.758    22384385.730      192310.47809     83383.52509      2250.641  
  23311623.117    23311626.691     -328028.75809   -169705.53909     -3377.781  
 98 11 22 11 16 45.0000000  0  8G02G27G10G13G17G18G19G26
  22778718.031    22778722.602     -273919.59609   -129062.13409     -2930.609  
  20536980.008    20536982.434       -9637.24403     -3621.60709       -63.500  
  20800549.477    20800552.723       22622.81509     11847.31009       294.609  
  20660937.375    20660937.973       30615.92709     15691.05809       383.156  
  24729599.172    24729602.922     -206827.45909    -59228.30409     -2215.109  
  24551736.719    24551744.199      271213.30209     78728.24809      2983.438  
  22386525.539    22386529.629      203575.33609     92161.32309      2254.719  
  23308411.125    23308413.715     -344907.43909   -182857.75709     -3374.250  
 98 11 22 11 16 50.0000000  0  8G02G27G10G13G17G18G19G26
  22775931.758    22775936.539     -288560.30809   -140470.46909     -2926.031  
  20536922.320    20536924.676       -9940.87702     -3858.20509       -58.313  
  20800833.320    20800836.367       24111.71109     13007.49109       300.594  
  20661304.609    20661305.336       32544.88209     17194.14009       388.078  
  24727494.586    24727498.383     -217887.27509    -67846.34109     -2209.172  
  24554576.125    24554584.824      286139.72907     90359.23609      2986.797  
  22388672.984    22388676.980      214860.23609    100954.75109      2258.891  
  23305201.898    23305204.371     -361769.07409   -195996.67809     -3370.734  
 98 11 22 11 16 55.0000000  0  8G02G27G10G13G17G18G19G26
  22773150.055    22773154.742     -303179.45309   -151862.00209     -2921.406  
  20536869.102    20536871.434      -10219.77602     -4075.53209       -53.047  
  20801121.875    20801124.746       25629.44309     14190.13709       306.719  
  20661675.922    20661676.555       34497.19509     18715.42008       393.047  
  24725395.055    24725398.031     -228918.76409    -76442.29709     -2203.203  
  24557421.672    24557428.836      301081.54709    102002.13409      2990.125  
  22390823.945    22390827.648      226164.71109    109763.42209      2263.094  
  23301996.734    23301999.477     -378614.24009   -209122.78009     -3367.141  
 98 11 22 11 17  0.0000000  0  8G02G27G10G13G17G18G19G26
  22770372.656    22770377.016     -317776.80409   -163236.55209     -2917.375  
  20536820.984    20536823.410      -10473.47602     -4273.22109       -48.281  
  20801416.008    20801418.973       27176.40709     15395.56109       312.266  
  20662052.047    20662052.855       36473.15409     20255.12707       397.500  
  24723301.117    24723305.148     -239921.50509    -85015.85909     -2197.734  
  24560266.258    24560273.188      316039.17909    113657.40209      2993.063  
  22392978.742    22392982.492      237488.89809    118587.45409      2266.766  
  23298794.516    23298797.199     -395442.53309   -222235.72109     -3364.031  
 98 11 22 11 17  5.0000000  0  8G02G27G10G13G17G18G19G26
  22767598.430    22767603.117     -332353.03209   -174594.65109     -2913.297  
  20536777.273    20536779.723      -10702.34409     -4451.56009       -43.422  
  20801716.055    20801719.371       28752.22409     16623.47309       317.922  
  20662432.578    20662433.352       38472.47609     21813.04306       402.094  
  24721212.867    24721216.770     -250895.78009    -93567.23309     -2192.125  
  24563115.633    24563123.887      331012.53807    125324.94209      2996.094  
  22395137.625    22395141.352      248832.67909    127426.77409      2270.609  
  23295595.438    23295597.547     -412254.10309   -235335.63609     -3360.719  
 98 11 22 11 17 10.0000000  0  8G02G27G10G13G17G18G19G26
  22764828.453    22764833.270     -346909.34309   -185937.22609     -2909.047  
  20536738.047    20536740.555      -10907.33307     -4611.28809       -38.375  
  20802021.008    20802024.359       30356.06209     17873.20609       323.813  
  20662817.344    20662818.176       40494.18109     23388.40703       406.781  
  24719130.453    24719133.852     -261842.43009   -102097.07709     -2186.328  
  24565969.695    24565978.629      346000.82109    137004.15809      2999.391  
  22397300.266    22397303.605      260195.01609    136280.57309      2274.500  
  23292399.805    23292402.172     -429049.69209   -248423.09309     -3357.313  
 98 11 22 11 17 15.0000000  0  8G02G27G10G13G17G18G19G26
  22762062.359    22762067.070     -361444.61609   -197263.41409     -2905.109  
  20536703.773    20536706.457      -11087.13709     -4751.39409       -33.609  
  20802331.781    20802334.582       31989.33109     19145.88109       329.453  
  20663206.414    20663207.188       42539.39009     24982.07906       411.250  
  24717052.453    24717056.145     -272760.10409   -110604.35209     -2180.781  
  24568824.211    24568831.055      361005.26109    148695.93309      3002.344  
  22399466.211    22399469.680      271576.68609    145149.41709      2278.125  
  23289206.609    23289208.625     -445828.17009   -261497.21509     -3354.156  
 98 11 22 11 17 20.0000000  0  8G02G27G10G13G17G18G19G26
  22759300.352    22759304.840     -375960.11309   -208574.18409     -2901.047  
  20536674.281    20536676.883      -11243.10009     -4872.92609       -28.750  
  20802647.797    20802650.293       33650.67809     20440.43909       335.125  
  20663599.875    20663600.660       44606.94509     26593.15906       415.828  
  24714979.328    24714983.324     -283650.01809   -119089.98609     -2175.156  
  24571682.633    24571688.211      376024.69809    160399.34709      3005.469  
  22401635.211    22401638.551      282976.42809    154032.32509      2281.797  
  23286017.133    23286019.043     -462590.95409   -274559.11609     -3350.906  
 98 11 22 11 17 25.0000000  0  8G02G27G10G13G17G18G19G26
  22756542.523    22756547.047     -390453.36309   -219867.61709     -2896.563  
  20536649.586    20536652.258      -11373.08208     -4974.21109       -23.531  
  20802969.891    20802972.914       35342.09009     21758.41009       341.172  
  20663998.031    20663998.758       46698.94809     28223.29007       420.703  
  24712914.281    24712918.711     -294510.14509   -127552.39709     -2169.156  
  24574543.992    24574551.016      391061.24809    172116.04409      3008.906  
  22403808.461    22403811.883      294396.37901    162930.97809      2285.891  
  23282830.391    23282832.441     -479335.75509   -287607.00809     -3347.297  
 98 11 22 11 17 30.0000000  0  8G02G27G10G13G17G18G19G26
  22753788.195    22753792.180     -404926.95009   -231145.73409     -2892.719  
  20536629.398    20536632.023      -11479.70001     -5057.28305       -18.953  
  20803296.570    20803299.652       37060.88109     23097.72309       346.531  
  20664400.133    20664400.578       48812.63109     29870.31203       424.953  
  24710852.094    24710856.617     -305343.08609   -135993.65509     -2163.859  
  24577407.836    24577413.027      406112.17109    183844.02209      3011.656  
  22405985.000    22405987.777      305834.16701    171843.52309      2289.406  
  23279646.961    23279649.340     -496065.42709   -300643.10109     -3344.391  
 98 11 22 11 17 35.0000000  0  8G02G27G10G13G17G18G19G26
  22751038.063    22751042.082     -419379.66809   -242407.59409     -2888.516  
  20536613.758    20536616.559      -11561.82001     -5121.27504       -14.047  
  20803629.250    20803632.484       38808.25809     24459.31309       352.266  
  20664806.875    20664807.168       50949.20909     31535.17603       429.547  
  24708796.461    24708802.461     -316147.72909   -144412.83409     -2158.156  
  24580274.328    24580280.316      421178.62509    195584.09009      3014.781  
  22408165.234    22408167.824      317291.22701    180771.09709      2293.281  
  23276466.805    23276468.891     -512778.78809   -313666.48709     -3341.094  
 98 11 22 11 17 40.0000000  0  8G02G27G10G13G17G18G19G26
  22748291.086    22748295.352     -433815.48109   -253656.27709     -2885.281  
  20536601.797    20536604.691      -11623.72001     -5169.51603       -10.188  
  20803966.164    20803969.316       40580.18109     25840.03509       357.016  
  20665216.945    20665217.344       53104.52409     33214.63903       433.125  
  24706745.281    24706749.758     -326928.18609   -152813.19009     -2153.500  
  24583144.734    24583149.469      436256.33109    207332.93109      3016.813  
  22410348.914    22410351.434      328763.61801    189710.62109      2296.219  
  23273288.531    23273291.098     -529480.11109   -326680.50509     -3338.891  
 98 11 22 11 17 45.0000000  0  8G02G27G10G13G17G18G19G26
  22745547.672    22745552.031     -448232.56309   -264890.36009     -2881.078  
  20536594.188    20536597.035      -11663.68001     -5200.64601        -5.344  
  20804308.703    20804312.125       42378.29609     27241.16109       362.688  
  20665631.063    20665631.344       55280.17709     34909.95901       437.609  
  24704698.414    24704702.527     -337682.75709   -161193.38509     -2147.875  
  24586015.922    24586021.594      451346.73009    219091.60009      3019.797  
  22412534.984    22412537.164      340253.09401    198663.43709      2300.063  
  23270112.273    23270114.664     -546167.75609   -339683.85809     -3335.719  
 98 11 22 11 17 50.0000000  0  8G02G27G10G13G17G18G19G26
  22742808.492    22742812.746     -462627.94109   -276107.53609     -2876.859  
  20536591.242    20536593.984      -11678.96101     -5212.54601        -0.578  
  20804656.484    20804659.941       44205.31709     28664.81709       368.328  
  20666049.445    20666049.738       57478.68709     36623.07901       441.984  
  24702657.008    24702660.887     -348408.61609   -169551.19709     -2142.266  
  24588890.781    24588896.828      466452.72209    230862.51009      3022.844  
  22414725.055    22414727.281      351762.43501    207631.72309      2303.875  
  23266940.063    23266942.734     -562838.87109   -352674.32909     -3332.547  
 98 11 22 11 17 55.0000000  0  8G02G27G10G13G17G18G19G26
  22740073.133    22740077.211     -477001.87909   -287307.99909     -2872.484  
  20536593.055    20536595.797      -11670.24201     -5205.74501         4.297  
  20805009.438    20805012.742       46060.89709     30110.71809       374.125  
  20666472.070    20666472.223       59699.26309     38353.39601       446.469  
  24700620.688    24700624.074     -359106.30509   -177887.04909     -2136.578  
  24591767.484    24591775.082      481573.92309    242645.19109      3025.875  
  22416919.016    22416921.406      363291.07901    216615.06609      2307.797  
  23263770.758    23263773.957     -579493.88409   -365652.24009     -3329.250  
 98 11 22 11 18  0.0000000  0  8G02G27G10G13G17G18G19G26
  22737342.516    22737346.570     -491351.77309   -298489.72409     -2867.719  
  20536599.664    20536602.465      -11634.97401     -5178.25501         9.594  
  20805368.648    20805372.328       47947.65509     31580.90809       380.328  
  20666899.211    20666899.398       61944.26809     40102.75401       451.313  
  24698591.766    24698595.703     -369773.35109   -186199.01209     -2130.469  
  24594649.617    24594658.516      496712.78209    254441.67909      3029.391  
  22419116.922    22419119.371      374841.47301    225615.36709      2312.125  
  23260604.852    23260608.648     -596130.58909   -378615.88409     -3325.656  
 98 11 22 11 18  5.0000000  0  8G02G27G10G13G17G18G19G26
  22734616.141    22734620.090     -505678.56509   -309653.45309     -2863.000  
  20536611.273    20536614.086      -11573.80001     -5130.58601        14.828  
  20805733.078    20805736.184       49864.57109     33074.61409       386.406  
  20667330.852    20667330.945       64212.89209     41870.51001       456.109  
  24696566.977    24696571.102     -380410.56309   -194487.73409     -2124.438  
  24597532.891    24597538.785      511868.28609    266251.14309      3032.813  
  22421318.813    22421321.367      386412.73101    234631.92809      2316.375  
  23257442.633    23257446.313     -612749.92909   -391565.99409     -3322.078  
 98 11 22 11 18 10.0000000  0  8G02G27G10G13G17G18G19G26
  22731893.703    22731897.746     -519984.74909   -320801.12609     -2859.000  
  20536627.195    20536630.184      -11489.57901     -5064.96601        19.297  
  20806102.891    20806106.066       51809.00809     34589.76009       391.813  
  20667766.648    20667766.695       66502.52509     43654.64001       460.188  
  24694547.570    24694552.223     -391020.79609   -202755.44709     -2119.203  
  24600419.477    24600423.273      527037.77809    278071.47109      3035.469  
  22423524.266    22423526.797      398002.27601    243662.75109      2319.906  
  23254282.250    23254285.977     -629354.25709   -404504.40909     -3319.203  
 98 11 22 11 18 15.0000000  0  8G02G27G10G13G17G18G19G26
  22729175.797    22729179.840     -534266.65309   -331929.88109     -2854.266  
  20536648.586    20536651.457      -11378.86809     -4978.70101        24.500  
  20806479.438    20806482.543       53784.54709     36129.13709       397.938  
  20668207.188    20668207.164       68816.78009     45457.95101       465.031  
  24692535.328    24692541.633     -401600.72909   -210999.53009     -2113.266  
  24603309.859    24603314.887      542224.94909    289905.61809      3038.828  
  22425733.805    22425736.699      409613.73401    252710.64209      2324.203  
  23251125.867    23251129.488     -645939.84109   -417428.23009     -3315.547  
 98 11 22 11 18 20.0000000  0  8G02G27G10G13G17G18G19G26
  22726462.547    22726466.602     -548524.72809   -343040.06509     -2849.063  
  20536674.305    20536677.234      -11242.08801     -4872.12501        30.109  
  20806860.922    20806863.910       55790.93409     37692.56409       404.516  
  20668652.055    20668652.125       71155.53009     47280.35201       470.375  
  24690526.953    24690533.352     -412150.93609   -219220.43809     -2106.891  
  24606202.547    24606208.734      557429.55009    301753.35409      3042.844  
  22427947.602    22427950.063      421246.98101    261775.52209      2329.016  
  23247973.156    23247976.730     -662506.96409   -430337.65109     -3311.422  
 98 11 22 11 18 25.0000000  0  8G02G27G10G13G17G18G19G26
  22723754.055    22723758.273     -562758.18809   -354131.07009     -2843.984  
  20536705.609    20536708.551      -11078.61601     -4744.75201        35.594  
  20807248.984    20807251.973       57828.90409     39280.59309       411.000  
  20669101.953    20669102.070       73519.65605     49122.52701       475.594  
  24688523.891    24688530.938     -422670.69709   -227417.66209     -2100.688  
  24609100.313    24609102.691      572652.32509    313615.30609      3046.609  
  22430165.602    22430167.570      432902.74201    270857.94409      2333.625  
  23244824.477    23244827.828     -679054.99809   -443232.21209     -3307.484  
 98 11 22 11 18 30.0000000  0  8G02G27G10G13G17G18G19G26
  22721050.523    22721054.742     -576964.90209   -365201.23509     -2838.250  
  20536742.078    20536744.832      -10886.54604     -4595.09904        41.688  
  20807642.672    20807645.098       59900.42509     40894.76809       418.078  
  20669556.797    20669556.879       75910.96604     50985.88704       481.375  
  24686527.875    24686535.672     -433158.17409   -235589.73109     -2093.859  
  24612000.727    24612004.594      587895.12209    325492.78809      3050.984  
  22432388.109    22432389.855      444582.93301    279959.42709      2338.906  
  23241679.148    23241682.992     -695582.21009   -456110.53509     -3302.938  
 98 11 22 11 18 35.0000000  0  8G02G27G10G13G17G18G19G26
  22718352.352    22718356.828     -591144.54209   -376250.29709     -2833.031  
  20536784.195    20536786.785      -10665.48404     -4422.85308        47.313  
  20808043.445    20808046.281       62005.86009     42535.36409       424.672  
  20670017.367    20670017.285       78329.64101     52870.56906       486.656  
  24684537.977    24684546.383     -443613.30309   -243736.59609     -2087.625  
  24614905.047    24614911.117      603158.42009    337386.23509      3054.922  
  22434615.578    22434617.406      456287.82401    289080.15809      2343.641  
  23238538.656    23238542.066     -712088.36409   -468972.46109     -3298.938  
 98 11 22 11 18 40.0000000  0  8G02G27G10G13G17G18G19G26
  22715659.180    22715663.797     -605296.86509   -387278.07909     -2827.984  
  20536831.719    20536834.461      -10414.94401     -4227.62907        52.813  
  20808451.016    20808453.875       64145.49909     44202.61609       431.094  
  20670482.758    20670482.781       80775.96801     54776.79607       491.781  
  24682556.211    24682563.996     -454035.82909   -251858.03509     -2081.469  
  24617813.117    24617819.598      618442.61809    349295.96609      3058.641  
  22436847.625    22436850.027      468017.37101    298220.06509      2348.141  
  23235402.141    23235404.883     -728573.21509   -481817.79209     -3295.078  
 98 11 22 11 18 45.0000000  0  8G02G27G10G13G17G18G19G26
  22712971.078    22712975.613     -619422.75809   -398285.26709     -2822.000  
  20536885.125    20536887.785      -10135.67001     -4010.00804        59.266  
  20808864.250    20808867.273       66318.40809     45895.80109       438.453  
  20670953.523    20670953.641       83249.02301     56703.84607       497.813  
  24680579.180    24680585.883     -464426.60409   -259954.71309     -2074.438  
  24620725.141    24620730.531      633746.77909    361221.25509      3063.313  
  22439084.180    22439086.898      479770.68901    307378.48109      2353.563  
  23232268.578    23232270.852     -745037.75709   -494647.29909     -3290.375  
 98 11 22 11 18 50.0000000  0  8G02G27G10G13G17G18G19G26
  22710288.930    22710293.500     -633516.96409   -409267.76209     -2815.578  
  20536944.570    20536947.277       -9822.54201     -3766.00602        66.094  
  20809284.820    20809288.336       68529.81809     47618.96809       446.203  
  20671430.070    20671430.105       85753.96307     58655.74305       504.234  
  24678608.000    24678615.117     -474780.29309   -268022.53509     -2066.969  
  24623642.039    24623649.215      649076.00209    373166.03109      3068.469  
  22441326.281    22441328.895      491552.87101    316559.38409      2359.406  
  23229139.992    23229142.570     -761476.98809   -507457.08909     -3285.234  
 98 11 22 11 18 55.0000000  0  8G02G27G10G13G17G18G19G26
  22707612.953    22707617.512     -647579.46809   -420225.55209     -2809.500  
  20537010.445    20537013.234       -9475.54701     -3495.61601        72.625  
  20809713.500    20809716.805       70779.56409     49372.01709       453.609  
  20671912.844    20671912.891       88290.64801     60632.37806       510.359  
  24676644.008    24676651.359     -485097.02709   -276061.54209     -2059.797  
  24626563.844    24626569.129      664430.25909    385130.33609      3073.203  
  22443573.883    22443576.508      503363.98201    325762.83909      2364.969  
  23226017.070    23226020.188     -777890.96009   -520247.17909     -3280.422  
 98 11 22 11 19  0.0000000  0  8G02G27G10G13G17G18G19G26
  22704942.727    22704947.273     -661610.86109   -431159.09509     -2803.203  
  20537082.820    20537085.492       -9095.47409     -3199.44501        79.281  
  20810148.461    20810151.672       73066.84209     51154.30509       461.188  
  20672401.383    20672401.477       90858.57403     62633.35403       516.688  
  24674689.164    24674696.785     -495377.42109   -284072.23009     -2052.469  
  24629490.719    24629496.578      679808.97209    397113.76109      3078.203  
  22445826.719    22445829.531      515203.32109    334988.27509      2370.641  
  23222898.203    23222901.473     -794280.20909   -533018.00609     -3275.406  
 98 11 22 11 19  5.0000000  0  8G02G27G10G13G17G18G19G26
  22702279.273    22702283.855     -675609.76809   -442067.32709     -2796.438  
  20537161.609    20537164.328       -8681.04609     -2876.50301        86.391  
  20810591.023    20810594.246       75392.93809     52966.83309       469.156  
  20672896.422    20672896.457       93459.16601     64659.78103       523.484  
  24672737.664    24672744.676     -505620.25209   -292053.65809     -2044.766  
  24632422.492    24632427.238      695213.66709    409117.41209      3083.594  
  22448085.195    22448088.031      527072.03809    344236.61009      2376.781  
  23219784.266    23219787.875     -810643.31109   -545768.47609     -3269.922  
 98 11 22 11 19 10.0000000  0  8G02G27G10G13G17G18G19G26
  22699621.844    22699626.637     -689573.72709   -452948.32709     -2788.641  
  20537247.391    20537250.168       -8229.81009     -2524.89301        94.609  
  20811041.375    20811044.293       77760.22109     54811.46609       478.266  
  20673397.836    20673397.707       96095.03902     66713.70903       531.375  
  24670797.500    24670804.910     -515823.26509   -300004.05909     -2035.938  
  24635358.891    24635362.957      710646.68109    421143.13409      3090.094  
  22450349.945    22450353.016      538972.72009    353509.87909      2384.000  
  23216675.742    23216679.480     -826977.74209   -558496.59409     -3263.344  
 98 11 22 11 19 15.0000000  0  8G02G27G10G13G17G18G19G26
  22696971.992    22696976.809     -703498.78309   -463799.01709     -2781.438  
  20537341.156    20537343.980       -7737.65909     -2141.40601       102.203  
  20811500.680    20811503.633       80172.80709     56691.41309       486.750  
  20673907.141    20673907.070       98770.28801     68798.32203       538.688  
  24668864.984    24668870.645     -525982.33909   -307920.26609     -2027.703  
  24638302.047    24638308.598      726111.93209    433193.94609      3095.953  
  22452621.414    22452624.789      550909.38209    362811.17709      2390.594  
  23213573.461    23213576.930     -843279.46909   -571199.22709     -3257.375  
 98 11 22 11 19 20.0000000  0  8G02G27G10G13G17G18G19G26
  22694328.813    22694333.266     -717387.75409   -474621.58609     -2773.922  
  20537441.813    20537444.625       -7207.38209     -1728.19901       110.125  
  20811968.016    20811971.543       82628.01409     58604.56709       495.578  
  20674423.125    20674423.066      101482.15501     70911.46301       546.297  
  24666939.219    24666947.508     -536100.28509   -315804.36609     -2019.234  
  24641250.297    24641260.613      741606.52909    445267.61309      3102.094  
  22454898.898    22454902.402      562879.14509    372138.25309      2397.531  
  23210476.547    23210480.133     -859551.23509   -583878.52209     -3251.078  
 98 11 22 11 19 25.0000000  0  8G02G27G10G13G17G18G19G26
  22691693.383    22691698.117     -731238.00009   -485413.97509     -2766.031  
  20537550.672    20537553.426       -6636.51609     -1283.36501       118.359  
  20812443.797    20812447.559       85128.43009     60552.94509       504.750  
  20674946.742    20674946.672      104233.11901     73055.06601       554.203  
  24665022.898    24665028.758     -546174.50009   -323654.38509     -2010.344  
  24644204.703    24644213.438      757132.88309    457365.99509      3108.563  
  22457183.664    22457187.660      574884.50909    381493.08409      2404.719  
  23207385.891    23207390.086     -875790.44509   -596532.43009     -3244.453  
 98 11 22 11 19 30.0000000  0  8G02G27G10G13G17G18G19G26
  22689065.477    22689070.258     -745047.52009   -496174.63509     -2757.906  
  20537667.430    20537670.336       -6023.17509      -805.43301       126.828  
  20812928.266    20812932.121       87675.92109     62537.99209       514.109  
  20675477.781    20675477.699      107024.63905     75230.27301       562.266  
  24663113.594    24663119.793     -556203.19409   -331468.96709     -2001.266  
  24647165.547    24647175.781      772692.67909    469490.49209      3115.203  
  22459474.961    22459479.309      586926.92709    390876.78709      2412.094  
  23204302.109    23204307.969     -891995.42609   -609159.69809     -3237.656  
 98 11 22 11 19 35.0000000  0  8G02G27G10G13G17G18G19G26
  22686445.477    22686450.234     -758816.04109   -506903.34309     -2749.750  
  20537792.102    20537795.102       -5367.28509      -294.35401       135.250  
  20813422.016    20813425.027       90270.33509     64559.61109       523.391  
  20676016.664    20676016.465      109856.78602     77437.14001       570.344  
  24661214.164    24661220.281     -566186.23709   -339247.98209     -1992.219  
  24650133.281    24650138.285      788286.04209    481641.14609      3121.859  
  22461773.250    22461777.844      599006.56209    400289.48809      2419.516  
  23201224.219    23201230.676     -908166.13709   -621760.23809     -3230.875  
 98 11 22 11 19 40.0000000  0  8G02G27G10G13G17G18G19G26
  22683833.484    22683837.984     -772542.41509   -517599.20709     -2741.266  
  20537925.164    20537928.082       -4667.80609       250.69901       144.063  
  20813924.930    20813927.789       92912.64409     66618.54009       533.047  
  20676563.688    20676563.383      112730.70201     79676.54001       578.766  
  24659323.602    24659329.977     -576122.56709   -346990.56009     -1982.781  
  24653107.422    24653117.609      803914.16209    493818.88409      3128.891  
  22464079.117    22464084.250      611124.65709    409732.15209      2427.250  
  23198153.383    23198160.121     -924301.53309   -634333.27409     -3223.781  
 98 11 22 11 19 45.0000000  0  8G02G27G10G13G17G18G19G26
  22681229.320    22681233.867     -786226.74509   -528262.31009     -2732.453  
  20538066.664    20538069.676       -3924.73609       829.71901       153.188  
  20814436.922    20814439.758       95602.85309     68714.80309       543.063  
  20677118.445    20677117.895      115646.18701     81948.34401       587.484  
  24657442.141    24657448.492     -586012.07809   -354696.65309     -1973.000  
  24656087.359    24656100.770      819576.76409    506023.48609      3136.203  
  22466392.953    22466398.238      623281.14009    419204.74009      2435.359  
  23195089.883    23195096.656     -940401.79409   -646878.94309     -3216.281  
 98 11 22 11 19 50.0000000  0  8G02G27G10G13G17G18G19G26
  22678633.469    22678638.121     -799868.41909   -538892.17809     -2724.359  
  20538216.656    20538219.621       -3137.46009      1443.17801       161.563  
  20814958.023    20814961.059       98341.90709     70849.13909       552.391  
  20677681.250    20677680.816      118603.97003     84253.11801       595.469  
  24655569.859    24655576.516     -595853.99109   -362365.66809     -1963.922  
  24659074.852    24659085.051      835274.73209    518255.69409      3142.813  
  22468713.328    22468718.461      635476.74809    428707.81009      2442.688  
  23192033.063    23192038.828     -956466.09309   -659396.55809     -3209.563  
 98 11 22 11 19 55.0000000  0  8G02G27G10G13G17G18G19G26
  22676045.484    22676050.113     -813467.69509   -549489.00409     -2715.578  
  20538374.813    20538377.684       -2306.39609      2090.76101       170.656  
  20815489.063    20815492.039      101129.42009     73021.22309       562.406  
  20678252.180    20678251.863      121603.63401     86590.52201       604.172  
  24653704.789    24653712.223     -605648.71209   -369997.94309     -1954.172  
  24662069.094    24662072.434      851007.59209    530514.97609      3150.125  
  22471041.586    22471046.883      647710.83909    438240.86209      2450.719  
  23188982.945    23188988.184     -972494.75509   -671886.43709     -3202.109  
 98 11 22 11 20  0.0000000  0  8G02G27G10G13G17G18G19G26
  22673465.930    22673470.547     -827023.10309   -560051.65509     -2706.609  
  20538541.578    20538544.473       -1429.92909      2773.71801       179.953  
  20816028.266    20816031.957      103966.98209     75232.31309       572.609  
  20678831.016    20678830.652      124646.75109     88961.78601       613.063  
  24651850.781    24651857.238     -615394.43509   -377591.97809     -1944.141  
  24665069.672    24665075.637      866776.95909    542802.82507      3157.609  
  22473377.102    22473382.234      659984.72809    447804.93409      2458.828  
  23185939.438    23185946.035     -988486.13209   -684347.22809     -3194.469  
 98 11 22 11 20  5.0000000  0  8G02G27G10G13G17G18G19G26
  22670895.000    22670899.477     -840534.16909   -570579.74709     -2697.672  
  20538717.102    20538719.902        -507.26309      3492.68001       189.266  
  20816578.328    20816581.563      106855.29509     77482.95409       582.859  
  20679418.594    20679418.348      127733.87709     91367.33601       621.938  
  24650004.352    24650009.742     -625090.41509   -385147.30709     -1934.125  
  24668078.023    24668086.969      882583.74409    555119.79909      3165.219  
  22475720.305    22475725.930      672298.94409    457400.42909      2467.000  
  23182904.227    23182909.805    -1004439.38509   -696778.32309     -3186.703  
 98 11 22 11 20 10.0000000  0  8G02G27G10G13G17G18G19G26
  22668332.453    22668336.871     -854000.83909   -581073.24909     -2689.031  
  20538901.383    20538904.102         461.79009      4247.79009       198.313  
  20817137.844    20817140.668      109794.71609     79773.41409       592.859  
  20680014.594    20680014.266      130865.48309     93807.54501       630.672  
  24648170.258    24648177.809     -634736.45909   -392663.70109     -1924.328  
  24671092.758    24671098.465      898428.20909    567466.12809      3172.516  
  22478071.227    22478076.945      684653.85209    467027.64009      2474.922  
  23179875.922    23179882.660    -1020354.38909   -709179.59609     -3179.359  
 98 11 22 11 20 15.0000000  0  8G02G27G10G13G17G18G19G26
  22665777.977    22665782.184     -867424.47109   -591533.21109     -2680.750  
  20539094.539    20539097.211        1475.89109      5038.00809       207.016  
  20817705.813    20817709.129      112784.06409     82102.77109       602.516  
  20680618.844    20680618.680      134040.74007     96281.75901       639.141  
  24646344.297    24646350.109     -644333.69409   -400142.02409     -1914.891  
  24674113.625    24674121.680      914308.92809    579840.69009      3179.469  
  22480430.063    22480435.980      697048.28109    476685.63709      2482.547  
  23176854.531    23176860.215    -1036232.24909   -721551.95209     -3172.188  
 98 11 22 11 20 20.0000000  0  8G02G27G10G13G17G18G19G26
  22663231.875    22663235.848     -880805.68909   -601960.12209     -2672.094  
  20539295.789    20539298.227        2534.79809      5863.14009       216.203  
  20818285.375    20818288.445      115822.79509     84470.60809       612.625  
  20681231.344    20681231.074      137259.49909     98789.87001       648.031  
  24644526.836    24644532.543     -653882.51109   -407582.66809     -1904.969  
  24677142.727    24677150.969      930225.45209    592243.08009      3186.844  
  22482795.891    22482801.738      709481.92609    486374.19309      2490.578  
  23173840.523    23173846.488    -1052073.28409   -733895.60209     -3164.563  
 98 11 22 11 20 25.0000000  0  8G02G27G10G13G17G18G19G26
  22660693.242    22660696.992     -894145.40109   -612354.68809     -2663.469  
  20539505.922    20539508.301        3637.66309      6722.51009       225.266  
  20818872.352    20818875.281      118910.04409     86876.26309       622.609  
  20681851.727    20681851.398      140520.82509    101331.16101       656.813  
  24642718.680    24642725.078     -663383.72309   -414986.17509     -1895.172  
  24680178.461    24680185.449      946176.81509    604672.68909      3194.063  
  22485168.719    22485174.602      721953.81009    496092.54309      2498.516  
  23170833.164    23170839.258    -1067878.02209   -746210.97909     -3157.016  
 98 11 22 11 20 30.0000000  0  8G02G27G10G13G17G18G19G26
  22658162.711    22658166.391     -907442.59909   -622716.12509     -2655.781  
  20539724.148    20539726.563        4785.32701      7616.78901       233.469  
  20819469.070    20819471.953      122046.76809     89320.46009       631.734  
  20682480.609    20682480.270      143825.54809    103906.26901       664.703  
  24640920.195    24640925.223     -672836.37609   -422351.86409     -1886.250  
  24683220.898    24683225.785      962164.14909    617130.40507      3200.500  
  22487549.445    22487555.305      734464.88909    505841.43509      2505.563  
  23167833.016    23167839.766    -1083645.48809   -758497.33109     -3150.344  
 98 11 22 11 20 35.0000000  0  8G02G27G10G13G17G18G19G26
  22655639.641    22655643.461     -920699.89809   -633046.47309     -2647.453  
  20539950.938    20539953.480        5975.63809      8544.30201       242.344  
  20820074.656    20820077.598      125230.57309     91801.35009       641.484  
  20683117.352    20683117.129      147171.09009    106513.18501       673.203  
  24639130.391    24639136.168     -682242.82709   -429681.59709     -1876.656  
  24686269.391    24686273.832      978185.02609    629614.15505      3207.531  
  22489937.352    22489943.246      747012.61409    515618.89409      2513.203  
  23164838.641    23164844.289    -1099378.21309   -770756.60209     -3143.094  
 98 11 22 11 20 40.0000000  0  8G02G27G10G13G17G18G19G26
  22653124.688    22653128.473     -933917.85709   -643346.16809     -2639.531  
  20540184.961    20540187.480        7208.12909      9504.68601       250.828  
  20820689.516    20820693.043      128460.92609     94318.49709       650.828  
  20683761.617    20683761.582      150556.92509    109151.50101       681.313  
  24637348.336    24637353.352     -691603.44409   -436975.59409     -1867.406  
  24689323.961    24689331.559      994238.69509    642123.54609      3214.094  
  22492332.031    22492337.867      759596.38909    525424.42709      2520.469  
  23161852.141    23161857.063    -1115076.91209   -782989.34009     -3136.219  
 98 11 22 11 20 45.0000000  0  8G02G27G10G13G17G18G19G26
  22650616.961    22650620.852     -947096.58909   -653615.30109     -2632.297  
  20540427.930    20540430.449        8482.66201     10497.83709       258.656  
  20821313.453    20821317.473      131737.61909     96871.77909       659.500  
  20684413.531    20684413.754      153982.78207    111820.99201       688.719  
  24635575.523    24635579.520     -700918.34409   -444233.91209     -1858.844  
  24692386.438    24692394.105     1010324.77809    654658.13609      3219.984  
  22494733.711    22494739.570      772215.70109    535257.65909      2526.922  
  23158871.719    23158876.793    -1130741.97709   -795195.88609     -3130.109  
 98 11 22 11 20 50.0000000  0  8G02G27G10G13G17G18G19G26
  22648116.320    22648120.059     -960238.10009   -663855.42709     -2624.297  
  20540677.953    20540680.566        9797.49101     11522.39109       267.313  
  20821945.477    20821949.238      135058.73309     99459.66709       668.969  
  20685072.602    20685072.871      157446.68601    114520.12209       696.875  
  24633812.078    24633817.223     -710189.26309   -451457.98109     -1849.453  
  24695452.477    24695457.539     1026441.28809    667216.52709      3226.625  
  22497141.438    22497146.887      784868.39209    545116.91309      2534.141  
  23155896.375    23155901.109    -1146375.12209   -807377.55009     -3123.141  
 98 11 22 11 20 55.0000000  0  8G02G27G10G13G17G18G19G26
  22645622.336    22645626.039     -973342.07809   -674066.30609     -2617.438  
  20540936.047    20540938.625       11153.02001     12578.64901       274.766  
  20822585.484    20822588.742      138424.80009    102082.57709       677.297  
  20685739.141    20685739.387      160949.08201    117249.26009       703.953  
  24632056.367    24632059.930     -719415.64409   -458647.35509     -1841.219  
  24698524.844    24698531.820     1042588.61809    679798.83009      3232.141  
  22499555.484    22499560.734      797554.60409    555002.28709      2540.203  
  23152927.609    23152932.016    -1161976.05909   -819534.11009     -3117.375  
 98 11 22 11 21  0.0000000  0  8G02G27G10G13G17G18G19G26
  22643135.609    22643139.090     -986411.81309   -684250.50309     -2610.531  
  20541200.883    20541203.520       12545.80801     13663.93201       282.281  
  20823234.508    20823238.539      141832.45009    104737.87909       685.719  
  20686412.234    20686412.398      164486.84901    120005.96209       711.063  
  24630308.031    24630311.395     -728600.84109   -465804.66609     -1832.953  
  24701603.258    24701610.445     1058763.39909    692402.42105      3237.672  
  22501975.117    22501980.707      810271.03609    564911.19409      2546.313  
  23149964.445    23149968.781    -1177547.97509   -831668.06409     -3111.484  
 98 11 22 11 21  5.0000000  0  8G02G27G10G13G17G18G19G26
  22640654.742    22640658.504     -999448.69009   -694409.09109     -2604.203  
  20541472.742    20541475.461       13974.36301     14777.09401       289.156  
  20823890.570    20823894.402      145280.48009    107424.65609       693.500  
  20687091.891    20687092.125      168058.55301    122789.10809       717.609  
  24628566.883    24628572.895     -737746.38309   -472931.03409     -1825.266  
  24704685.586    24704693.359     1074964.24609    705026.42607      3242.656  
  22504400.398    22504406.012      823016.35409    574842.60309      2551.813  
  23147006.633    23147010.500    -1193092.19309   -843780.40409     -3106.188  
 98 11 22 11 21 10.0000000  0  8G02G27G10G13G17G18G19G26
  22638179.984    22638183.910    -1012452.91209   -704542.24109     -2597.688  
  20541751.406    20541754.055       15438.23001     15917.77501       296.203  
  20824554.609    20824558.289      148768.59009    110142.67009       701.547  
  20687777.898    20687778.238      171663.89101    125598.45809       724.328  
  24626834.305    24626840.035     -746852.60509   -480026.80509     -1817.453  
  24707774.422    24707783.801     1091190.90109    717670.52109      3247.875  
  22506831.656    22506837.340      835790.20609    584796.23809      2557.516  
  23144054.328    23144057.680    -1208608.87209   -855871.30809     -3100.672  
 98 11 22 11 21 15.0000000  0  8G02G27G10G13G17G18G19G26
  22635711.172    22635714.793    -1025425.91109   -714651.05609     -2591.406  
  20542036.398    20542039.012       16936.16201     17084.99301       303.063  
  20825225.227    20825228.590      152295.47809    112890.88209       709.328  
  20688470.336    20688470.758      175301.54901    128432.99709       730.859  
  24625108.750    24625110.555     -755921.11509   -487093.18409     -1809.844  
  24710867.148    24710875.133     1107442.02509    730333.78609      3252.750  
  22509267.734    22509273.031      848591.32909    594771.14709      2563.031  
  23141106.188    23141109.035    -1224099.18809   -867941.66109     -3095.359  
 98 11 22 11 21 20.0000000  0  8G02G27G10G13G17G18G19G26
  22633248.602    22633252.316    -1038366.99809   -724734.99909     -2585.250  
  20542328.211    20542330.766       18468.86607     18279.30501       309.781  
  20825903.922    20825906.945      155862.01109    115670.00709       717.078  
  20689168.711    20689169.168      178972.29901    131293.31809       737.234  
  24623390.922    24623393.945     -764951.10209   -494129.51409     -1802.359  
  24713964.539    24713967.996     1123718.31409    743016.63809      3257.563  
  22511709.211    22511714.414      861420.43909    604767.86209      2568.391  
  23138163.977    23138166.801    -1239562.41709   -879990.91409     -3090.172  
 98 11 22 11 21 25.0000000  0  8G02G27G10G13G17G18G19G26
  22630792.156    22630795.977    -1051276.07409   -734794.00809     -2578.641  
  20542626.305    20542628.754       20036.40909     19500.76501       316.953  
  20826590.164    20826593.164      159468.46209    118480.22609       725.234  
  20689873.680    20689874.230      182676.28601    134179.53209       744.078  
  24621679.922    24621685.453     -773942.46509   -501135.73709     -1794.453  
  24717065.805    24717070.152     1140019.94409    755719.19309      3262.828  
  22514155.688    22514160.820      874277.77509    614786.57309      2574.266  
  23135226.820    23135230.148    -1254998.52509   -892019.00909     -3084.563  
 98 11 22 11 21 30.0000000  0  8G02G27G10G13G17G18G19G26
  22628340.922    22628344.906    -1064156.47709   -744830.66909     -2573.156  
  20542930.570    20542933.043       21635.37804     20746.71701       322.984  
  20827283.586    20827286.844      163111.52109    121318.96909       732.328  
  20690583.945    20690584.473      186410.08001    137088.98109       749.781  
  24619974.891    24619978.219     -782898.58409   -508114.55309     -1787.641  
  24720172.883    24720179.609     1156343.59909    768438.83507      3266.984  
  22516607.039    22516611.961      887160.13109    624824.77409      2579.031  
  23132293.500    23132295.762    -1270411.01509   -904028.73609     -3080.063  
 98 11 22 11 21 35.0000000  0  8G02G27G10G13G17G18G19G26
  22625895.297    22625899.387    -1077008.23409   -754845.01209     -2567.594  
  20543240.992    20543243.512       23265.75204     22017.14101       329.109  
  20827983.188    20827986.070      166791.17109    124186.23109       739.469  
  20691300.375    20691300.809      190173.51701    140021.52809       755.547  
  24618277.469    24618278.910     -791819.44409   -515065.87009     -1780.734  
  24723283.500    24723288.422     1172689.26609    781175.72409      3271.219  
  22519063.398    22519067.875      900067.24809    634882.26409      2583.766  
  23129364.789    23129367.590    -1285799.82209   -916020.02309     -3075.500  
 98 11 22 11 21 40.0000000  0  8G02G27G10G13G17G18G19G26
  22623454.828    22623458.813    -1089832.85209   -764838.20509     -2562.641  
  20543557.094    20543559.578       24926.05808     23310.89001       334.609  
  20828690.758    20828694.180      170505.64509    127080.62209       745.922  
  20692021.523    20692022.180      193965.16601    142976.05709       760.719  
  24616587.313    24616594.840     -800706.45209   -521990.84109     -1774.453  
  24726397.156    24726405.223     1189055.42809    793928.57409      3274.844  
  22521524.297    22521528.504      912997.55709    644957.83009      2587.969  
  23126440.992    23126442.867    -1301166.50009   -927994.04509     -3071.531  
 98 11 22 11 21 45.0000000  0  8G02G27G10G13G17G18G19G26
  22621019.102    22621023.098    -1102632.74309   -774812.13209     -2557.500  
  20543878.063    20543880.441       26613.92409     24626.11101       340.344  
  20829403.266    20829406.043      174252.34609    130000.14409       752.594  
  20692748.078    20692748.582      197782.65509    145950.72809       766.094  
  24614901.234    24614903.906     -809562.00909   -528891.22609     -1767.953  
  24729515.344    24729520.301     1205439.70609    806695.55109      3278.656  
  22523988.883    22523993.125      925948.72009    655049.63709      2592.313  
  23123520.094    23123521.758    -1316513.42309   -939952.65909     -3067.375  
 98 11 22 11 21 50.0000000  0  8G02G27G10G13G17G18G19G26
  22618588.242    22618592.180    -1115407.20909   -784766.24509     -2552.359  
  20544204.641    20544207.055       28330.10009     25963.38301       346.047  
  20830122.602    20830125.250      178032.17709    132945.45109       759.313  
  20693479.789    20693480.504      201627.08309    148946.38709       771.625  
  24613223.242    24613229.758     -818385.32509   -535766.52607     -1761.422  
  24732637.227    24732644.320     1221842.87609    819477.12609      3282.531  
  22526457.070    22526461.324      938921.52409    665158.31509      2596.766  
  23120604.211    23120605.652    -1331839.65509   -951895.13909     -3063.172  
 98 11 22 11 21 55.0000000  0  8G02G27G10G13G17G18G19G26
  22616161.313    22616165.180    -1128159.24209   -794702.88309     -2548.031  
  20544535.883    20544538.168       30071.48909     27320.30501       350.922  
  20830847.461    20830851.152      181842.33409    135914.41309       765.188  
  20694215.883    20694216.703      205495.93501    151961.07409       776.328  
  24611548.938    24611553.707     -827179.40109   -542618.96209     -1755.750  
  24735761.461    24735765.586     1238262.06909    832271.27509      3285.563  
  22528929.664    22528933.824      951913.56309    675281.98309      2600.469  
  23117690.430    23117692.316    -1347148.01909   -963823.70909     -3059.750  
 98 11 22 11 22  0.0000000  0  8G02G27G10G13G17G18G19G26
  22613738.883    22613743.008    -1140890.02509   -804622.95709     -2543.797  
  20544872.234    20544874.566       31836.97501     28696.00102       355.734  
  20831578.273    20831581.941      185681.82809    138906.21509       771.078  
  20694956.406    20694957.027      209388.17201    154993.99301       781.031  
  24609880.883    24609884.984     -835945.47509   -549449.66909     -1750.156  
  24738888.125    24738893.820     1254696.03609    845077.00907      3288.484  
  22531405.320    22531409.469      964923.70809    685419.75109      2604.078  
  23114781.055    23114783.270    -1362439.56909   -975739.17909     -3056.391  
 98 11 22 11 22  5.0000000  0  8G02G27G10G13G17G18G19G26
  22611320.297    22611324.340    -1153598.43009   -814525.59609     -2539.422  
  20545212.977    20545215.215       33627.64201     30091.32404       360.719  
  20832314.711    20832317.852      189551.87609    141921.83309       777.109  
  20695701.805    20695702.590      213304.95801    158046.04209       785.875  
  24608218.727    24608224.492     -844682.16209   -556257.42809     -1744.328  
  24742019.820    24742029.480     1271145.91109    857895.13909      3291.625  
  22533885.078    22533888.910      977953.30209    695572.68209      2607.938  
  23111874.469    23111877.023    -1377712.87309   -987640.44909     -3052.734  
 98 11 22 11 22 10.0000000  0  8G02G27G10G13G17G18G19G26
  22608906.125    22608910.414    -1166284.66209   -824410.95609     -2535.438  
  20545558.359    20545560.621       35443.34001     31506.15405       365.219  
  20833056.516    20833060.148      193452.05309    144960.92109       782.594  
  20696451.680    20696452.570      217246.15201    161117.10309       790.250  
  24606559.703    24606565.176     -853389.68709   -563042.50009     -1739.000  
  24745153.023    24745158.402     1287611.60709    870725.50509      3294.281  
  22536368.086    22536371.871      991002.14509    705740.61209      2611.266  
  23108970.930    23108973.871    -1392967.91609   -999527.47509     -3049.625  
 98 11 22 11 22 15.0000000  0  8G02G27G10G13G17G18G19G26
  22606495.875    22606500.047    -1178951.28109   -834281.02909     -2531.313  
  20545908.164    20545910.379       37281.48501     32938.47804       369.953  
  20833804.188    20833806.766      197379.49309    148021.26409       788.297  
  20697205.859    20697206.855      221209.23009    164205.21201       794.891  
  24604908.086    24604914.086     -862070.68209   -569806.93209     -1733.453  
  24748288.852    24748292.953     1304090.47509    883566.16809      3297.266  
  22538854.352    22538858.160     1004067.51509    715921.42409      2614.781  
  23106071.539    23106074.844    -1408207.33609  -1011402.33309     -3046.266  
 98 11 22 11 22 20.0000000  0  8G02G27G10G13G17G18G19G26
  22604089.430    22604093.262    -1191597.50709   -844135.21109     -2527.297  
  20546262.500    20546264.797       39143.07401     34389.06905       374.547  
  20834557.219    20834560.465      201335.13009    151103.59009       793.844  
  20697964.445    20697965.383      225195.28401    167311.22701       799.422  
  24603262.211    24603267.449     -870724.07209   -576549.88109     -1728.031  
  24751427.164    24751432.684     1320583.51409    896417.81809      3299.906  
  22541343.688    22541347.824     1017150.39009    726115.87009      2618.234  
  23103174.664    23103177.430    -1423430.14209  -1023264.22709     -3042.984  
 98 11 22 11 22 25.0000000  0  8G02G27G10G13G17G18G19G26
  22601686.727    22601691.074    -1204222.80509   -853973.09609     -2523.297  
  20546621.195    20546623.387       41028.31401     35858.09005       379.047  
  20835315.289    20835318.500      205319.08809    154207.96709       799.266  
  20698727.414    20698728.398      229204.63801    170435.39601       803.828  
  24601620.422    24601625.426     -879349.68709   -583271.13909     -1722.719  
  24754568.242    24754575.125     1337090.99909    909280.80909      3302.594  
  22543836.930    22543840.961     1030251.28809    736324.35809      2621.625  
  23100280.898    23100283.430    -1438635.98809  -1035112.91109     -3039.844  
 98 11 22 11 22 30.0000000  0  8G02G27G10G13G17G18G19G26
  22599287.922    22599292.305    -1216828.79509   -863795.93409     -2518.984  
  20546984.008    20546986.223       42935.42104     37344.14606       383.891  
  20836078.523    20836083.609      209329.54709    157333.00909       805.000  
  20699494.484    20699495.598      233235.59109    173576.40101       808.625  
  24599984.539    24599990.621     -887949.30609   -589972.10809     -1717.031  
  24757712.250    24757718.297     1353611.25209    922153.73009      3305.609  
  22546333.133    22546337.246     1043368.49709    746545.55409      2625.328  
  23097390.344    23097393.250    -1453826.60509  -1046949.73009     -3036.313  
 98 11 22 11 22 35.0000000  0  8G02G27G10G13G17G18G19G26
  22596892.758    22596897.223    -1229415.05609   -873603.38309     -2515.250  
  20547351.336    20547353.527       44864.82808     38847.57509       388.156  
  20836846.633    20836852.480      213366.67309    160478.81809       810.094  
  20700265.703    20700266.863      237288.27801    176734.34501       812.719  
  24598353.500    24598359.465     -896522.59609   -596652.55009     -1712.000  
  24760858.297    24760863.746     1370144.70309    935036.92709      3308.047  
  22548832.367    22548836.293     1056502.17509    756779.58909      2628.406  
  23094502.305    23094504.930    -1469001.52409  -1058774.30709     -3033.375  
 98 11 22 11 22 40.0000000  0  8G02G27G10G13G17G18G19G26
  22594501.563    22594506.320    -1241980.34309   -883394.49809     -2511.188  
  20547723.039    20547725.266       46817.83309     40369.39609       392.703  
  20837620.008    20837624.930      217431.52909    163646.20309       815.500  
  20701041.117    20701042.242      241363.50301    179909.84501       817.031  
  24596726.258    24596730.418     -905068.47209   -603311.67009     -1706.672  
  24764007.766    24764013.191     1386692.57509    947931.28709      3310.766  
  22551334.852    22551338.953     1069653.33509    767027.24609      2631.734  
  23091617.523    23091620.078    -1484159.66709  -1070585.83709     -3030.219  
 98 11 22 11 22 45.0000000  0  8G02G27G10G13G17G18G19G26
  22592113.586    22592118.086    -1254528.35509   -893172.15609     -2508.016  
  20548098.422    20548100.695       48790.27109     41906.35909       396.297  
  20838398.461    20838407.723      221520.18709    166832.21809       819.984  
  20701820.141    20701821.324      245457.18001    183099.72801       820.484  
  24595105.133    24595109.809     -913590.95109   -609952.58909     -1702.266  
  24767158.938    24767164.961     1403250.84309    960833.80009      3312.563  
  22553839.727    22553843.910     1082818.02709    777285.44609      2634.172  
  23088735.461    23088737.770    -1499305.12909  -1082387.48009     -3027.969  
 98 11 22 11 22 50.0000000  0  8G02G27G10G13G17G18G19G26
  22589728.594    22589733.504    -1267061.95309   -902938.57409     -2504.750  
  20548476.734    20548478.902       50779.26809     43456.22409       400.000  
  20839180.914                      225629.84009         0.00000       824.547  
  20702602.172    20702603.309      249566.80301    186302.02601       824.063  
  24593486.289    24593494.309     -922092.83809   -616577.43309     -1697.766  
  24770311.438    24770318.281     1419816.52909    973742.12309      3314.375  
  22556347.070    22556351.301     1095993.48209    787552.02809      2636.688  
  23085854.953    23085857.109    -1514440.98609  -1094181.62009     -3025.672  
 98 11 22 11 22 55.0000000  0  8G02G27G10G13G17G18G19G26
  22587346.688    22587351.305    -1279577.98009   -912691.30409     -2501.672  
  20548859.063    20548861.172       52787.95109     45021.43409       403.469  
  20839966.664                      229763.60409         0.00000       828.938  
  20703388.000    20703389.313      253695.60301    189519.27701       827.438  
  24591874.430    24591884.840     -930571.00209   -623183.78109     -1693.484  
  24773465.477    24773473.273     1436392.46209    986658.43309      3315.969  
  22558857.016    22558861.258     1109182.63609    797829.29509      2638.984  
  23082977.625    23082981.691    -1529564.16509  -1105965.90009     -3023.609  
 98 11 22 11 23  0.0000000  0  8G02G27G10G13G17G18G19G26
  22584968.063    22584972.750    -1292078.96509   -922432.31909     -2498.438  
  20549244.563    20549246.707       54813.54209     46599.82009       407.063  
  20840757.609                      233918.84409         0.00000       833.453  
  20704176.789    20704178.160      257841.05701    192749.49701       831.016  
  24590264.680    24590272.547     -939028.00909   -629773.66609     -1689.031  
  24776621.063    24776629.434     1452975.95209    999580.61509      3317.719  
  22561369.070    22561373.148     1122382.96509    808115.26209      2641.438  
  23080101.102    23080103.891    -1544677.28309  -1117742.32909     -3021.359  
 98 11 22 11 23  5.0000000  0  8G02G27G10G13G17G18G19G26
  22582592.398    22582597.180    -1304563.21609   -932160.29009     -2495.531  
  20549633.539    20549635.543       56857.77609     48192.72809       410.359  
  20841552.414                      238097.19909         0.00000       837.625  
  20704969.039    20704970.352      262004.94901    195994.08801       834.281  
  24588659.578    24588668.465     -947462.10509   -636345.62007     -1684.891  
  24779779.328    24779786.469     1469568.88609   1012510.16409      3319.203  
  22563883.555    22563887.539     1135596.30709    818411.36409      2643.641  
  23077227.391    23077231.434    -1559778.46209  -1129509.45909     -3019.375  
 98 11 22 11 23 10.0000000  0  8G02G27G10G13G17G18G19G26
  22580219.500    22580224.305    -1317033.59609   -941877.44609     -2492.563  
  20550025.648    20550027.723       58917.76709     49797.91609       413.688  
  20842351.688                      242295.83709         0.00000       841.859  
  20705764.586    20705765.922      266184.43501    199250.82801       837.578  
  24587058.117    24587064.762     -955876.18009   -642902.09209     -1680.688  
  24782937.781    24782945.566     1486168.57009   1025444.97509      3320.734  
  22566399.867    22566403.559     1148820.13809    828715.64909      2645.938  
  23074355.570    23074359.109    -1574870.53509  -1141269.50709     -3017.391  
 98 11 22 11 23 15.0000000  0  8G02G27G10G13G17G18G19G26
  22577849.461    22577853.949    -1329488.69109   -951582.69509     -2489.656  
  20550420.875    20550422.996       60994.66408     51416.28309       416.891  
  20843154.422                      246516.08909         0.00000       846.031  
  20706562.906    20706564.090      270380.96801    202520.85301       840.844  
  24585460.258    24585467.410     -964269.00509   -649442.03209     -1676.594  
  24786097.406    24786105.543     1502776.43009   1038386.18809      3322.219  
  22568918.578    22568922.234     1162056.06709    839029.36209      2648.250  
  23071485.594    23071488.559    -1589952.21209  -1153021.43109     -3015.484  
 98 11 22 11 23 20.0000000  0  8G02G27G10G13G17G18G19G26
  22575481.984    22575486.883    -1341927.89209   -961275.55909     -2486.406  
  20550819.289    20550821.305       63088.99209     53048.23509       420.438  
  20843962.172                      250758.40809         0.00000       850.500  
  20707365.234    20707366.348      274595.11001    205804.60201       844.438  
  24583867.867    24583876.777     -972640.13809   -655964.99309     -1672.203  
  24789259.250    24789267.094     1519393.03709   1051334.11909      3324.031  
  22571439.789    22571443.551     1175304.91509    849353.14609      2650.906  
  23068617.742    23068621.199    -1605023.11109  -1164764.97309     -3013.266  
 98 11 22 11 23 25.0000000  0  8G02G27G10G13G17G18G19G26
  22573117.586    22573122.320    -1354352.94809   -970957.40309     -2483.563  
  20551220.695    20551222.770       65198.88309     54692.30609       423.563  
  20844773.227    20844780.426      255020.86809      1993.64919       854.500  
  20708169.820    20708170.875      278824.97505    209100.60203       847.563  
  24582278.953    24582286.621     -980991.22909   -662472.29109     -1668.172  
  24792423.664    24792430.992     1536016.59109   1064287.51409      3325.422  
  22573963.102    22573966.875     1188564.82309    859685.54209      2653.109  
  23065751.203    23065755.352    -1620085.16009  -1176501.62809     -3011.500  
 98 11 22 11 23 30.0000000  0  8G02G27G10G13G17G18G19G26
  22570756.563    22570760.934    -1366762.05509   -980626.82009     -2480.156  
  20551625.602    20551627.605       67326.07109     56349.85209       427.250  
  20845588.586    20845594.246      259305.07509      5331.97409       859.094  
  20708978.227    20708979.352      283072.28207    212410.19406       851.281  
  24580694.070    24580699.215     -989320.52409   -668962.64609     -1663.609  
  24795587.695    24795594.480     1552648.73009   1077247.60509      3327.359  
  22576488.906    22576492.609     1201837.63909    870027.99909      2655.969  
  23062886.484    23062891.289    -1635136.70609  -1188230.07709     -3009.188  
 98 11 22 11 23 35.0000000  0  8G02G27G10G13G17G18G19G26
  22568398.070    22568402.383    -1379155.64809   -990284.14409     -2477.313  
  20552033.719    20552035.793       69470.13109     58020.54609       430.313  
  20846407.547    20846412.270      263610.52909      8686.87609       863.063  
  20709789.688    20709790.883      287336.61109    215733.04908       854.422  
  24579112.742    24579119.613     -997628.47109   -675436.32309     -1659.578  
  24798754.633    24798760.492     1569288.82509   1090213.87709      3328.656  
  22579016.953    22579020.879     1215123.12909    880380.33009      2658.219  
  23060024.883    23060029.137    -1650178.28509  -1199950.76309     -3007.469  
 98 11 22 11 23 40.0000000  0  8G02G27G10G13G17G18G19G26
  22566041.977    22566046.184    -1391535.52809   -999930.78309     -2474.938  
  20552444.516    20552446.590       71628.80309     59702.62609       432.859  
  20847230.813    20847234.949      267935.17509     12056.70309       866.516  
  20710603.945    20710605.094      291615.96309    219067.61109       857.016  
  24577535.484    24577543.059    -1005916.89609   -681894.84109     -1656.063  
  24801923.133    24801928.852     1585935.06409   1103184.97509      3329.531  
  22581547.172    22581550.816     1228419.15609    890740.87009      2659.891  
  23057162.875    23057167.234    -1665211.86209  -1211665.21909     -3006.266  
 98 11 22 11 23 45.0000000  0  8G02G27G10G13G17G18G19G26
  22563689.164    22563693.535    -1403900.68109  -1009565.95109     -2471.156  
  20552858.320    20552860.313       73803.06009     61396.85309       436.813  
  20848057.328    20848061.770      272279.90709     15442.20709       871.344  
  20711421.406    20711422.566      295911.17309    222414.52809       861.016  
  24575962.250    24575970.656    -1014184.78509   -688337.33609     -1651.109  
  24805092.328    24805097.859     1602588.28109   1116161.49109      3331.734  
  22584079.461    22584083.199     1241726.51909    901110.24309      2663.016  
  23054304.688    23054308.813    -1680236.54309  -1223372.74409     -3003.625  
 98 11 22 11 23 50.0000000  0  8G02G27G10G13G17G18G19G26
  22561338.070    22561342.395    -1416252.50709  -1019190.72109     -2469.063  
  20553274.453    20553276.422       75991.48709     63102.11809       439.063  
  20848888.227    20848891.754      276643.16609     18842.16209       874.453  
  20712241.742    20712242.914      300220.76709    225772.65609       863.359  
  24574393.156    24574401.668    -1022433.62609   -694765.02009     -1647.906  
  24808262.344    24808266.961     1619246.91409   1129142.20909      3332.203  
  22586613.578    22586617.375     1255043.75209    911487.30709      2664.391  
  23051446.211    23051450.512    -1695253.59109  -1235074.32509     -3002.672  
 98 11 22 11 23 55.0000000  0  8G02G27G10G13G17G18G19G26
  22558990.344    22558994.879    -1428591.69809  -1028805.65309     -2466.156  
  20553693.617    20553695.516       78193.48609     64817.96209       442.172  
  20849720.828    20849723.453      281024.31309     22256.04609       878.422  
  20713064.414    20713065.668      304544.27809    229141.62609       866.484  
  24572825.625    24572832.141    -1030663.77909   -701178.13009     -1643.750  
  24811432.156    24811437.512     1635910.16109   1142126.52109      3333.531  
  22589149.430    22589153.203     1268370.08109    921871.45809      2666.594  
  23048589.992    23048594.844    -1710263.66009  -1246770.47809     -3000.906  
 98 11 22 11 24  0.0000000  0  8G02G27G10G13G17G18G19G26
  22556644.852    22556649.668    -1440915.86709  -1038408.88009     -2463.484  
  20554115.641    20554117.539       80411.39909     66546.20709       445.000  
  20850558.836    20850562.211      285425.92009     25685.87609       882.219  
  20713890.180    20713891.340      308884.00909    232523.23409       869.391  
  24571263.906    24571270.410    -1038872.78909   -707574.77309     -1639.844  
  24814604.344    24814612.234     1652580.49209   1155116.37609      3334.625  
  22591687.875    22591691.602     1281708.09209    932264.70509      2668.609  
  23045735.508    23045741.508    -1725264.29709  -1258459.27609     -2999.375  
 98 11 22 11 24  5.0000000  0  8G02G27G10G13G17G18G19G26
  22554302.563    22554307.320    -1453226.00509  -1048001.18209     -2460.688  
  20554540.656    20554542.508       82644.04608     68285.93609       447.922  
  20851400.500    20851404.309      289847.05109     29130.88309       886.109  
  20714718.820    20714719.875      313238.67509    235916.47809       872.359  
  24569705.859    24569712.340    -1047061.69309   -713955.74909     -1635.859  
  24817777.109    24817782.430     1669256.84209   1168110.90809      3335.766  
  22594227.672    22594231.246     1295056.73809    942666.25809      2670.750  
  23042882.453    23042888.816    -1740256.68509  -1270141.61809     -2997.703  
 98 11 22 11 24 10.0000000  0  8G02G27G10G13G17G18G19G26
  22551962.656    22551967.285    -1465522.61409  -1057582.93609     -2458.281  
  20554968.117    20554970.121       84890.91407     70036.74609       450.469  
  20852245.398    20852248.246      294287.27109     32590.81209       889.656  
  20715550.211    20715551.102      317607.71809    239320.92609       874.906  
  24568152.258    24568159.164    -1055231.11909   -720321.56309     -1632.250  
  24820951.750    24820956.918     1685938.80509   1181109.81809      3336.641  
  22596769.938    22596773.699     1308415.53709    953075.72309      2672.438  
  23040030.961    23040035.801    -1755241.22709  -1281817.87909     -2996.469  
 98 11 22 11 24 15.0000000  0  8G02G27G10G13G17G18G19G26
  22549625.016    22549629.516    -1477806.77609  -1067154.99009     -2455.781  
  20555398.211    20555400.156       87150.85706     71797.74309       453.094  
  20853093.898    20853097.848      298745.33309     36064.62109       893.141  
  20716384.305    20716385.195      321989.71209    242735.47009       877.469  
  24566600.000    24566606.965    -1063382.32709   -726673.15509     -1628.625  
  24824126.594    24824134.941     1702625.15409   1194112.11609      3337.516  
  22599313.828    22599317.953     1321783.19409    963492.08109      2674.141  
  23037181.422    23037186.637    -1770219.30609  -1293489.09609     -2995.188  
 98 11 22 11 24 20.0000000  0  8G02G27G10G13G17G18G19G26
  22547289.633    22547294.227    -1490078.73009  -1076717.53909     -2452.891  
  20555830.547    20555832.527       89423.53806     73568.66109       456.078  
  20853945.680    20853950.414      303220.70909     39551.91509       897.047  
  20717220.313    20717221.168      326383.94909    246159.54809       880.328  
  24565053.023    24565059.316    -1071515.50009   -733010.65109     -1624.516  
  24827303.289    24827310.805     1719315.64909   1207117.70009      3338.781  
  22601858.813    22601862.762     1335158.78909    973914.61009      2676.188  
  23034331.570    23034336.598    -1785191.45509  -1305155.70609     -2993.563  
 98 11 22 11 24 25.0000000  0  7G02G27G10G13G17G19G26
  22544956.938    22544961.086    -1502337.57309  -1086269.86109     -2450.234  
  20556265.797    20556267.719       91709.89804     75350.23609       458.891  
  20854800.211    20854804.664      307714.26009     43053.37909       900.781  
  20718059.156    20718060.070      330791.13509    249593.72209       882.953  
  24563509.328    24563514.320    -1079629.60709   -739333.33909     -1620.703  
  22604406.070    22604409.891     1348543.19109    984344.00609      2677.969  
  23031483.750    23031489.445    -1800156.83109  -1316817.03709     -2992.219  
 98 11 22 11 24 30.0000000  0  7G02G27G10G13G17G19G26
  22542626.867    22542631.086    -1514582.89309  -1095811.65209     -2448.156  
  20556703.531    20556705.254       94010.44405     77142.86509       461.078  
  20855659.031    20855663.484      312226.42109     46569.35109       903.828  
  20718900.172    20718901.098      335211.67209    253038.30009       885.000  
  24561968.438    24561974.883    -1087724.38009   -745640.94709     -1617.469  
  22606954.594    22606958.426     1361936.65509    994780.47509      2679.141  
  23028637.906    23028644.117    -1815115.38209  -1328473.03009     -2991.484  
 98 11 22 11 24 35.0000000  0  7G02G27G10G13G17G19G26
  22540299.023    22540302.996    -1526815.38409  -1105343.44009     -2444.938  
  20557143.898    20557145.633       96324.28605     78945.85709       464.375  
  20856521.570    20856525.695      316756.66509     50099.40709       908.172  
  20719743.797    20719744.828      339644.86508    256492.73609       888.172  
  24560431.883    24560436.559    -1095800.49309   -751934.01009     -1613.047  
  22609504.883    22609508.457     1375338.38009   1005223.37809      2681.484  
  23025792.148    23025797.762    -1830067.88609  -1340124.34609     -2989.672  
 98 11 22 11 24 40.0000000  0  7G02G27G10G13G17G19G26
  22537974.023    22537977.797    -1539033.19909  -1114863.78609     -2442.141  
  20557587.305    20557589.051       98653.26704     80760.64709       467.266  
  20857387.258    20857391.336      321307.17409     53645.25909       912.063  
  20720590.227    20720591.258      344092.45209    259958.39109       890.906  
  24558899.242    24558905.230    -1103856.10309   -758211.14009     -1609.094  
  22612057.406    22612061.016     1388750.43209   1015674.31809      2683.406  
  23022948.672    23022954.004    -1845012.76609  -1351769.71209     -2988.250  
 98 11 22 11 24 45.0000000  0  7G02G27G10G13G17G19G26
  22535651.758    22535655.473    -1551236.34109  -1124372.71109     -2439.172  
  20558032.977    20558034.734      100997.28305     82587.15309       470.297  
  20858257.063    20858260.730      325877.98909     57206.94509       916.219  
  20721439.242    20721440.285      348554.22208    263435.09609       893.781  
  24557370.734    24557375.457    -1111891.46509   -764472.50109     -1605.063  
  22614611.352    22614614.844     1402172.79009   1026133.29509      2685.500  
  23020106.453    23020111.961    -1859950.07609  -1363409.17509     -2986.734  
 98 11 22 11 24 50.0000000  0  7G02G27G10G13G17G19G26
  22533332.563    22533336.488    -1563425.75309  -1133870.94909     -2436.672  
  20558481.641    20558483.375      103355.48406     84424.71409       472.891  
  20859130.805    20859134.883      330468.39509     60783.87209       919.859  
  20722290.734    20722291.719      353029.39303    266922.24509       896.203  
  24555843.914    24555848.461    -1119907.52409   -770718.75209     -1601.438  
  22617167.477    22617170.664     1415604.46509   1036599.53809      2687.094  
  23017264.813    23017270.941    -1874880.79009  -1375043.48609     -2985.672  
 98 11 22 11 24 55.0000000  0  7G02G27G10G13G17G19G26
  22531015.102    22531019.215    -1575605.03909  -1143361.29209     -2434.688  
  20558932.570    20558934.398      105724.43006     86270.65109       475.031  
  20860007.188    20860010.785      335074.74109     64373.21809       923.031  
  20723144.320    20723145.223      357514.35705    270417.02309       898.141  
  24554322.484    24554328.965    -1127907.85909   -776952.77809     -1598.297  
  22619724.531    22619727.695     1429041.89109   1047070.26709      2688.234  
  23014423.680    23014429.000    -1889808.64809  -1386675.54809     -2985.125  
 98 11 22 11 25  0.0000000  0  7G02G27G10G13G17G19G26
  22528699.742    22528703.738    -1587771.87509  -1152841.92509     -2431.969  
  20559385.828    20559387.586      108106.36504     88126.70709       477.828  
  20860886.672    20860890.199      339699.19909     67976.68909       926.859  
  20723999.828    20724000.672      362011.38206    273921.19809       900.781  
  24552803.758    24552808.668    -1135890.12209   -783172.71809     -1594.484  
  22622282.945    22622286.285     1442487.35209   1057547.25009      2690.047  
  23011584.570    23011589.199    -1904731.48209  -1398303.71509     -2983.922  
 98 11 22 11 25  5.0000000  0  7G02G27G10G13G17G19G26
  22526386.844    22526390.664    -1599926.57209  -1162313.09609     -2429.109  
  20559841.461    20559843.289      110500.96002     89992.62709       480.813  
  20861770.281    20861773.223      344341.56209     71594.12209       930.906  
  20724857.875    20724858.637      366520.40405    277434.72209       903.656  
  24551287.820    24551293.094    -1143854.53709   -789378.76409     -1590.438  
  22624842.758    22624846.414     1455940.59509   1068030.30009      2692.031  
  23008745.820    23008751.047    -1919649.69909  -1409928.28709     -2982.563  
 98 11 22 11 25 10.0000000  0  7G02G27G10G13G17G19G26
  22524076.688    22524080.555    -1612066.18809  -1171772.51009     -2426.797  
  20560300.320    20560302.207      112911.49701     91870.96809       483.344  
  20862657.922    20862661.121      349005.00209     75227.98209       934.453  
  20725718.852    20725719.473      371044.56206    280960.04109       905.953  
  24549775.914    24549782.535    -1151797.89209   -795568.37709     -1586.953  
  22627405.023    22627408.879     1469404.56209   1078521.70509      2693.516  
  23005908.195    23005913.234    -1934560.07009  -1421546.73409     -2981.625  
 98 11 22 11 25 15.0000000  0  7G02G27G10G13G17G19G26
  22521768.891    22521773.039    -1624194.42409  -1181223.07209     -2424.531  
  20560761.297    20560763.266      115334.34101     93758.89708       485.766  
  20863548.203    20863551.836      353685.94109     78875.46609       937.922  
  20726582.000    20726582.691      375579.80904    284493.99809       908.125  
  24548268.531    24548273.711    -1159723.95609   -801744.51109     -1583.516  
  22629968.516    22629972.371     1482875.71409   1089018.69909      2694.938  
  23003071.758    23003077.043    -1949466.16809  -1433161.88109     -2980.828  
 98 11 22 11 25 20.0000000  0  7G02G27G10G13G17G19G26
  22519462.508    22519466.574    -1636312.52609  -1190665.73109     -2422.656  
  20561224.297    20561226.184      117768.29001     95655.48109       487.844  
  20864442.336    20864446.496      358383.18909     82535.65509       941.031  
  20727446.875    20727447.613      380124.81401    288035.55909       909.922  
  24546763.516    24546765.754    -1167634.00809   -807908.16709     -1580.453  
  22632532.602    22632536.516     1496352.95309   1099520.43709      2695.984  
  23000236.469    23000241.344    -1964369.24809  -1444774.68109     -2980.375  
 98 11 22 11 25 25.0000000  0  7G02G27G10G13G17G19G26
  22517158.969    22517162.848    -1648419.35509  -1200099.60709     -2420.047  
  20561689.695    20561691.629      120214.38403     97561.53209       490.609  
  20865339.492    20865343.711      363097.75309     86209.33309       944.813  
  20728313.594    20728314.285      384680.51602    291585.45709       912.375  
  24545260.563    24545262.074    -1175527.14509   -814058.63509     -1576.781  
  22635098.695    22635102.609     1509836.99009   1110027.47309      2697.656  
  22997401.867    22997406.016    -1979268.33109  -1456384.34709     -2979.219  
 98 11 22 11 25 30.0000000  0  7G02G27G10G13G17G19G26
  22514857.094    22514860.949    -1660513.36409  -1209523.49209     -2417.609  
  20562157.766    20562159.781      122673.93901     99478.06908       493.172  
  20866240.438    20866244.070      367831.03309     89897.58809       948.453  
  20729182.898    20729183.543      389248.22006    295144.71009       914.656  
  24543762.281    24543766.875    -1183402.02609   -820194.93709     -1573.234  
  22637666.188    22637670.125     1523329.09309   1120540.79309      2699.125  
  22994567.734    22994571.332    -1994161.93409  -1467989.73209     -2978.266  
 98 11 22 11 25 35.0000000  0  7G02G27G10G13G17G19G26
  22512557.875    22512561.695    -1672596.26209  -1218938.71709     -2414.781  
  20562628.219    20562630.363      125145.17305    101403.71009       496.094  
  20867144.367    20867148.188      372581.26309     93599.08209       952.438  
  20730054.063    20730054.777      393826.12105    298711.90609       917.281  
  24542266.672    24542271.301    -1191260.36409   -826318.32209     -1569.328  
  22640234.961    22640238.699     1536827.34509   1131058.91309      2700.922  
  22991734.148    22991736.949    -2009051.75409  -1479592.18009     -2976.891  
 98 11 22 11 25 40.0000000  0  7G02G27G10G13G17G19G26
  22510261.672    22510265.621    -1684663.65109  -1228341.86109     -2412.266  
  20563101.305    20563103.531      127632.63009    103341.98908       498.797  
  20868052.164    20868055.879      377352.93809     97317.28209       956.172  
  20730927.984    20730928.664      398418.69001    302290.52709       919.656  
  24540775.242    24540781.840    -1199097.71109   -832425.36109     -1565.688  
  22642805.648    22642809.023     1550335.98009   1141585.12009      2702.438  
  22988901.641    22988904.324    -2023933.31909  -1491188.20709     -2975.781  
 98 11 22 11 25 45.0000000  0  7G02G27G10G13G17G19G26
  22507967.781    22507971.684    -1696718.85709  -1237735.51209     -2409.938  
  20563577.281    20563579.555      130133.09509    105290.40307       501.281  
  20868963.586    20868967.523      382143.08209    101049.85709       959.766  
  20731804.094    20731804.867      403022.61102    305877.99709       921.797  
  24539287.633    24539295.078    -1206917.10709   -838518.38709     -1562.219  
  22645377.234    22645380.809     1563851.85809   1152116.97009      2703.781  
  22986071.313    22986074.313    -2038809.60209  -1502780.11509     -2974.875  
 98 11 22 11 25 50.0000000  0  7G02G27G10G13G17G19G26
  22505675.813    22505679.785    -1708762.05709  -1247119.80009     -2407.516  
  20564055.453    20564057.809      132646.61109    107248.98908       503.953  
  20869879.164    20869882.855      386951.76609    104796.87709       963.547  
  20732682.281    20732683.125      407637.59909    309474.09309       924.031  
  24537803.070    24537807.594    -1214718.62809   -844597.41109     -1558.578  
  22647950.594    22647954.109     1577374.68109   1162654.22609      2705.188  
  22983241.430    22983244.230    -2053680.74509  -1514368.00709     -2973.750  
 98 11 22 11 25 55.0000000  0  7G02G27G10G13G17G19G26
  22503386.406    22503390.449    -1720794.41609  -1256495.64109     -2405.156  
  20564536.148    20564538.574      135172.17509    109216.96608       506.547  
  20870797.469    20870801.008      391778.02609    108557.59309       967.234  
  20733562.258    20733563.102      412262.60309    313077.99309       926.250  
  24536321.953    24536323.406    -1222503.25209   -850663.35709     -1555.000  
  22650525.375    22650528.832     1590903.27509   1173195.98809      2706.516  
  22980412.734    22980415.570    -2068547.70109  -1525952.63609     -2972.750  
 98 11 22 11 26  0.0000000  0  7G02G27G10G13G17G19G26
  22501099.273    22501103.281    -1732812.29409  -1265860.20309     -2402.641  
  20565019.859    20565022.250      137713.50009    111197.22009       509.359  
  20871719.984    20871723.523      396625.60009    112334.93509       971.156  
  20734445.031    20734445.781      416901.30609    316692.56609       928.625  
  24534844.500    24534845.133    -1230267.20309   -856713.18709     -1551.219  
  22653101.523    22653105.273     1604441.14309   1183744.97309      2708.031  
  22977584.625    22977587.789    -2083406.84909  -1537531.18909     -2971.547  
 98 11 22 11 26  5.0000000  0  7G02G27G10G13G17G19G26
  22498814.344    22498818.340    -1744819.31109  -1275216.29909     -2400.281  
  20565505.648    20565507.969      140267.29109    113187.18707       512.063  
  20872645.719    20872649.223      401491.12809    116126.25109       974.969  
  20735329.789    20735330.574      421550.28809    320315.14507       930.875  
  24533370.047    24533372.988    -1238013.94409   -862749.57209     -1547.563  
  22655678.773    22655682.266     1617985.00509   1194298.63409      2709.453  
  22974758.188    22974761.188    -2098261.65709  -1549106.35809     -2970.500  
 98 11 22 11 26 10.0000000  0  7G02G27G10G13G17G19G26
  22496531.625    22496535.551    -1756815.75309  -1284564.15609     -2398.000  
  20565993.945    20565996.301      142833.25809    115186.64305       514.641  
  20873575.008    20873578.980      406374.38009    119931.39809       978.641  
  20736216.258    20736217.148      426209.41509    323945.62808       933.063  
  24531899.445    24531902.316    -1245743.61309   -868772.72909     -1543.969  
  22658257.180    22658260.590     1631534.75709   1204856.88609      2710.750  
  22971932.063    22971934.699    -2113112.45809  -1560678.41809     -2969.531  
 98 11 22 11 26 15.0000000  0  7G02G27G10G13G17G19G26
  22494250.930    22494254.598    -1768800.51109  -1293902.90809     -2396.094  
  20566484.688    20566487.031      145412.38809    117196.35706       516.813  
  20874507.664    20874511.555      411276.40309    123751.14709       981.969  
  20737105.133    20737105.918      430879.73509    327584.83807       934.859  
  24530432.344    24530435.672    -1253454.95409   -874781.57709     -1540.766  
  22660837.234    22660840.773     1645091.29409   1215420.41409      2711.688  
  22969106.883    22969109.379    -2127958.26809  -1572246.57209     -2968.953  
 98 11 22 11 26 20.0000000  0  7G02G27G10G13G17G19G26
  22491972.063    22491975.742    -1780775.37201  -1303233.95509     -2394.078  
  20566977.734    20566980.031      148002.63009    119214.72708       519.063  
  20875443.586    20875446.762      416195.26209    127584.02109       985.344  
  20737995.563    20737996.582      435559.26509    331231.22507       936.719  
  24528967.219    24528971.367    -1261150.16009   -880777.85009     -1537.563  
  22663417.789    22663421.609     1658652.78309   1225987.80009      2712.672  
  22966282.586    22966285.328    -2142800.86309  -1583812.22209     -2968.313  
 98 11 22 11 26 25.0000000  0  7G02G27G10G13G17G19G26
  22489695.648    22489699.270    -1792739.89601  -1312556.95009     -2391.656  
  20567472.773    20567475.152      150604.53209    121242.18808       521.766  
  20876383.305    20876386.305      421131.17709    131430.18009       989.094  
  20738887.789    20738888.902      440248.65109    334885.29308       939.094  
  24527506.563    24527510.793    -1268829.00509   -886761.36009     -1533.906  
  22665999.430    22666003.016     1672219.52809   1236559.27309      2714.094  
  22963458.625    22963461.320    -2157639.88909  -1595375.10209     -2967.234  
 98 11 22 11 26 30.0000000  0  7G02G27G10G13G17G19G26
  22487421.063    22487424.355    -1804692.60201  -1321870.73309     -2389.156  
  20567970.344    20567972.711      153219.60509    123279.90908       524.531  
  20877326.094    20877328.906      426085.69909    135290.82909       992.953  
  20739782.445    20739783.711      444949.67609    338548.43008       941.547  
  24526047.953    24526051.082    -1276489.93709   -892730.91209     -1530.188  
  22668582.492    22668586.219     1685793.06509   1247136.04309      2715.578  
  22960635.945    22960638.090    -2172473.90709  -1606934.07109     -2966.109  
 98 11 22 11 26 35.0000000  0  7G02G27G10G13G17G19G26
  22485149.188    22485152.328    -1816632.27601  -1331174.35809     -2386.813  
  20568470.766    20568473.156      155849.09009    125328.86109       527.172  
  20878272.055    20878275.359      431059.96409    139166.88209       996.672  
  20740679.430    20740680.777      449663.45108    342221.50208       943.859  
  24524594.445    24524599.121    -1284131.53609   -898685.39109     -1526.531  
  22671166.977    22671169.590     1699374.64809   1257719.08909      2716.938  
  22957813.922    22957816.512    -2187301.88109  -1618488.32809     -2965.219  
 98 11 22 11 26 40.0000000  0  7G02G27G10G13G17G19G26
  22482879.352    22482882.480    -1828559.96401  -1340468.64409     -2384.484  
  20568973.766    20568976.250      158492.09109    127388.34708       529.813  
  20879222.406    20879225.137      436053.11509    143057.65409      1000.375  
  20741578.742    20741580.090      454389.15708    345903.87407       946.203  
  24523144.211    24523150.176    -1291754.53209   -904625.33909     -1522.891  
  22673753.117    22673755.648     1712963.42209   1268307.74509      2718.344  
  22954993.602    22954996.109    -2202124.88209  -1630038.71709     -2964.234  
 98 11 22 11 26 45.0000000  0  7G02G27G10G13G17G19G26
  22480611.594    22480614.922    -1840477.14201  -1349754.74209     -2382.469  
  20569478.977    20569481.344      161147.29509    129457.34006       532.188  
  20880175.719    20880179.094      441063.80509    146962.09509      1003.828  
  20742479.938    20742481.273      459125.62805    349594.63304       948.328  
  24521696.055    24521697.988    -1299360.41509   -910551.96609     -1519.563  
  22676340.109    22676342.406     1726558.25609   1278901.11709      2719.500  
  22952173.250    22952175.148    -2216944.09609  -1641586.15809     -2963.531  
 98 11 22 11 26 50.0000000  0  7G02G27G10G13G17G19G26
  22478345.719    22478349.117    -1852383.34301  -1359032.27809     -2379.906  
  20569986.492    20569988.789      163815.14609    131536.18906       535.047  
  20881132.750    20881136.664      446092.52109    150880.58709      1007.750  
  20743383.352    20743384.734      463873.44402    353294.22703       950.922  
  24520251.961    24520255.383    -1306949.00709   -916465.15109     -1515.781  
  22678928.438    22678930.793     1740159.65409   1289499.61009      2721.141  
  22949354.367    22949356.371    -2231759.00409  -1653130.24409     -2962.344  
 98 11 22 11 26 55.0000000  0  7G02G27G10G13G17G19G26
  22476082.453    22476085.652    -1864278.28301  -1368301.04909     -2378.125  
  20570496.742    20570499.016      166495.93109    133625.11206       537.188  
  20882093.438    20882098.078      451139.47509    154813.26809      1010.922  
  20744289.086    20744290.609      468632.89501    357002.88903       952.766  
  24518811.008    24518815.930    -1314520.15709   -922364.77109     -1512.797  
  22681518.133    22681520.055     1753767.91909   1300103.45009      2722.063  
  22946535.992    22946538.992    -2246569.14809  -1664670.62309     -2961.781  
 98 11 22 11 27  0.0000000  0  7G02G27G10G13G17G19G26
  22473820.406    22473823.641    -1876164.19101  -1377562.78009     -2376.078  
  20571009.023    20571011.367      169187.50609    135722.44406       539.594  
  20883057.289    20883060.805      456202.13809    158758.20009      1014.281  
  20745196.313    20745197.813      473401.60101    360718.75901       954.875  
  24517372.961    24517376.582    -1322076.37409   -928252.74709     -1509.563  
  22684108.477    22684110.539     1767380.64409   1310710.76609      2723.156  
  22943718.195    22943720.762    -2261376.64109  -1676208.93309     -2961.047  
 98 11 22 11 27  5.0000000  0  7G02G27G10G13G17G19G26
  22471560.961    22471564.078    -1888038.64701  -1386815.58109     -2374.078  
  20571523.586    20571525.824      171892.19009    137829.99104       541.922  
  20884023.797    20884026.879      461282.64809    162717.03309      1017.563  
  20746106.188    20746107.699      478181.96601    364443.71901       956.922  
  24515939.922    24515943.180    -1329615.24909   -934127.19609     -1506.375  
  22686699.992    22686702.289     1780999.85409   1321323.13309      2724.141  
  22940900.984    22940903.563    -2276179.11909  -1687743.33009     -2960.328  
 98 11 22 11 27 10.0000000  0  7G02G27G10G13G17G19G26
  22469302.953    22469306.188    -1899903.48401  -1396060.88909     -2371.984  
  20572040.547    20572042.703      174608.24009    139946.39306       544.375  
  20884993.398    20884996.059      466378.97209    166688.18409      1020.844  
  20747017.672    20747019.348      482972.16702    368176.34302       959.047  
  24514507.211    24514510.891    -1337138.52809   -939989.45509     -1503.063  
  22689292.461    22689294.582     1794623.54609   1331938.99709      2725.203  
  22938085.172    22938088.160    -2290978.34909  -1699275.19609     -2959.500  
 98 11 22 11 27 15.0000000  0  7G02G27G10G13G17G19G26
  22467047.578    22467050.871    -1911756.17801  -1405296.74509     -2369.359  
  20572560.109    20572562.441      177338.27108    142073.69205       547.344  
  20885966.789    20885969.098      471493.52209    170673.54509      1024.703  
  20747931.625    20747933.371      487774.65501    371918.54403       961.688  
  24513079.070    24513082.434    -1344643.44109   -945837.46409     -1499.188  
  22691886.344    22691888.430     1808254.24009   1342560.31609      2726.813  
  22935269.828    22935273.051    -2305771.71409  -1710802.48909     -2958.109  
 98 11 22 11 27 20.0000000  0  7G02G27G10G13G17G19G26
  22464793.938    22464797.453    -1923598.12301  -1414524.22309     -2367.141  
  20573081.773    20573084.176      180080.61307    144210.58706       549.844  
  20886943.359    20886946.184      476624.97409    174672.09209      1028.156  
  20748847.516    20748849.273      492588.07603    375669.26204       963.953  
  24511654.016    24511658.129    -1352131.57409   -951672.38009     -1495.781  
  22694481.195    22694483.082     1821890.43809   1353185.92609      2727.953  
  22932455.992    22932459.238    -2320560.60909  -1722326.30009     -2957.188  
 98 11 22 11 27 25.0000000  0  7G02G27G10G13G17G19G26
  22462542.516    22462546.254    -1935430.27701  -1423744.06609     -2365.438  
  20573605.680    20573608.164      182834.11702    146356.18104       551.828  
  20887922.773    20887925.656      481772.57609    178683.19609      1031.141  
  20749765.430    20749767.281      497411.65404    379427.89604       965.750  
  24510231.961    24510235.523    -1359603.98509   -957495.04009     -1492.891  
  22697076.875    22697079.066     1835531.30609   1363815.17309      2728.672  
  22929642.180    22929645.227    -2335345.92309  -1733847.31609     -2956.672  
 98 11 22 11 27 30.0000000  0  7G02G27G10G13G17G19G26
  22460292.648    22460296.328    -1947252.18301  -1432955.92309     -2363.219  
  20574131.938    20574134.504      185599.23001    148510.81902       554.297  
  20888905.055    20888906.930      486936.65309    182707.14809      1034.609  
  20750685.477    20750687.363      502245.79906    383194.76105       968.016  
  24508812.930    24508816.363    -1367060.17309   -963305.08709     -1489.484  
  22699673.703    22699675.742     1849177.47209   1374448.53909      2729.891  
  22926829.344    22926831.875    -2350126.89809  -1745364.95109     -2955.625  
 98 11 22 11 27 35.0000000  0  7G02G27G10G13G17G19G26
  22458045.273    22458049.152    -1959062.89201  -1442159.05709     -2360.922  
  20574660.320    20574662.945      188376.69401    150675.08202       556.813  
  20889891.680    20889893.824      492118.08209    186744.61509      1038.094  
  20751607.508    20751609.313      507091.47904    386970.61104       970.406  
  24507397.156    24507397.672    -1374499.27209   -969101.74509     -1486.000  
  22702271.430    22702273.070     1862829.74109   1385086.67109      2731.141  
  22924017.492    22924020.176    -2364902.63009  -1756878.51009     -2954.547  
 98 11 22 11 27 40.0000000  0  7G02G27G10G13G17G19G26
  22455799.633    22455803.617    -1970861.98701  -1451353.14609     -2358.438  
  20575191.570    20575194.242      191166.73504    152849.14004       559.484  
  20890881.352    20890883.332      497316.92709    190795.65509      1041.703  
  20752531.930    20752533.699      511949.30002    390755.92403       972.984  
  24505985.508    24505986.316    -1381920.76009   -974884.68109     -1482.313  
  22704870.289    22704872.059     1876488.32809   1395729.72009      2732.563  
  22921207.023    22921209.801    -2379672.84909  -1768387.76909     -2953.266  
 98 11 22 11 27 45.0000000  0  7G02G27G10G13G17G19G26
  22453556.781    22453560.695    -1982648.42601  -1460537.37409     -2356.078  
  20575725.023    20575727.813      193970.35405    155033.77705       562.031  
  20891873.656    20891876.082      502534.12009    194860.98909      1045.219  
  20753458.789    20753460.676      516820.33501    394551.53303       975.484  
  24504577.195    24504580.430    -1389323.47609   -980653.02609     -1478.703  
  22707471.141    22707473.414     1890154.30709   1406378.53209      2733.922  
  22918397.500    22918400.547    -2394436.33009  -1779891.77009     -2952.078  
 98 11 22 11 27 50.0000000  0  7G02G27G10G13G17G19G26
  22451316.203    22451320.258    -1994423.69209  -1469712.89309     -2354.188  
  20576260.758    20576263.441      196786.28603    157228.01205       564.188  
  20892869.719    20892871.992      507768.38709    198939.64609      1048.344  
  20754387.992    20754389.762      521703.41004    398356.53003       977.609  
  24503171.648    24503175.563    -1396708.57509   -986407.64609     -1475.484  
  22710072.734    22710075.336     1903826.69309   1417032.33209      2734.859  
  22915589.195    22915592.395    -2409194.33109  -1791391.50209     -2951.281  
 98 11 22 11 27 55.0000000  0  7G02G27G10G13G17G19G26
  22449077.570    22449081.625    -2006186.46309  -1478878.67209     -2351.219  
  20576799.258    20576801.883      199616.03304    159433.01505       567.422  
  20893869.563    20893872.434      513021.24709    203032.79009      1052.516  
  20755319.945    20755321.809      526600.06706    402172.10703       980.766  
  24501769.883    24501773.668    -1404074.57609   -992147.40609     -1471.188  
  22712676.234    22712679.176     1917506.90309   1427692.23109      2736.922  
  22912782.273    22912786.352    -2423945.39609  -1802885.83009     -2949.422  
 98 11 22 11 28  0.0000000  0  7G02G27G10G13G17G19G26
  22446841.344    22446845.645    -2017937.45509  -1488035.27909     -2348.813  
  20577340.266    20577342.891      202458.93306    161648.26306       570.109  
  20894872.742    20894876.211      518291.99009    207139.85209      1056.141  
  20756254.039    20756255.832      531509.55504    405997.67903       983.375  
  24500371.922    24500376.914    -1411422.21209   -997872.81809     -1467.484  
  22715280.773    22715283.609     1931194.33409   1438357.76609      2738.422  
  22909975.984    22909980.156    -2438690.10109  -1814375.21209     -2948.094  
 98 11 22 11 28  5.0000000  0  7G02G27G10G13G17G19G26
  22444607.773    22444612.109    -2029675.02709  -1497181.42509     -2346.172  
  20577884.109    20577886.711      205316.72206    163875.11806       573.047  
  20895879.016    20895881.980      523582.14209    211262.05909      1059.969  
  20757191.141    20757192.887      536433.37009    409834.41804       986.188  
  24498977.625    24498983.156    -1418749.89109  -1003582.70109     -1463.563  
  22717886.797    22717890.219     1944890.52409   1449030.11709      2740.078  
  22907171.633    22907176.402    -2453426.93209  -1825858.43809     -2946.609  
 98 11 22 11 28 10.0000000  0  7G02G27G10G13G17G19G26
  22442376.391    22442380.938    -2041401.17609  -1506318.67309     -2344.734  
  20578430.242    20578432.844      208187.27006    166111.91405       574.719  
  20896889.391    20896891.945      528889.31309    215397.52109      1062.469  
  20758130.289    20758132.082      541369.36609    413680.65404       987.781  
  24497586.125    24497591.621    -1426059.94309  -1009278.82609     -1460.906  
  22720493.844    22720497.301     1958593.20309   1459707.53909      2740.531  
  22904368.227    22904372.621    -2468158.16409  -1837337.30809     -2946.359  
 98 11 22 11 28 15.0000000  0  7G02G27G10G13G17G19G26
  22440146.695    22440151.395    -2053117.85609  -1515448.54309     -2341.781  
  20578978.594    20578981.277      211068.47706    168357.01706       577.906  
  20897901.773    20897904.785      534211.38909    219544.58609      1066.500  
  20759071.625    20759073.418      546315.83609    417535.05007       990.953  
  24496197.273    24496203.250    -1433354.44909  -1014962.87309     -1456.734  
  22723102.391    22723106.164     1972300.43709   1470388.49309      2742.500  
  22901565.758    22901570.188    -2482885.83509  -1848813.40209     -2944.563  
 98 11 22 11 28 20.0000000  0  7G02G27G10G13G17G19G26
  22437919.406    22437924.375    -2064822.06609  -1524568.69309     -2339.703  
  20579529.375    20579532.012      213963.31609    170612.74006       580.234  
  20898918.180    20898920.980      539551.19509    223705.47509      1069.625  
  20760015.633    20760017.367      551275.72709    421399.89909       993.250  
  24494812.617    24494817.902    -1440630.46209  -1020632.48909     -1453.469  
  22725712.367    22725716.387     1986015.17109   1481075.30309      2743.609  
  22898764.273    22898768.609    -2497606.90609  -1860284.35109     -2943.625  
 98 11 22 11 28 25.0000000  0  7G02G27G10G13G17G19G26
  22435694.250    22435699.406    -2076515.65509  -1533680.57109     -2337.594  
  20580082.711    20580085.324      216869.98606    172877.67905       582.563  
  20899936.914    20899939.281      544906.83009    227878.69709      1072.750  
  20760961.508    20760963.348      556247.26609    425273.82309       995.500  
  24493432.141    24493437.191    -1447889.80909  -1026289.11709     -1450.156  
  22728323.703    22728327.570     1999735.52009   1491766.49209      2744.656  
  22895964.195    22895968.227    -2512323.02109  -1871751.44409     -2942.703  
 98 11 22 11 28 30.0000000  0  7G02G27G10G13G17G19G26
  22433471.508    22433476.559    -2088196.05909  -1542782.17709     -2334.703  
  20580638.391    20580640.922      219790.91008    175153.72704       585.703  
  20900959.656    20900961.484      550280.43609    232065.90109      1076.578  
  20761910.469    20761912.215      561232.79609    429158.64709       998.578  
  24492053.617    24492058.996    -1455130.12909  -1031930.91909     -1446.125  
  22730935.852    22730939.684     2013463.62509   1502463.71009      2746.453  
  22893165.078    22893169.109    -2527031.95909  -1883212.93509     -2940.984  
 98 11 22 11 28 35.0000000  0  7G02G27G10G13G17G19G26
  22431250.984    22431255.977    -2099864.25509  -1551874.26209     -2332.297  
  20581196.828    20581199.348      222725.26908    177440.24006       588.359  
  20901985.383    20901987.750      555670.93709    236266.29109      1079.906  
  20762861.727    20762863.379      566231.30404    433053.58109      1001.141  
  24490680.227    24490685.723    -1462352.71609  -1037558.91009     -1442.656  
  22733549.547    22733553.402     2027198.40609   1513166.13309      2747.766  
  22890367.680    22890371.699    -2541734.52209  -1894669.46409     -2939.719  
 98 11 22 11 28 40.0000000  0  7G02G27G10G13G17G19G26
  22429032.500    22429037.621    -2111520.70109  -1560957.19909     -2330.000  
  20581757.758    20581760.324      225672.94108    179737.12906       591.000  
  20903014.766    20903017.414      561077.95809    240479.55809      1083.172  
  20763815.258    20763816.898      571242.37605    436958.31109      1003.578  
  24489307.813    24489313.227    -1469558.14209  -1043173.53509     -1439.250  
  22736164.273    22736168.750     2040939.54209   1523873.50809      2748.953  
  22887570.875    22887574.555    -2556431.01109  -1906121.25309     -2938.594  
 98 11 22 11 28 45.0000000  0  7G02G27G10G13G17G19G26
  22426816.719    22426821.781    -2123165.11609  -1570030.76109     -2327.906  
  20582321.281    20582323.824      228634.34709    182044.71505       593.406  
  20904046.227    20904049.063      566501.77209    244705.89909      1086.203  
  20764771.273    20764772.926      576266.15406    440872.94109      1005.797  
  24487941.117    24487945.582    -1476746.04409  -1048774.50609     -1436.063  
  22738780.469    22738785.484     2054687.19209   1534585.95809      2749.953  
  22884775.453    22884778.887    -2571121.25509  -1917568.18209     -2937.641  
 98 11 22 11 28 50.0000000  0  7G02G27G10G13G17G19G26
  22424602.898    22424608.020    -2134798.40509  -1579095.65209     -2325.281  
  20582887.391    20582889.852      231608.33109    184362.10606       596.328  
  20905081.719    20905084.438      571941.30309    248944.48209      1089.734  
  20765729.523    20765731.059      581301.44001    444796.53309      1008.469  
  24486576.391    24486580.715    -1483917.39509  -1054362.56909     -1432.359  
  22741397.734    22741402.738     2068440.28409   1545302.64109      2751.438  
  22881980.781    22881984.578    -2585806.23209  -1929011.01109     -2936.203  
 98 11 22 11 28 55.0000000  0  7G02G27G10G13G17G19G26
  22422391.820    22422396.801    -2146418.33909  -1588150.14109     -2322.469  
  20583456.000    20583458.520      234597.02509    186690.96106       599.391  
  20906120.063    20906123.051      577398.70709    253197.00109      1093.484  
  20766690.227    20766691.527      586350.26901    448730.68309      1011.313  
  24485214.445    24485218.781    -1491070.16809  -1059936.16409     -1428.516  
  22744016.180    22744021.172     2082200.87309   1556025.16709      2753.047  
  22879188.023    22879191.516    -2600483.61409  -1940447.91609     -2934.500  
 98 11 22 11 29  0.0000000  0  7G02G27G10G13G17G19G26
  22420183.227    22420188.371    -2158024.61309  -1597193.98709     -2320.000  
  20584027.664    20584030.090      237600.69709    189031.48506       602.109  
  20907162.383    20907164.914      582874.47409    257463.82409      1096.875  
  20767653.555    20767654.738      591413.04001    452675.69909      1013.844  
  24483858.070    24483860.848    -1498204.35909  -1065495.26509     -1425.094  
  22746636.242    22746641.434     2095969.18709   1566753.72709      2754.313  
  22876396.109    22876399.871    -2615152.75709  -1951878.40209     -2933.125  
 98 11 22 11 29  5.0000000  0  7G02G27G10G13G17G19G26
  22417976.820    22417981.977    -2169619.34409  -1606228.83009     -2317.672  
  20584601.625    20584603.992      240617.10409    191381.93506       604.656  
  20908207.320    20908210.215      588366.25709    261743.13609      1100.063  
  20768619.266    20768620.426      596487.58101    456629.88509      1016.172  
  24482502.664    24482508.125    -1505322.39309  -1071041.81909     -1421.906  
  22749257.328    22749262.484     2109742.99009   1577486.56109      2755.359  
  22873605.742    22873609.984    -2629815.81309  -1963304.14509     -2931.875  
 98 11 22 11 29 10.0000000  0  7G02G27G10G13G17G19G26
  22415772.508    22415777.523    -2181202.15009  -1615254.38809     -2315.313  
  20585178.000    20585180.320      243646.43709    193742.45207       607.203  
  20909255.320    20909258.379      593874.40409    266035.19709      1103.328  
  20769587.336    20769588.461      601574.07105    460593.38209      1018.547  
  24481152.156    24481156.785    -1512423.92509  -1076575.48709     -1418.594  
  22751879.492    22751884.660     2123522.37509   1588223.74109      2756.484  
  22870816.969    22870820.895    -2644472.50209  -1974724.92409     -2930.672  
 98 11 22 11 29 15.0000000  0  7G02G27G10G13G17G19G26
  22413571.109    22413576.254    -2192771.68409  -1624269.60309     -2312.625  
  20585757.258    20585759.590      246690.07309    196114.11907       610.094  
  20910306.828    20910309.359      599400.39109    270341.16509      1106.938  
  20770557.820    20770558.863      606673.91805    464567.28709      1021.250  
  24479804.172    24479808.672    -1519507.36809  -1082095.05609     -1414.922  
  22754503.164    22754508.098     2137308.71309   1598966.34109      2757.922  
  22868028.969    22868032.156    -2659121.66309  -1986139.82909     -2929.141  
 98 11 22 11 29 20.0000000  0  7G02G27G10G13G17G19G26
  22411371.805    22411376.797    -2204328.91009  -1633275.22209     -2310.219  
  20586338.922    20586341.313      249746.79109    198495.98007       612.641  
  20911361.375    20911364.188      604943.09309    274660.16409      1110.203  
  20771530.656    20771531.652      611785.92207    468550.66209      1023.641  
  24478458.922    24478462.379    -1526573.55009  -1087601.16109     -1411.484  
  22757127.875    22757132.926     2151101.02609   1609713.59109      2759.063  
  22865243.031    22865246.266    -2673764.44109  -1997549.75609     -2927.938  
 98 11 22 11 29 25.0000000  0  7G02G27G10G13G17G19G26
  22409174.555    22409179.395    -2215874.88609  -1642272.07809     -2308.094  
  20586923.086    20586925.430      252815.58709    200887.25009       614.969  
  20912418.875    20912421.957      610501.62409    278991.48009      1113.297  
  20772505.609    20772506.523      616909.18907    472542.81609      1025.766  
  24477117.766    24477121.809    -1533623.13009  -1093094.31309     -1408.281  
  22759753.273    22759758.301     2164898.47909   1620464.84709      2760.016  
  22862457.344    22862460.988    -2688402.05009  -2008955.65909     -2927.000  
 98 11 22 11 29 30.0000000  0  7G02G27G10G13G17G19G26
  22406979.461    22406984.172    -2227410.54209  -1651260.89709     -2306.078  
  20587509.086    20587511.488      255895.73609    203287.36309       617.203  
  20913479.945    20913482.734      616075.23509    283334.53709      1116.281  
  20773482.406    20773483.285      622042.91706    476543.12209      1027.844  
  24475779.156    24475782.953    -1540656.91609  -1098575.18709     -1405.125  
  22762379.742    22762384.758     2178700.46909   1631219.64209      2760.891  
  22859672.719    22859676.316    -2703035.18009  -2020358.07709     -2926.141  
 98 11 22 11 29 35.0000000  0  7G02G27G10G13G17G19G26
  22404786.648    22404791.547    -2238933.63709  -1660239.93109     -2303.109  
  20588097.703    20588100.047      258989.34309    205697.96509       620.297  
  20914544.078    20914547.020      621666.39709    287691.26809      1120.266  
  20774461.938    20774462.664      627189.43406    480553.39609      1030.844  
  24474443.875    24474447.520    -1547672.66709  -1104042.00709     -1401.094  
  22765007.336    22765012.188     2192509.40309   1641979.85009      2762.734  
  22856889.672    22856893.539    -2717661.60609  -2031755.28309     -2924.375  
 98 11 22 11 29 40.0000000  0  7G02G27G10G13G17G19G26
  22402596.367    22402601.301    -2250444.42909  -1669209.37509     -2300.922  
  20588688.797    20588691.059      262095.97305    208118.71509       622.656  
  20915611.523    20915614.816      627275.11109    292061.69209      1123.531  
  20775443.625    20775444.422      632348.55307    484573.48709      1033.109  
  24473112.680    24473117.836    -1554670.76509  -1109495.06309     -1397.813  
  22767636.313    22767641.094     2206325.12509   1652745.34909      2763.844  
  22854107.297    22854110.848    -2732281.53509  -2043147.41509     -2923.313  
 98 11 22 11 29 45.0000000  0  7G02G27G10G13G17G19G26
  22400408.148    22400413.117    -2261943.25909  -1678169.50109     -2298.500  
  20589282.563    20589284.789      265215.64201    210549.62409       625.344  
  20916681.648    20916685.387      632901.18809    296445.65809      1127.047  
  20776427.492    20776428.324      637519.97005    488603.15809      1035.594  
  24471784.594    24471788.168    -1561651.36909  -1114934.51209     -1394.297  
  22770266.883    22770271.723     2220147.45009   1663515.99009      2765.203  
  22851326.461    22851329.660    -2746895.05609  -2054534.54509     -2921.969  
 98 11 22 11 29 50.0000000  0  7G02G27G10G13G17G19G26
  22398222.031    22398226.906    -2273431.02109  -1687120.98709     -2296.156  
  20589878.688    20589880.891      268347.61801    212990.12109       627.906  
  20917755.453    20917759.156      638543.88509    300842.54809      1130.516  
  20777414.078    20777414.746      642702.57405    492641.54809      1037.922  
  24470458.484    24470462.598    -1568615.27009  -1120360.92809     -1390.828  
  22772898.227    22772902.949     2233975.39709   1674291.00709      2766.406  
  22848546.648    22848549.684    -2761503.07609  -2065917.37609     -2920.766  
 98 11 22 11 29 55.0000000  0  7G02G27G10G13G17G19G26
  22396038.664    22396043.035    -2284905.98509  -1696062.51109     -2293.719  
  20590477.445    20590479.543      271493.52207    215441.47009       630.594  
  20918832.781    20918836.098      644204.98609    305253.80009      1134.063  
  20778402.531    20778403.199      647897.91801    496689.86809      1040.328  
  24469136.477    24469141.340    -1575560.93809  -1125773.14809     -1387.297  
  22775530.852    22775535.469     2247810.36809   1685071.50209      2767.703  
  22845768.414    22845771.730    -2776104.14109  -2077294.79609     -2919.516  
 98 11 22 11 30  0.0000000  0  7G02G27G10G13G17G19G26
  22393857.625    22393861.773    -2296368.43809  -1704994.28909     -2291.078  
  20591078.625    20591080.711      274653.19908    217903.55609       633.484  
  20919913.094    20919916.129      649884.15709    309679.12509      1137.828  
  20779393.352    20779394.031      653105.64002    500747.82909      1042.938  
  24467818.086    24467823.992    -1582488.69509  -1131171.39609     -1383.609  
  22778164.984    22778169.402     2261652.30109   1695857.41809      2769.266  
  22842990.938    22842994.605    -2790698.50709  -2088667.01809     -2918.063  
 98 11 22 11 30  5.0000000  0  7G02G27G10G13G17G19G26
  22391678.508    22391682.691    -2307819.03909  -1713916.83409     -2289.125  
  20591682.273    20591684.289      277826.05604    220375.90809       635.719  
  20920997.563    20921001.160      655580.97709    314118.20009      1140.938  
  20780386.938    20780387.559      658324.90501    504814.79009      1044.828  
  24466504.180    24466508.902    -1589399.26009  -1136556.26209     -1380.594  
  22780800.156    22780804.703     2275500.51509   1706648.22509      2770.063  
  22840214.992    22840218.074    -2805286.77109  -2100034.47609     -2917.203  
 98 11 22 11 30 10.0000000  0  7G02G27G10G13G17G19G26
  22389501.445    22389505.348    -2319259.34109  -1722831.35509     -2287.156  
  20592288.320    20592290.219      281010.54402    222857.32309       637.906  
  20922085.016    20922088.859      661293.80809    318569.74509      1144.016  
  20781381.898    20781382.438      663554.17008    508889.54109      1046.703  
  24465191.547    24465197.254    -1596294.30909  -1141929.03709     -1377.594  
  22783436.195    22783440.836     2289353.26309   1717442.57109      2770.859  
  22837439.703    22837443.125    -2819870.60809  -2111398.48809     -2916.484  
 98 11 22 11 30 15.0000000  0  7G02G27G10G13G17G19G26
  22387326.734    22387330.508    -2330688.52609  -1731737.21009     -2284.906  
  20592896.867    20592898.754      284207.33104    225348.32907       640.422  
  20923174.859    20923178.363      667023.27609    323034.24809      1147.375  
  20782379.000    20782379.633      668794.04708    512972.56009      1048.859  
  24463883.133    24463888.559    -1603173.08809  -1147289.12509     -1374.297  
  22786073.281    22786077.313     2303211.21709   1728240.97009      2771.938  
  22834665.383    22834668.852    -2834449.39709  -2122758.56809     -2915.406  
 98 11 22 11 30 20.0000000  0  7G02G27G10G13G17G19G26
  22385153.914    22385157.430    -2342107.00409  -1740634.72609     -2282.609  
  20593507.570    20593509.410      287416.08407    227848.66205       642.969  
  20924267.813    20924271.035      672768.96109    327511.41909      1150.781  
  20783377.945    20783378.695      674043.97007    517063.40909      1051.000  
  24462576.430    24462583.371    -1610035.99009  -1152636.84409     -1370.969  
  22788711.188    22788715.148     2317073.81409   1739042.99609      2772.984  
  22831891.719    22831895.070    -2849023.64709  -2134115.09409     -2914.391  
 98 11 22 11 30 25.0000000  0  7G02G27G10G13G17G19G26
  22382983.055    22382986.570    -2353514.37709  -1749523.57909     -2280.344  
  20594120.188    20594122.051      290637.07603    230358.52506       645.406  
  20925364.602    20925367.168      678531.30309    332001.55909      1154.125  
  20784378.984    20784379.617      679304.39705    521162.44209      1053.141  
  24461273.516    24461280.148    -1616882.49209  -1157971.79109     -1367.688  
  22791350.148    22791353.945     2330941.42409   1749848.91909      2774.047  
  22829119.203    22829122.438    -2863593.09209  -2145467.88009     -2913.422  
 98 11 22 11 30 30.0000000  0  7G02G27G10G13G17G19G26
  22380814.305    22380817.574    -2364910.74809  -1758403.86509     -2278.516  
  20594735.539    20594737.414      293870.00201    232877.68007       647.438  
  20926464.781    20926467.852      684310.02509    336504.46909      1157.063  
  20785382.117    20785382.738      684575.28801    525269.63109      1054.906  
  24459974.930    24459981.188    -1623712.81609  -1163294.09509     -1364.781  
  22793989.695    22793993.469     2344814.03209   1760658.73709      2774.688  
  22826347.891    22826351.195    -2878157.85209  -2156817.02709     -2912.813  
 98 11 22 11 30 35.0000000  0  7G02G27G10G13G17G19G26
  22378648.016    22378650.969    -2376295.65709  -1767275.22409     -2275.594  
  20595353.125    20595354.988      297115.47603    235406.61607       650.594  
  20927567.203    20927569.031      690105.93709    341020.74909      1161.172  
  20786387.203    20786387.871      689857.19401    529385.40209      1057.703  
  24458676.313    24458682.137    -1630526.44509  -1168603.41509     -1360.813  
  22796630.367    22796634.316     2358692.29909   1771472.97109      2776.469  
  22823577.148    22823580.406    -2892717.14809  -2168161.91109     -2911.063  
 98 11 22 11 30 40.0000000  0  7G02G27G10G13G17G19G26
  22376483.391    22376486.355    -2387669.20609  -1776137.73109     -2273.797  
  20595973.016    20595974.855      300373.26604    237945.15305       652.547  
  20928673.648    20928676.086      695919.13609    345550.52609      1164.109  
  20787394.203    20787394.918      695149.78802    533509.50009      1059.375  
  24457382.391    24457388.719    -1637323.42309  -1173899.78209     -1357.922  
  22799272.758    22799276.203     2372576.13709   1782291.53409      2777.109  
  22820808.234    22820811.141    -2907271.06209  -2179502.60509     -2910.469  
 98 11 22 11 30 45.0000000  0  7G02G27G10G13G17G19G26
  22374321.195    22374323.879    -2399033.24409  -1784992.82709     -2271.813  
  20596594.875    20596596.621      303641.34509    240491.70604       654.672  
  20929782.625    20929785.262      701747.61509    350092.18409      1167.250  
  20788403.195    20788403.910      700451.25004    537640.50709      1061.203  
  24456093.148    24456098.574    -1644105.73709  -1179184.69409     -1354.969  
  22801915.148    22801918.945     2386463.62709   1793112.94609      2777.906  
  22818039.125    22818042.160    -2921821.53109  -2190840.61809     -2909.703  
 98 11 22 11 30 50.0000000  0  7G02G27G10G13G17G19G26
  22372160.742    22372163.238    -2410386.01209  -1793839.13609     -2269.141  
  20597219.141    20597220.957      306921.32009    243047.53201       657.484  
  20930895.570    20930898.770      707593.14009    354647.13109      1171.141  
  20789413.828    20789414.543      705763.16801    541779.66509      1063.734  
  24454805.398    24454812.031    -1650871.90409  -1184457.02109     -1351.297  
  22804558.977    22804562.551     2400356.63109   1803938.65609      2779.438  
  22815271.031    22815274.230    -2936366.96509  -2202174.69709     -2908.297  
 98 11 22 11 30 55.0000000  0  7G02G27G10G13G17G19G26
  22370003.125    22370005.938    -2421725.18109  -1802674.84209     -2266.656  
  20597845.891    20597847.613      310215.50709    245614.43201       660.063  
  20932011.594    20932013.820      713458.24409    359217.33909      1174.797  
  20790427.164    20790427.973      711088.04301    545928.92009      1066.094  
  24453521.258    24453526.730    -1657619.34509  -1189714.78009     -1347.781  
  22807204.266    22807207.418     2414257.62709   1814770.59209      2780.844  
  22812504.500    22812507.770    -2950904.92209  -2213502.94409     -2907.031  
 98 11 22 11 31  0.0000000  0  7G02G27G10G13G17G19G26
  22367847.188    22367850.188    -2433053.59209  -1811502.17309     -2264.563  
  20598474.992    20598476.633      313520.84803    248190.02101       662.234  
  20933130.484    20933133.039      719340.18809    363800.68809      1178.125  
  20791442.406    20791443.098      716423.16801    550086.16309      1068.109  
  24452240.500    24452245.234    -1664350.59609  -1194959.92509     -1344.547  
  22809850.445    22809853.668     2428163.89009   1825606.64109      2781.859  
  22809738.844    22809742.500    -2965438.34709  -2224827.67509     -2906.188  
 98 11 22 11 31  5.0000000  0  7G02G27G10G13G17G19G26
  22365693.891    22365697.020    -2444370.11209  -1820320.24009     -2262.234  
  20599106.219    20599107.930      316838.17204    250774.94401       664.547  
  20934253.156    20934255.676      725240.14009    368398.05909      1181.703  
  20792459.953    20792460.586      721769.67705    554252.27609      1070.344  
  24450962.438    24450967.066    -1671064.19409  -1200191.28709     -1341.047  
  22812498.016    22812501.672     2442076.69309   1836447.78009      2783.109  
  22806974.125    22806977.723    -2979966.15609  -2236148.02409     -2905.109  
 98 11 22 11 31 10.0000000  0  7G02G27G10G13G17G19G26
  22363542.766    22363545.883    -2455674.03909  -1829128.49309     -2259.625  
  20599739.945    20599741.504      320168.26204    253369.81801       667.219  
  20935378.969    20935380.879      731159.01109    373010.15309      1185.578  
  20793479.641    20793480.391      727128.49806    558427.98009      1072.906  
  24449688.383    24449693.773    -1677759.23609  -1205408.22109     -1337.250  
  22815146.602    22815150.129     2455997.07609   1847294.82209      2784.734  
  22804211.063    22804214.449    -2994487.46709  -2247463.31109     -2903.719  
 98 11 22 11 31 15.0000000  0  7G02G27G10G13G17G19G26
  22361393.742    22361396.977    -2466967.55909  -1837928.63209     -2257.938  
  20600375.492    20600377.250      323509.05804    255973.03401       668.953  
  20936508.555    20936510.371      737094.65309    377635.30609      1188.531  
  20794501.227    20794502.047      732497.47305    562611.59609      1074.531  
  24448417.531    24448421.434    -1684437.62109  -1210612.18109     -1334.281  
  22817797.141    22817800.645     2469922.98009   1858146.16509      2785.453  
  22801448.422    22801452.371    -3009004.35509  -2258775.15109     -2903.188  
 98 11 22 11 31 20.0000000  0  7G02G27G10G13G17G19G26
  22359246.375    22359249.738    -2478252.36109  -1846721.98309     -2255.813  
  20601012.953    20601014.734      326858.86909    258583.27201       671.125  
  20937641.539    20937644.293      743045.26109    382272.14409      1191.891  
  20795524.578    20795525.445      737874.76506    566801.68909      1076.547  
  24447150.141    24447154.980    -1691100.95009  -1215804.38609     -1330.844  
  22820448.250    22820452.035     2483852.65509   1869000.44909      2786.594  
  22798686.273    22798690.164    -3023518.61109  -2270084.93609     -2902.344  
 98 11 22 11 31 25.0000000  0  7G02G27G10G13G17G19G26
  22357101.094    22357104.340    -2489525.82609  -1855506.49609     -2253.719  
  20601652.766    20601654.418      330220.25907    261202.53501       673.266  
  20938776.984    20938779.598      749013.09009    386922.38709      1195.109  
  20796549.695    20796550.387      743262.72906    571000.10109      1078.484  
  24445884.703    24445888.559    -1697746.48309  -1220982.71309     -1327.500  
  22823099.898    22823103.660     2497788.78009   1879859.74509      2787.688  
  22795925.508    22795929.141    -3038027.72109  -2281390.71109     -2901.484  
 98 11 22 11 31 30.0000000  0  7G02G27G10G13G17G19G26
  22354957.688    22354960.922    -2500789.44909  -1864283.33809     -2251.781  
  20602294.156    20602295.844      333591.64803    263829.59101       675.266  
  20939915.195    20939917.527      754996.58109    391584.84309      1198.219  
  20797576.836    20797577.516      748659.84404    575205.64409      1080.297  
  24444622.719    24444628.379    -1704375.66209  -1226148.29709     -1324.250  
  22825752.336    22825756.004     2511729.83909   1890722.91909      2788.656  
  22793165.273    22793168.730    -3052533.14109  -2292693.61509     -2900.750  
 98 11 22 11 31 35.0000000  0  7G02G27G10G13G17G19G26
  22352816.336    22352819.688    -2512042.15409  -1873051.67609     -2249.375  
  20602937.805    20602939.492      336974.26601    266465.39701       677.719  
  20941057.672    20941061.105      760996.63609    396260.22909      1201.734  
  20798605.883    20798606.574      754067.19703    579419.16609      1082.563  
  24443365.375    24443370.801    -1710987.31509  -1231300.23709     -1320.484  
  22828406.656    22828410.289     2525676.99409   1901590.83309      2790.109  
  22790405.875    22790409.367    -3067033.76809  -2303992.78409     -2899.531  
 98 11 22 11 31 40.0000000  0  7G02G27G10G13G17G19G26
  22350677.359    22350680.605    -2523282.81309  -1881810.63109     -2247.016  
  20603584.031    20603585.766      340369.23201    269110.82301       680.172  
  20942202.891    20942205.797      767014.23209    400949.26809      1205.219  
  20799636.992    20799637.590      759485.92601    583641.55309      1084.844  
  24442109.742    24442114.301    -1717580.37809  -1236437.66409     -1316.859  
  22831062.000    22831065.516     2539631.23109   1912464.25209      2791.484  
  22787647.867    22787651.125    -3081528.14909  -2315287.08509     -2898.313  
 98 11 22 11 31 45.0000000  0  7G02G27G10G13G17G19G26
  22348540.492    22348543.680    -2534512.48409  -1890561.02409     -2244.656  
  20604232.086    20604233.738      343775.79301    271765.28209       682.641  
  20943351.188    20943353.508      773048.44709    405651.23609      1208.672  
  20800670.117    20800670.633      764915.25304    587872.19809      1087.094  
  24440859.813    24440865.707    -1724155.91109  -1241561.48109     -1313.156  
  22833718.422    22833722.395     2553591.65709   1923342.50809      2792.875  
  22784890.664    22784893.875    -3096017.08009  -2326577.13809     -2897.078  
 98 11 22 11 31 50.0000000  0  7G02G27G10G13G17G19G26
  22346405.258    22346408.785    -2545731.41509  -1899303.04309     -2242.984  
  20604882.523    20604884.059      347193.58101    274428.49109       684.375  
  20944502.328    20944503.875      779099.04709    410365.98409      1211.500  
  20801705.023    20801705.551      770354.78405    592110.79309      1088.641  
  24439611.992    24439616.645    -1730714.31009  -1246671.91109     -1310.234  
  22836376.188    22836379.504     2567558.04709   1934225.38609      2793.594  
  22782134.453    22782137.676    -3110500.66509  -2337863.03709     -2896.469  
 98 11 22 11 31 55.0000000  0  7G02G27G10G13G17G19G26
  22344272.195    22344276.016    -2556940.39809  -1908037.31609     -2240.406  
  20605534.836    20605536.418      350621.64801    277099.71009       687.047  
  20945656.328    20945658.590      785165.23409    415092.87109      1215.188  
  20802742.273    20802742.848      775803.70005    596356.70109      1091.109  
  24438366.078    24438370.602    -1737256.31709  -1251769.58109     -1306.375  
  22839035.078    22839038.547     2581529.52409   1945112.24809      2795.188  
  22779379.117    22779382.023    -3124979.74109  -2349145.41609     -2894.953  
 98 11 22 11 32  0.0000000  0  7G02G27G10G13G17G19G26
  22342141.586    22342145.348    -2568136.56209  -1916761.59809     -2238.109  
  20606189.711    20606191.141      354062.96301    279781.25409       689.438  
  20946814.844    20946816.672      791249.78409    419834.07409      1218.563  
  20803781.328    20803781.809      781264.78107    600612.08709      1093.266  
  24437124.359    24437128.145    -1743779.25109  -1256852.38509     -1302.781  
  22841695.047    22841698.645     2595508.78809   1956005.17009      2796.484  
  22776624.945    22776628.039    -3139451.52109  -2360422.11609     -2893.781  
 98 11 22 11 32  5.0000000  0  7G02G27G10G13G17G19G26
  22340013.117    22340016.938    -2579322.35109  -1925477.79709     -2236.031  
  20606846.750    20606848.273      357515.17509    282471.28709       691.625  
  20947975.000    20947977.086      797349.82709    424587.35209      1221.656  
  20804822.250    20804822.848      786735.37107    604874.88309      1095.141  
  24435887.758    24435890.746    -1750285.49609  -1261922.18009     -1299.484  
  22844356.508    22844360.270     2609493.39409   1966902.26409      2797.547  
  22773871.969    22773875.203    -3153918.55909  -2371695.12209     -2892.844  
 98 11 22 11 32 10.0000000  0  7G02G27G10G13G17G19G26
  22337886.836    22337890.668    -2590496.05809  -1934184.57509     -2233.672  
  20607505.930    20607507.559      360979.76001    285170.96309       694.000  
  20949138.977    20949141.121      803466.75909    429353.81309      1224.922  
  20805865.578    20805866.000      792217.08208    609146.34809      1097.328  
  24434651.742    24434657.672    -1756773.43709  -1266977.75409     -1295.906  
  22847019.109    22847023.000     2623484.84609   1977804.69209      2798.797  
  22771120.289    22771123.406    -3168379.49009  -2382963.36009     -2891.750  
 98 11 22 11 32 15.0000000  0  7G02G27G10G13G17G19G26
  22335762.750    22335766.711    -2601658.62109  -1942882.67309     -2231.234  
  20608167.414    20608169.113      364455.82101    287879.58309       696.516  
  20950306.234    20950307.793      809599.34909    434132.46609      1228.234  
  20806910.758    20806911.156      797709.25906    613425.96709      1099.656  
  24433420.992    24433426.465    -1763243.93509  -1272019.73209     -1292.172  
  22849682.289    22849685.816     2637482.09609   1988711.63309      2800.203  
  22768369.219    22768372.148    -3182835.32509  -2394227.63209     -2890.500  
 98 11 22 11 32 20.0000000  0  7G02G27G10G13G17G19G26
  22333640.688    22333644.520    -2612809.54309  -1951571.70009     -2229.109  
  20608830.961    20608832.637      367943.82901    290597.50409       698.703  
  20951476.250    20951479.051      815748.02009    438923.61509      1231.219  
  20807957.758    20807958.121      803212.59405    617714.28109      1101.688  
  24432192.766    24432199.410    -1769696.29109  -1277047.52709     -1288.734  
  22852347.117    22852350.586     2651485.76109   1999623.58109      2801.281  
  22765619.578    22765622.859    -3197285.46609  -2405487.45609     -2889.547  
 98 11 22 11 32 25.0000000  0  7G02G27G10G13G17G19G26
  22331520.688    22331524.824    -2623949.60509  -1960252.27309     -2226.766  
  20609496.727    20609498.355      371442.98609    293324.11509       701.109  
  20952649.141    20952652.023      821911.90509    443726.63309      1234.453  
  20809007.172    20809007.547      808726.37307    622010.73409      1103.969  
  24430970.078    24430974.344    -1776131.51109  -1282061.97909     -1285.188  
  22855013.719    22855017.668     2665494.97009   2010539.83709      2802.563  
  22762870.906    22762874.246    -3211730.66409  -2416743.43409     -2888.391  
 98 11 22 11 32 30.0000000  0  7G02G27G10G13G17G19G26
  22329402.852    22329406.871    -2635078.14509  -1968923.86109     -2224.688  
  20610164.914    20610166.578      374954.01409    296059.98209       703.266  
  20953825.039    20953828.191      828091.64909    448542.01209      1237.406  
  20810058.398    20810058.797      814251.34706    626315.90209      1105.984  
  24429747.086    24429750.227    -1782548.89709  -1287062.54909     -1281.828  
  22857680.586    22857684.523     2679510.55009   2021461.06709      2803.609  
  22760122.828    22760125.734    -3226170.41309  -2427995.16909     -2887.547  
 98 11 22 11 32 35.0000000  0  7G02G27G10G13G17G19G26
  22327287.352    22327291.418    -2646196.11609  -1977587.21209     -2222.188  
  20610835.102    20610836.941      378475.94609    298804.35009       705.813  
  20955004.313    20955006.738      834286.54409    453369.18709      1240.828  
  20811111.898    20811112.355      819786.60209    630629.08109      1108.438  
  24428529.758    24428532.805    -1788949.31809  -1292049.86809     -1278.063  
  22860349.336    22860353.332     2693531.52709   2032386.49509      2805.063  
  22757375.891    22757378.539    -3240605.63809  -2439243.38909     -2886.250  
 98 11 22 11 32 40.0000000  0  7G02G27G10G13G17G19G26
  22325173.891    22325177.957    -2657301.69209  -1986240.91009     -2219.891  
  20611507.727    20611509.473      382010.40209    301558.47409       708.109  
  20956185.836    20956187.746      840498.37109    458209.57609      1244.047  
  20812167.430    20812167.711      825333.84605    634951.60309      1110.641  
  24427314.172    24427318.344    -1795331.17909  -1297022.74009     -1274.563  
  22863018.930    22863022.422     2707559.55309   2043317.41509      2806.313  
  22754630.531    22754633.508    -3255034.62909  -2450486.74809     -2885.203  
 98 11 22 11 32 45.0000000  0  7G02G27G10G13G17G19G26
  22323062.570    22323066.895    -2668397.06009  -1994886.64809     -2217.734  
  20612182.289    20612184.223      385555.08509    304320.56409       710.281  
  20957370.844    20957373.094      846724.74309    463061.34809      1247.063  
  20813224.805    20813225.168      830890.80404    639281.69909      1112.688  
  24426103.297    24426108.723    -1801696.96109  -1301983.10609     -1271.234  
  22865688.828    22865692.238     2721592.44709   2054252.12509      2807.375  
  22751885.078    22751888.160    -3269459.57509  -2461726.95309     -2884.266  
 98 11 22 11 32 50.0000000  0  7G02G27G10G13G17G19G26
  22320953.672    22320957.996    -2679479.70209  -2003522.47509     -2215.375  
  20612859.313    20612861.586      389112.59409    307092.64809       712.703  
  20958559.266    20958561.891      852968.19609    467926.35709      1250.297  
  20814284.523    20814284.840      836460.13305    643621.43509      1115.016  
  24424897.164    24424902.180    -1808044.06909  -1306928.92809     -1267.625  
  22868360.773    22868364.090     2735632.76509   2065192.63109      2808.703  
  22749141.406    22749144.207    -3283877.66409  -2472961.81709     -2883.016  
 98 11 22 11 32 55.0000000  0  7G02G27G10G13G17G19G26
  22318846.672    22318851.031    -2690551.44809  -2012149.81509     -2213.484  
  20613538.188    20613540.391      392681.24609    309873.41909       714.609  
  20959750.563    20959753.891      859227.12409    472803.43509      1253.109  
  20815346.570    20815346.934      842040.15605    647969.50309      1116.844  
  24423691.031    24423697.219    -1814373.93909  -1311861.31109     -1264.469  
  22871033.797    22871037.055     2749678.67209   2076137.48709      2809.516  
  22746398.781    22746401.488    -3298290.70009  -2484192.74309     -2882.359  
 98 11 22 11 33  0.0000000  0  7G02G27G10G13G17G19G26
  22316741.852    22316746.094    -2701613.50509  -2020769.59409     -2211.313  
  20614219.227    20614221.652      396259.66209    312661.80409       716.797  
  20960944.047    20960947.117      865499.91709    477691.32509      1256.047  
  20816409.977    20816410.516      847629.65001    652324.94907      1118.984  
  24422490.953    24422496.484    -1820687.77409  -1316781.19209     -1261.063  
  22873707.617    22873710.852     2763728.61309   2087085.45709      2810.547  
  22743656.766    22743659.766    -3312700.09109  -2495420.80709     -2881.391  
 98 11 22 11 33  5.0000000  0  7G02G27G10G13G17G19G26
  22314638.859    22314643.148    -2712663.65009  -2029380.09409     -2208.859  
  20614902.805    20614905.184      399850.55309    315459.90509       719.438  
  20962140.453    20962144.109      871788.59409    482591.57609      1259.344  
  20817476.063    20817476.543      853231.08909    656689.70402      1121.484  
  24421292.102    24421297.855    -1826983.26009  -1321686.76909     -1257.281  
  22876382.328    22876385.234     2777784.99509   2098038.46709      2811.938  
  22740915.742    22740919.234    -3327103.51009  -2506644.22509     -2880.063  
 98 11 22 11 33 10.0000000  0  7G02G27G10G13G17G19G26
  22312538.297    22312542.949    -2723702.20609  -2037981.56409     -2206.438  
  20615588.352    20615590.871      403453.89109    318267.69609       722.031  
  20963340.070    20963343.082      878093.18209    487504.23809      1262.609  
  20818544.164    20818544.609      858844.30009    661063.63302      1123.953  
  24420098.320    24420104.930    -1833260.47309  -1326578.07409     -1253.500  
  22879058.539    22879061.527     2791847.66909   2108996.38809      2813.297  
  22738175.750    22738179.066    -3341501.01909  -2517863.06209     -2878.813  
 98 11 22 11 33 15.0000000  0  7G02G27G10G13G17G19G26
  22310439.852    22310444.445    -2734729.88209  -2046574.56109     -2204.563  
  20616276.242    20616278.738      407069.14709    321084.77909       724.125  
  20964543.414    20964546.121      884413.06909    492428.82409      1265.391  
  20819614.625    20819615.012      864468.75409    665446.31901      1125.891  
  24418907.023    24418914.668    -1839520.01109  -1331455.64709     -1250.266  
  22881735.617    22881738.723     2805916.18409   2119958.86109      2814.172  
  22735437.180    22735440.121    -3355893.23609  -2529077.76709     -2878.031  
 98 11 22 11 33 20.0000000  0  7G02G27G10G13G17G19G26
  22308343.148    22308347.813    -2745747.71509  -2055159.88309     -2202.766  
  20616966.328    20616968.930      410695.32309    323910.36609       726.156  
  20965748.375    20965750.262      890747.12209    497364.46009      1268.031  
  20820686.617    20820687.121      870103.25109    669836.83401      1127.719  
  24417718.836    24417724.930    -1845763.09209  -1336320.40509     -1247.172  
  22884413.867    22884417.137     2819989.61909   2130925.16209      2814.984  
  22732698.992    22732702.273    -3370281.14509  -2540289.11609     -2877.328  
 98 11 22 11 33 25.0000000  0  7G02G27G10G13G17G19G26
  22306248.336    22306252.930    -2756755.66909  -2063737.51209     -2200.344  
  20617658.500    20617661.113      414332.61709    326744.62209       728.828  
  20966956.719    20966960.211      897095.37109    502311.17609      1271.344  
  20821760.977    20821761.551      875747.74109    674235.13201      1130.156  
  24416533.523    24416538.598    -1851989.93609  -1341172.48809     -1243.500  
  22887092.820    22887096.219     2834067.98909   2141895.30609      2816.438  
  22729962.117    22729965.129    -3384664.69109  -2551497.05109     -2876.016  
 98 11 22 11 33 30.0000000  0  7G02G27G10G13G17G19G26
  22304155.961    22304160.637    -2767752.27209  -2072306.28809     -2198.203  
  20618353.016    20618355.793      417982.59101    329588.75809       731.234  
  20968167.188    20968171.137      903459.23809    507270.03309      1274.313  
  20822836.969    20822837.543      881403.68309    678642.35601      1132.328  
  24415351.922    24415356.398    -1858199.15409  -1346010.84709     -1240.094  
  22889772.500    22889776.086     2848152.52609   2152870.25509      2817.469  
  22727225.203    22727228.836    -3399042.38509  -2562700.42609     -2874.984  
 98 11 22 11 33 35.0000000  0  7G02G27G10G13G17G19G26
  22302065.211    22302069.852    -2778737.67209  -2080866.31909     -2195.984  
  20619049.797    20619052.328      421644.90001    332442.50601       733.703  
  20969381.789    20969385.305      909838.40609    512240.76409      1277.375  
  20823915.641    20823916.191      887070.88109    683058.35001      1134.578  
  24414173.625    24414179.625    -1864391.19309  -1350835.84509     -1236.719  
  22892453.789    22892457.598     2862242.69309   2163849.61309      2818.609  
  22724490.547    22724494.367    -3413414.35809  -2573899.37109     -2873.844  
 98 11 22 11 33 40.0000000  0  7G02G27G10G13G17G19G26
  22299977.148    22299982.070    -2789711.59409  -2089417.41409     -2193.781  
  20619749.273    20619751.781      425319.93609    335306.17409       736.125  
  20970598.633    20970602.383      916233.43809    517223.88309      1280.453  
  20824996.094    20824996.516      892749.86708    687483.53201      1136.859  
  24412998.977    24413005.691    -1870565.85909  -1355647.25209     -1233.375  
  22895136.180    22895140.164     2876339.03009   2174833.75409      2819.750  
  22721757.430    22721761.531    -3427780.36609  -2585093.65709     -2872.781  
 98 11 22 11 33 45.0000000  0  7G02G27G10G13G17G19G26
  22297890.852    22297895.938    -2800674.25409  -2097959.75509     -2191.484  
  20620450.922    20620453.512      429007.46809    338179.57409       738.703  
  20971818.328    20971821.316      922644.23509    522219.28109      1283.672  
  20826079.188    20826079.551      898440.65103    691917.91601      1139.281  
  24411826.703    24411832.762    -1876723.22109  -1360445.14009     -1229.813  
  22897819.797    22897823.617     2890441.43809   2185822.63209      2821.000  
  22719024.547    22719027.559    -3442140.56309  -2596283.40609     -2871.516  
 98 11 22 11 33 50.0000000  0  7G02G27G10G13G17G19G26
  22295806.500    22295811.434    -2811626.95709  -2106494.34509     -2189.609  
  20621154.820    20621157.293      432706.43909    341061.88509       740.922  
  20973041.148    20973043.070      929069.87009    527226.26809      1286.563  
  20827164.117    20827164.516      904142.30001    696360.76901      1141.375  
  24410658.211    24410664.984    -1882864.46309  -1365230.52709     -1226.703  
  22900504.680    22900508.641     2904548.73109   2196815.33009      2821.906  
  22716292.898    22716296.367    -3456496.15409  -2607469.56309     -2870.734  
 98 11 22 11 33 55.0000000  0  7G02G27G10G13G17G19G26
  22293724.047    22293728.793    -2822569.88009  -2115021.29509     -2187.531  
  20621860.773    20621863.211      436416.76501    343953.05009       743.250  
  20974266.617    20974268.527      935510.44309    532244.91909      1289.688  
  20828251.023    20828251.633      909854.60609    700811.91101      1143.578  
  24409492.898    24409498.371    -1888989.67109  -1370003.43409     -1223.406  
  22903189.383    22903193.461     2918660.90509   2207811.81809      2822.984  
  22713561.477    22713564.617    -3470847.47109  -2618652.39909     -2869.766  
 98 11 22 11 34  0.0000000  0  7G02G27G10G13G17G19G26
  22291643.766    22291648.652    -2833501.45509  -2123539.39609     -2185.484  
  20622569.367    20622572.016      440139.73501    346854.07101       745.578  
  20975495.070    20975497.578      941967.66209    537276.53109      1292.844  
  20829340.406    20829341.063      915579.01509    705272.48001      1145.813  
  24408331.164    24408334.422    -1895097.47409  -1374762.75109     -1220.109  
  22905876.555    22905880.855     2932779.50109   2218813.30309      2824.078  
  22710831.547    22710834.160    -3485193.20809  -2629830.88709     -2868.906  
 98 11 22 11 34  5.0000000  0  7G02G27G10G13G17G19G26
  22289565.883    22289570.605    -2844423.38409  -2132049.98809     -2183.531  
  20623279.883    20623282.695      443873.73201    349763.67801       747.813  
  20976727.242    20976730.676      948440.01109    542319.92509      1295.875  
  20830431.672    20830432.246      921313.84909    709741.17401      1147.906  
  24407170.953    24407175.699    -1901189.46509  -1379509.74609     -1216.938  
  22908564.031    22908568.590     2946902.81409   2229818.47409      2825.031  
  22708102.742    22708105.637    -3499535.17209  -2641006.44009     -2868.141  
 98 11 22 11 34 10.0000000  0  7G02G27G10G13G17G19G26
  22287489.344    22287493.855    -2855334.65309  -2140552.27409     -2181.156  
  20623992.852    20623995.605      447619.60101    352682.53801       750.375  
  20977961.547    20977965.250      954928.40009    547375.80109      1299.328  
  20831525.242    20831525.887      927059.97707    714218.67101      1150.391  
  24406016.289    24406020.953    -1907264.69609  -1384243.69409     -1213.344  
  22911252.391    22911256.914     2961031.70309   2240827.98709      2826.359  
  22705374.500    22705377.348    -3513872.63409  -2652178.48809     -2867.016  
 98 11 22 11 34 15.0000000  0  7G02G27G10G13G17G19G26
  22285415.023    22285419.582    -2866235.08509  -2149046.11509     -2178.750  
  20624707.781    20624710.582      451377.48001    355610.75501       753.016  
  20979199.461    20979202.965      961432.84109    552444.18709      1302.734  
  20832620.688    20832621.273      932817.55605    718705.09401      1152.906  
  24404862.180    24404867.383    -1913323.00909  -1388964.48409     -1209.750  
  22913942.078    22913946.871     2975166.13809   2251841.83009      2827.672  
  22702647.047    22702650.141    -3528205.56609  -2663346.99509     -2865.906  
 98 11 22 11 34 20.0000000  0  7G02G27G10G13G17G19G26
  22283343.305    22283347.828    -2877123.89309  -2157530.89709     -2176.641  
  20625425.172    20625427.949      455147.86801    358548.71901       755.297  
  20980439.883    20980444.652      967953.74609    557525.39809      1305.781  
  20833718.563    20833719.242      938587.09304    723200.83601      1155.094  
  24403713.203    24403719.707    -1919364.01409  -1393671.77609     -1206.500  
  22916632.625    22916636.949     2989306.59009   2262860.35409      2828.672  
  22699920.586    22699923.469    -3542533.58609  -2674511.67709     -2865.125  
 98 11 22 11 34 25.0000000  0  7G02G27G10G13G17G19G26
  22281273.484    22281278.066    -2888000.10309  -2166005.86909     -2173.938  
  20626145.414    20626148.133      458931.64501    361497.11801       758.125  
  20981684.719    20981688.141      974492.00509    562620.13809      1309.453  
  20834819.086    20834819.813      944369.58705    727706.67201      1157.844  
  24402566.289    24402573.734    -1925386.55509  -1398364.65809     -1202.578  
  22919325.336    22919329.918     3003453.98209   2273884.29309      2830.234  
  22697194.898    22697197.477    -3556855.52409  -2685671.61509     -2863.703  
 98 11 22 11 34 30.0000000  0  7G02G27G10G13G17G19G26
  22279205.820    22279210.449    -2898865.81809  -2174472.67209     -2171.766  
  20626867.641    20626870.254      462726.72601    364454.32301       760.469  
  20982931.594    20982934.957      981045.80609    567726.98909      1312.672  
  20835921.563    20835922.383      950163.12009    732221.10901      1160.141  
  24401424.344    24401430.906    -1931392.56109  -1403044.67009     -1199.219  
  22922018.500    22922023.410     3017606.22309   2284911.99209      2831.266  
  22694469.961    22694473.230    -3571173.42409  -2696828.40509     -2862.844  
 98 11 22 11 34 35.0000000  0  7G02G27G10G13G17G19G26
  22277140.578    22277145.090    -2909719.04809  -2182929.73509     -2169.688  
  20627592.227    20627594.828      466535.09201    367421.88501       762.703  
  20984182.164    20984184.180      987617.34309    572847.64409      1315.797  
  20837026.531    20837027.363      955969.64309    736745.67201      1162.297  
  24400285.352    24400291.199    -1937380.05209  -1407710.22109     -1195.938  
  22924713.336    22924717.883     3031765.38809   2295945.10209      2832.234  
  22691747.188    22691750.973    -3585485.02109  -2707980.26509     -2861.953  
 98 11 22 11 34 40.0000000  0  7G02G27G10G13G17G19G26
  22275077.352    22275081.488    -2920561.33109  -2191378.26009     -2167.188  
  20628319.266    20628321.773      470354.91101    370398.36701       765.266  
  20985435.430    20985437.492      994205.11809    577980.95809      1319.344  
  20838133.484    20838134.281      961787.27409    741278.89201      1164.781  
  24399149.250    24399154.371    -1943350.74309  -1412362.72809     -1192.328  
  22927408.047    22927412.148     3045929.92709   2306982.39909      2833.625  
  22689024.477    22689028.777    -3599791.76109  -2719128.35209     -2860.734  
 98 11 22 11 34 45.0000000  0  7G02G27G10G13G17G19G26
  22273016.070    22273020.031    -2931393.24609  -2199818.71009     -2165.313  
  20629048.141    20629050.695      474185.63601    373383.34801       767.281  
  20986692.117    20986695.258     1000808.67509    583126.58409      1322.344  
  20839242.430    20839243.086      967615.21505    745820.14601      1166.656  
  24398015.156    24398020.453    -1949305.15609  -1417002.55409     -1189.188  
  22930104.578    22930109.137     3060099.35909   2318023.50809      2834.422  
  22686302.898    22686307.000    -3614094.36709  -2730273.21709     -2860.078  
 98 11 22 11 34 50.0000000  0  7G02G27G10G13G17G19G26
  22270957.156    22270961.082    -2942214.57409  -2208250.91109     -2163.016  
  20629779.281    20629781.883      478027.61001    376377.09401       769.719  
  20987951.680    20987953.918     1007428.39409    588284.80509      1325.766  
  20840353.563    20840354.477      973453.69809    750369.61301      1168.953  
  24396885.523    24396890.211    -1955242.78909  -1421629.25609     -1185.625  
  22932802.266    22932806.813     3074274.00809   2329068.67309      2835.656  
  22683581.844    22683586.168    -3628392.51509  -2741414.63309     -2859.000  
 98 11 22 11 34 55.0000000  0  7G02G27G10G13G17G19G26
  22268899.531    22268903.340    -2953025.56909  -2216675.06209     -2161.078  
  20630512.375    20630514.953      481880.60201    379379.42801       771.766  
  20989214.688    20989218.367     1014063.84609    593455.29109      1328.719  
  20841466.461    20841467.340      979302.45109    754927.08001      1170.844  
  24395758.313    24395763.750    -1961163.89409  -1426243.08409     -1182.484  
  22935500.359    22935504.578     3088453.60709   2340117.69809      2836.516  
  22680862.094    22680866.055    -3642686.51009  -2752552.80009     -2858.297  
 98 11 22 11 35  0.0000000  0  7G02G27G10G13G17G19G26
  22266844.828    22266848.238    -2963824.82509  -2225090.05709     -2158.656  
  20631247.984    20631250.480      485746.04301    382391.46101       774.391  
  20990480.547    20990483.805     1020716.21009    598638.94209      1332.203  
  20842581.695    20842582.539      985162.79007    759493.58001      1173.281  
  24394634.602    24394641.387    -1967067.13109  -1430842.99109     -1178.797  
  22938199.195    22938203.262     3102639.67509   2351171.76609      2837.922  
  22678143.359    22678147.051    -3656974.91509  -2763686.61009     -2857.078  
 98 11 22 11 35  5.0000000  0  7G02G27G10G13G17G19G26
  22264791.508    22264794.988    -2974614.32409  -2233497.45809     -2157.109  
  20631985.688    20631988.254      489622.40401    385412.00501       776.188  
  20991749.102    20991752.992     1027383.95809    603834.59709      1334.922  
  20843698.734    20843699.684      991033.17704    764067.90801      1174.906  
  24393515.102    24393522.125    -1972954.08309  -1435430.22909     -1175.953  
  22940899.422    22940903.547     3116830.76709   2362229.76709      2838.547  
  22675425.164    22675427.918    -3671259.39309  -2774817.38209     -2856.688  
 98 11 22 11 35 10.0000000  0  7G02G27G10G13G17G19G26
  22262740.219    22262743.465    -2985393.78409  -2241897.02509     -2154.719  
  20632725.500    20632727.938      493509.84001    388441.17502       778.766  
  20993021.008    20993024.629     1034067.41909    609042.49409      1338.438  
  20844817.813    20844819.043      996913.78701    768650.20409      1177.297  
  24392397.922    24392404.473    -1978824.31609  -1440004.45309     -1172.188  
  22943600.820    22943605.203     3131027.13109   2373291.87409      2839.953  
  22672708.047    22672710.941    -3685539.70709  -2785944.89009     -2855.453  
 98 11 22 11 35 15.0000000  0  7G02G27G10G13G17G19G26
  22260690.969    22260694.215    -2996162.27401  -2250288.05809     -2152.375  
  20633467.445    20633469.988      497409.09003    391479.55403       781.250  
  20994296.023    20994300.418     1040767.29809    614263.17209      1341.813  
  20845938.922    20845940.059     1002805.35201    773241.02809      1179.625  
  24391284.859    24391290.402    -1984676.84209  -1444564.83209     -1168.547  
  22946303.805    22946308.352     3145229.57909   2384358.71809      2841.344  
  22669991.055    22669994.242    -3699815.29609  -2797068.70309     -2854.422  
 98 11 22 11 35 20.0000000  0  7G02G27G10G13G17G19G26
  22258644.133    22258647.180    -3006918.87201  -2258669.82209     -2150.281  
  20634211.836    20634214.461      501320.86601    394527.69502       783.453  
  20995573.969    20995578.059     1047484.21009    619497.13009      1344.953  
  20847062.242    20847063.332     1008708.56301    777840.93209      1181.641  
  24390174.211    24390179.367    -1990511.22309  -1449111.12209     -1165.203  
  22949007.781    22949012.621     3159439.01409   2395431.00809      2842.438  
  22667275.914    22667279.336    -3714085.32309  -2808188.18609     -2853.609  
 98 11 22 11 35 25.0000000  0  7G02G27G10G13G17G19G26
  22256599.703    22256602.738    -3017662.90301  -2267041.79409     -2147.453  
  20634958.508    20634961.063      505245.63803    397585.95602       786.297  
  20996855.977    20996860.066     1054219.20309    624745.14909      1348.922  
  20848187.844    20848189.109     1014623.96002    782450.33309      1184.359  
  24389067.016    24389071.820    -1996326.95409  -1453642.89609     -1161.203  
  22951713.078    22951717.883     3173656.05609   2406509.21409      2844.250  
  22664561.602    22664564.168    -3728349.13109  -2819302.82509     -2852.078  
 98 11 22 11 35 30.0000000  0  7G02G27G10G13G17G19G26
  22254557.734    22254560.781    -3028394.51001  -2275404.08209     -2145.047  
  20635707.914    20635710.469      509182.58501    400653.70702       788.625  
  20998141.125    20998145.496     1060972.08109    630007.13909      1352.391  
  20849315.680    20849317.004     1020551.12107    787068.89601      1186.641  
  24387963.969    24387970.484    -2002124.48309  -1458160.42909     -1157.656  
  22954419.828    22954424.785     3187880.26609   2417593.01009      2845.563  
  22661848.539    22661851.223    -3742607.32809  -2830413.09009     -2851.063  
 98 11 22 11 35 35.0000000  0  7G02G27G10G13G17G19G26
  22252517.531    22252520.602    -3039114.94301  -2283757.66009     -2142.813  
  20636459.031    20636461.750      513130.07302    403729.67602       790.688  
  20999428.820    20999433.508     1067741.39609    635281.92109      1355.672  
  20850445.664    20850446.965     1026488.53106    791695.45101      1188.641  
  24386863.852    24386871.133    -2007905.18409  -1462664.88109     -1154.281  
  22957127.813    22957132.465     3202109.94109   2428681.06409      2846.625  
  22659136.250    22659139.203    -3756861.43809  -2841520.18309     -2850.250  
 98 11 22 11 35 40.0000000  0  7G02G27G10G13G17G19G26
  22250480.250    22250483.438    -3049820.88801  -2292099.95109     -2139.891  
  20637212.805    20637215.559      517091.36001    406816.39602       793.484  
  21000720.945    21000723.840     1074530.38509    640572.02409      1359.625  
  20851578.164    20851579.559     1032439.24609    796332.37501      1191.328  
  24385767.891    24385774.301    -2013665.60709  -1467153.53109     -1150.203  
  22959837.203    22959842.441     3216348.15109   2439775.77109      2848.328  
  22656424.758    22656427.875    -3771108.08809  -2852621.45409     -2848.734  
 98 11 22 11 35 45.0000000  0  7G02G27G10G13G17G19G26
  22248445.281    22248448.551    -3060515.65001  -2300433.53009     -2138.078  
  20637968.445    20637971.035      521062.91905    409911.11404       795.078  
  21002015.961    21002018.914     1081335.76109    645874.91009      1362.469  
  20852712.313    20852713.777     1038400.01104    800977.12401      1192.906  
  24384674.648    24384681.328    -2019408.90409  -1471628.77709     -1147.250  
  22962547.633    22962552.543     3230591.27409   2450874.30709      2848.844  
  22653714.469    22653717.574    -3785350.70209  -2863719.57409     -2848.375  
 98 11 22 11 35 50.0000000  0  7G02G27G10G13G17G19G26
  22246411.977    22246415.035    -3071199.93201  -2308758.93809     -2136.125  
  20638726.188    20638728.672      525043.91007    413013.18407       796.813  
  21003314.102    21003317.266     1088156.94809    651190.13709      1365.500  
  20853848.313    20853849.766     1044370.08201    805629.12501      1194.625  
  24383585.313    24383592.074    -2025135.75109  -1476091.24609     -1144.031  
  22965258.688    22965263.750     3244838.51809   2461976.03109      2849.547  
  22651004.953    22651007.918    -3799589.93309  -2874815.06309     -2847.844  
 98 11 22 11 35 55.0000000  0  7G02G27G10G13G17G19G26
  22244380.711    22244383.594    -3081874.95001  -2317077.12609     -2133.859  
  20639485.352    20639487.965      529033.10307    416121.64508       798.875  
  21004614.398    21004618.828     1094992.48809    656516.50909      1368.750  
  20854986.281    20854987.887     1050348.06401    810287.29401      1196.594  
  24382498.484    24382503.910    -2030847.65509  -1480542.07809     -1140.688  
  22967970.914    22967975.168     3259088.69609   2473080.04909      2850.547  
  22648295.734    22648298.359    -3813827.07709  -2885908.92809     -2847.016  
 98 11 22 11 36  0.0000000  0  7G02G27G10G13G17G19G26
  22242351.602    22242354.414    -3092538.01501  -2325386.00009     -2131.344  
  20640246.602    20640249.215      533033.24304    419238.63909       801.172  
  21005918.867    21005922.805     1101844.91209    661856.05609      1372.219  
  20856125.750    20856127.238     1056336.61205    814953.69501      1198.797  
  24381415.102    24381420.023    -2036541.91609  -1484979.17509     -1137.047  
  22970683.508    22970687.926     3273344.60709   2484188.54609      2851.797  
  22645587.180    22645589.992    -3828059.62809  -2896999.21409     -2846.000  
 98 11 22 11 36  5.0000000  0  7G02G27G10G13G17G19G26
  22240325.367    22240328.051    -3103186.70601  -2333683.67309     -2128.422  
  20641010.148    20641012.715      537046.54305    422365.88908       803.844  
  21007226.164    21007230.371     1108716.39609    667210.44809      1376.078  
  20857267.578    20857268.949     1062337.67206    819629.84201      1201.328  
  24380335.156    24380341.168    -2042216.23209  -1489400.72909     -1133.016  
  22973398.000    22973402.254     3287608.26109   2495303.07409      2853.359  
  22642880.203    22642882.781    -3842285.39909  -2908084.21409     -2844.625  
 98 11 22 11 36 10.0000000  0  7G02G27G10G13G17G19G26
  22238300.875    22238303.664    -3113823.48404  -2341972.06609     -2126.438  
  20641776.078    20641778.598      541070.57005    425501.50007       805.578  
  21008537.617    21008541.203     1115604.47509    672577.76809      1379.000  
  20858411.555    20858413.078     1068348.78805    824313.82701      1202.938  
  24379257.961    24379264.523    -2047873.20409  -1493808.76809     -1129.953  
  22976113.203    22976117.047     3301877.07409   2506421.61909      2854.000  
  22640173.633    22640176.316    -3856506.86809  -2919165.86309     -2844.125  
 98 11 22 11 36 15.0000000  0  7G02G27G10G13G17G19G26
  22236279.266    22236281.973    -3124448.43905  -2350251.24009     -2123.563  
  20642543.578    20642546.309      545105.05006    428645.25707       808.188  
  21009851.258    21009854.762     1122508.84109    677957.78009      1382.734  
  20859557.211    20859558.383     1074369.65408    829005.40501      1205.391  
  24378184.891    24378191.973    -2053513.10509  -1498203.45109     -1126.031  
  22978829.289    22978833.813     3316150.74709   2517543.94709      2855.453  
  22637468.242    22637470.633    -3870724.01209  -2930244.14509     -2842.750  
 98 11 22 11 36 20.0000000  0  7G02G27G10G13G17G19G26
  22234260.102    22234262.891    -3135059.18605  -2358519.34409     -2120.875  
  20643313.781    20643316.535      549152.32708    431798.98509       810.578  
  21011168.438    21011170.641     1129431.60109    683352.12509      1386.219  
  20860705.211    20860706.125     1080402.58705    833706.38701      1207.641  
  24377115.203    24377121.344    -2059133.63709  -1502583.06909     -1122.313  
  22981547.125    22981551.801     3330431.39109   2528671.72309      2856.688  
  22634764.031    22634766.832    -3884934.28709  -2941317.07209     -2841.484  
 98 11 22 11 36 25.0000000  0  7G02G27G10G13G17G19G26
  22232243.344    22232246.238    -3145657.40101  -2366777.70109     -2118.469  
  20644086.109    20644088.746      553210.71103    434961.35907       812.719  
  21012488.836    21012491.672     1136370.82609    688759.32609      1389.422  
  20861855.328    20861856.313     1086445.95304    838415.50901      1209.625  
  24376049.531    24376053.211    -2064736.47909  -1506948.95009     -1118.906  
  22984265.789    22984269.645     3344717.32809   2539803.61909      2857.625  
  22632061.063    22632064.438    -3899139.19209  -2952385.81109     -2840.531  
 98 11 22 11 36 30.0000000  0  7G02G27G10G13G17G19G26
  22230228.797    22230231.938    -3156242.95803  -2375026.19609     -2116.203  
  20644860.422    20644862.965      557280.08802    438132.30006       814.609  
  21013812.383    21013815.781     1143326.49809    694179.33709      1392.406  
  20863007.398    20863008.500     1092499.76805    843132.76901      1211.453  
  24374986.727    24374990.629    -2070321.63809  -1511301.04809     -1115.656  
  22986985.125    22986988.617     3359008.48509   2550939.58109      2858.406  
  22629358.781    22629361.992    -3913338.69509  -2963450.33709     -2839.703  
 98 11 22 11 36 35.0000000  0  7G02G27G10G13G17G19G26
  22228216.477    22228219.734    -3166818.10705  -2383266.56609     -2113.797  
  20645636.656    20645639.094      561358.11105    441309.98206       816.656  
  21015139.414    21015143.844     1150296.17509    699610.25709      1395.531  
  20864160.938    20864162.004     1098561.66609    847856.32301      1213.375  
  24373926.813    24373933.199    -2075891.39509  -1515641.12309     -1112.234  
  22989705.070    22989708.316     3373302.65809   2562077.89209      2859.328  
  22626657.414    22626660.414    -3927534.89409  -2974512.29609     -2838.688  
 98 11 22 11 36 40.0000000  0  7G02G27G10G13G17G19G26
  22226206.445    22226209.551    -3177380.92705  -2391497.32109     -2111.266  
  20646414.727    20646417.234      565447.06008    444496.17408       819.016  
  21016468.781    21016472.660     1157282.11809    705053.82409      1398.922  
  20865316.469    20865317.430     1104633.90209    852587.94101      1215.609  
  24372869.422    24372876.184    -2081443.72509  -1519967.58309     -1108.578  
  22992426.656    22992430.008     3387602.04909   2573220.26909      2860.484  
  22623956.742    22623959.859    -3941725.54309  -2985569.93509     -2837.469  
 98 11 22 11 36 45.0000000  0  7G02G27G10G13G17G19G26
  22224198.625    22224201.707    -3187931.78505  -2399718.75309     -2108.953  
  20647194.828    20647197.289      569547.05008    447690.97409       821.109  
  21017801.227    21017804.555     1164284.39109    710510.13309      1402.125  
  20866473.984    20866474.828     1110716.50409    857327.63501      1217.578  
  24371816.938    24371823.879    -2086978.47109  -1524280.35709     -1105.172  
  22995148.891    22995152.219     3401906.54309   2584366.61909      2861.422  
  22621257.523    22621260.078    -3955910.71109  -2996623.30109     -2836.469  
 98 11 22 11 36 50.0000000  0  7G02G27G10G13G17G19G26
  22222193.164    22222196.316    -3198470.72006  -2407930.89709     -2106.438  
  20647976.914    20647979.434      573657.90509    450894.24309       823.391  
  21019136.375    21019140.277     1171303.01009    715979.18509      1405.500  
  20867633.297    20867634.281     1116809.43609    862075.37501      1219.750  
  24370765.609    24370772.680    -2092495.79909  -1528579.56009     -1101.594  
  22997871.422    22997874.879     3416215.96509   2595516.81309      2862.500  
  22618559.305    22618561.637    -3970090.46109  -3007672.45409     -2835.266  
 98 11 22 11 36 55.0000000  0  7G02G27G10G13G17G19G26
  22220190.109    22220193.367    -3208997.05805  -2416133.22809     -2104.234  
  20648761.352    20648763.883      577780.11509    454106.35709       825.344  
  21020475.297    21020478.801     1178338.53109    721461.40209      1408.547  
  20868794.719    20868795.668     1122913.09309    866831.47201      1221.578  
  24369719.734    24369725.629    -2097995.29909  -1532864.89309     -1098.328  
  23000595.453    23000598.945     3430530.85809   2606671.26609      2863.313  
  22615861.953    22615864.578    -3984264.12509  -3018716.86109     -2834.359  
 98 11 22 11 37  0.0000000  0  7G02G27G10G13G17G19G26
  22218188.875    22218192.191    -3219513.53103  -2424327.87809     -2102.344  
  20649547.727    20649550.293      581911.01709    457325.23909       827.031  
  21021816.602    21021819.848     1185388.21609    726954.65409      1411.313  
  20869957.891    20869958.746     1129024.68709    871593.75701      1223.094  
  24368676.234    24368683.574    -2103479.66509  -1537138.43109     -1095.422  
  23003320.023    23003323.680     3444848.57609   2617827.92509      2863.781  
  22613165.766    22613168.262    -3998434.52909  -3029758.73209     -2833.813  
 98 11 22 11 37  5.0000000  0  7G02G27G10G13G17G19G26
  22216189.898    22216193.285    -3230018.03202  -2432513.20009     -2099.422  
  20650335.766    20650338.344      586052.95909    460552.72409       829.766  
  21023161.523    21023164.617     1192454.18509    732460.59309      1415.109  
  20871122.875    20871123.789     1135146.36302    876363.89701      1225.641  
  24367636.766    24367643.586    -2108946.88509  -1541398.61109     -1091.422  
  23006045.883    23006049.656     3459171.07009   2628988.29609      2865.219  
  22610470.414    22610472.934    -4012599.79809  -3040796.58709     -2832.266  
 98 11 22 11 37 10.0000000  0  7G02G27G10G13G17G19G26
  22214193.570    22214197.086    -3240509.11401  -2440688.07009     -2097.078  
  20651126.344    20651128.734      590207.33609    463789.90309       831.922  
  21024509.539    21024512.047     1199537.85909    737980.33909      1418.313  
  20872290.031    20872290.957     1141279.77404    881143.17801      1227.656  
  24366599.297    24366604.676    -2114395.49709  -1545644.30609     -1088.063  
  23008772.664    23008776.180     3473499.64709   2640153.41809      2866.125  
  22607775.602    22607778.355    -4026758.38309  -3051829.23609     -2831.266  
 98 11 22 11 37 15.0000000  0  7G02G27G10G13G17G19G26
  22212199.109    22212202.672    -3250989.41501  -2448854.53409     -2094.906  
  20651918.820    20651921.188      594371.28109    467034.53509       833.828  
  21025859.992    21025862.512     1206636.55909    743511.77609      1421.344  
  20873458.828    20873459.648     1147422.18005    885929.46003      1229.469  
  24365564.938    24365571.523    -2119828.37909  -1549877.71409     -1084.906  
  23011499.734    23011503.027     3487831.52609   2651321.09609      2866.781  
  22605082.203    22605084.945    -4040912.90509  -3062858.71709     -2830.391  
 98 11 22 11 37 20.0000000  0  7G02G27G10G13G17G19G26
  22210207.188    22210210.750    -3261456.86301  -2457010.98009     -2092.172  
  20652713.516    20652715.871      598546.71309    470288.12009       836.234  
  21027215.016    21027218.461     1213752.48409    749056.63409      1424.938  
  20874629.852    20874630.637     1153575.66005    890724.37801      1231.828  
  24364534.484    24364539.945    -2125243.40609  -1554097.16009     -1081.172  
  23014227.922    23014231.344     3502168.63609   2662492.86309      2867.938  
  22602389.844    22602392.738    -4055061.13809  -3073883.30509     -2829.000  
 98 11 22 11 37 25.0000000  0  7G02G27G10G13G17G19G26
  22208218.039    22208221.660    -3271910.70202  -2465156.81809     -2089.547  
  20653510.188    20653512.555      602734.13408    473551.04609       838.516  
  21028571.953    21028575.715     1220886.31209    754615.45709      1428.406  
  20875803.008    20875803.957     1159740.95009    895528.50101      1234.063  
  24363507.703    24363515.008    -2130639.84009  -1558302.18109     -1077.547  
  23016956.938    23016960.430     3516511.39909   2673669.03209      2868.953  
  22599698.984    22599701.820    -4069202.48909  -3084902.53109     -2827.703  
 98 11 22 11 37 30.0000000  0  7G02G27G10G13G17G19G26
  22206231.078    22206234.348    -3282352.19301  -2473293.03509     -2087.250  
  20654309.133    20654311.465      606931.91307    476822.04209       840.406  
  21029932.797    21029936.184     1228036.51509    760187.05009      1431.469  
  20876978.109    20876978.988     1165916.40504    900340.54501      1235.938  
  24362483.484    24362489.730    -2136019.09709  -1562493.78109     -1074.359  
  23019687.133    23019690.637     3530858.17309   2684848.32909      2869.531  
  22597008.438    22597011.145    -4083338.34409  -3095917.47709     -2826.797  
 98 11 22 11 37 35.0000000  0  7G02G27G10G13G17G19G26
  22204246.148    22204249.652    -3292782.33301  -2481420.40709     -2084.484  
  20655109.500    20655111.926      611138.98902    480100.28709       842.750  
  21031296.391    21031299.156     1235201.87809    765770.44609      1435.000  
  20878154.992    20878155.848     1172101.09204    905159.78001      1238.250  
  24361463.680    24361469.340    -2141382.59209  -1566673.13809     -1070.750  
  23022417.945    23022421.613     3545207.74709   2696029.81309      2870.594  
  22594319.750    22594322.656    -4097469.56909  -3106928.80809     -2825.359  
 98 11 22 11 37 40.0000000  0  7G02G27G10G13G17G19G26
  22202263.734    22202267.191    -3303199.49601  -2489537.67409     -2082.156  
  20655912.414    20655914.863      615357.34902    483387.32409       844.781  
  21032662.820    21032665.270     1242384.24709    771367.09209      1438.188  
  20879334.188    20879335.172     1178296.60609    909987.45201      1240.156  
  24360445.617    24360453.227    -2146728.80709  -1570839.01009     -1067.531  
  23025149.430    23025153.719     3559561.92409   2707214.87609      2871.297  
  22591631.531    22591634.648    -4111594.46209  -3117935.20209     -2824.344  
 98 11 22 11 37 45.0000000  0  7G02G27G10G13G17G19G26
  22200284.258    22200287.609    -3313602.79701  -2497644.14209     -2079.438  
  20656717.203    20656719.723      619587.88302    486683.84909       847.156  
  21034033.008    21034036.453     1249584.64509    776977.79909      1441.688  
  20880515.258    20880516.172     1184503.74702    914824.18601      1242.406  
  24359432.602    24359439.188    -2152056.72709  -1574990.65009     -1063.891  
  23027881.758    23027885.883     3573921.60209   2718404.22809      2872.313  
  22588945.109    22588948.297    -4125712.02609  -3128935.89209     -2822.938  
 98 11 22 11 37 50.0000000  0  7G02G27G10G13G17G19G26
  22198306.648    22198309.895    -3323994.07801  -2505741.24509     -2077.172  
  20657524.555    20657526.910      623829.00106    489988.61709       849.188  
  21035406.422    21035410.242     1256800.96009    782600.88909      1444.719  
  20881698.289    20881699.285     1190720.65001    919668.52302      1244.234  
  24358421.305    24358426.637    -2157367.76509  -1579129.12009     -1060.594  
  23030615.094    23030619.711     3588285.15809   2729596.59609      2873.000  
  22586259.859    22586263.352    -4139823.81309  -3139932.07709     -2821.859  
 98 11 22 11 37 55.0000000  0  7G02G27G10G13G17G19G26
  22196331.438    22196334.566    -3334373.80301  -2513829.33609     -2074.578  
  20658333.414    20658335.688      628080.56906    493301.52609       851.594  
  21036782.172    21036784.996     1264032.62209    788235.94909      1448.094  
  20882883.156    20882884.129     1196946.93901    924520.17502      1246.406  
  24357414.070    24357420.199    -2162662.16409  -1583254.61209     -1057.016  
  23033349.094    23033353.453     3602652.44809   2740791.86909      2874.063  
  22583575.508    22583579.258    -4153929.96809  -3150923.87009     -2820.453  
 98 11 22 11 38  0.0000000  0  7G02G27G10G13G17G19G26
  22194358.820    22194361.938    -3344740.24601  -2521907.08109     -2072.109  
  20659144.695    20659146.898      632344.32602    496623.93009       853.797  
  21038161.516    21038164.609     1271281.14909    793884.13809      1451.219  
  20884069.953    20884070.996     1203184.37406    929380.51301      1248.453  
  24356410.063    24356415.230    -2167938.40209  -1587365.96109     -1053.625  
  23036084.586    23036088.699     3617025.37409   2751991.54809      2874.984  
  22580892.148    22580895.805    -4168028.88509  -3161910.02309     -2819.234  
 98 11 22 11 38  5.0000000  0  7G02G27G10G13G17G19G26
  22192388.398    22192391.563    -3355094.58901  -2529975.39809     -2069.609  
  20659958.391    20659960.664      636618.96701    499954.82505       856.094  
  21039544.102    21039547.207     1278545.03909    799544.30509      1454.328  
  20885258.813    20885259.996     1209431.74302    934248.58402      1250.500  
  24355410.023    24355416.867    -2173197.93409  -1591464.28709     -1050.219  
  23038820.422    23038824.371     3631402.77409   2763194.71209      2875.953  
  22578210.383    22578213.992    -4182121.98309  -3172891.65209     -2817.969  
 98 11 22 11 38 10.0000000  0  7G02G27G10G13G17G19G26
  22190420.523    22190423.746    -3365436.69301  -2538034.17409     -2067.453  
  20660773.727    20660776.047      640904.90604    503294.52009       858.078  
  21040929.219    21040932.430     1285824.26609    805216.41809      1457.125  
  20886449.586    20886450.723     1215689.19303    939124.52301      1252.250  
  24354411.109    24354418.520    -2178440.80609  -1595549.67009     -1047.141  
  23041557.117    23041561.160     3645784.84609   2774401.50509      2876.625  
  22575529.602    22575532.941    -4196209.00209  -3183868.53109     -2817.078  
 98 11 22 11 38 15.0000000  0  7G02G27G10G13G17G19G26
  22188454.570    22188457.723    -3375767.36101  -2546084.04109     -2064.953  
  20661591.391    20661593.828      645201.44106    506642.46609       860.406  
  21042317.117    21042319.965     1293118.07009    810899.90509      1460.281  
  20887642.180    20887643.270     1221956.07204    944007.81301      1254.375  
  24353416.664    24353424.555    -2183667.47909  -1599622.39909     -1043.688  
  23044294.547    23044298.227     3660170.74709   2785611.27209      2877.594  
  22572850.047    22572853.668    -4210290.78609  -3194841.33609     -2815.781  
 98 11 22 11 38 20.0000000  0  7G02G27G10G13G17G19G26
  22186490.758    22186494.145    -3386086.12201  -2554124.63009     -2062.797  
  20662411.297    20662413.688      649509.13603    509999.11708       862.422  
  21043708.172    21043710.539     1300427.19409    816595.31309      1463.125  
  20888836.641    20888837.836     1228233.18306    948899.06302      1256.203  
  24352425.891    24352429.430    -2188877.29109  -1603682.03209     -1040.500  
  23047032.898    23047036.789     3674561.06509   2796824.45809      2878.297  
  22570172.109    22570175.801    -4224366.59209  -3205809.48009     -2814.766  
 98 11 22 11 38 25.0000000  0  7G02G27G10G13G17G19G26
  22184529.289    22184532.441    -3396395.20101  -2562157.67009     -2060.828  
  20663232.688    20663235.207      653825.72205    513362.69706       864.234  
  21045101.320    21045103.570     1307749.46609    822300.97409      1465.797  
  20890032.563    20890033.664     1234518.34405    953796.58301      1257.875  
  24351437.047    24351441.605    -2194072.23909  -1607730.02109     -1037.453  
  23049771.609    23049775.770     3688953.61509   2808039.41009      2878.766  
  22567493.742    22567497.164    -4238438.42109  -3216774.54009     -2813.922  
 98 11 22 11 38 30.0000000  0  7G02G27G10G13G17G19G26
  22182569.609    22182572.984    -3406692.37409  -2570181.43609     -2058.250  
  20664056.266    20664058.820      658153.44308    516734.94409       866.641  
  21046497.984    21046499.730     1315087.16909    828018.66009      1469.063  
  20891230.594    20891231.672     1240814.14201    958702.40501      1260.219  
  24350451.172    24350456.914    -2199249.73309  -1611764.40709     -1033.781  
  23052511.094    23052515.313     3703350.77209   2819257.96309      2879.875  
  22564817.266    22564820.441    -4252503.67609  -3227734.46609     -2812.422  
 98 11 22 11 38 35.0000000  0  7G02G27G10G13G17G19G26
  22180612.609    22180615.973    -3416977.18409  -2578195.57109     -2055.781  
  20664881.773    20664884.293      662492.61009    520116.11909       868.922  
  21047896.938    21047899.246     1322440.68009    833748.66509      1472.234  
  20892430.914    20892431.969     1247121.00902    963616.84901      1262.453  
  24349469.281    24349473.008    -2204409.51109  -1615785.03009     -1030.203  
  23055252.438    23055256.727     3717752.90109   2830480.40309      2880.875  
  22562142.203    22562145.941    -4266562.10209  -3238689.07409     -2811.031  
 98 11 22 11 38 40.0000000  0  7G02G27G10G13G17G19G26
  22178657.703    22178660.879    -3427249.05709  -2586199.63109     -2053.047  
  20665709.891    20665712.316      666843.89008    523506.72209       871.500  
  21049299.359    21049301.457     1329810.74209    839491.56909      1475.703  
  20893633.375    20893634.430     1253439.83105    968540.60801      1264.969  
  24348490.820    24348497.629    -2209550.76509  -1619791.27809     -1026.359  
  23057994.086    23057997.871     3732160.70309   2841707.25709      2882.172  
  22559468.211    22559471.809    -4280613.11709  -3249637.90609     -2809.453  
 98 11 22 11 38 45.0000000  0  7G02G27G10G13G17G19G26
  22176705.195    22176708.348    -3437509.49709  -2594194.78009     -2051.000  
  20666539.953    20666542.344      671205.79508    526905.60909       873.406  
  21050704.930    21050707.461     1337195.85509    845246.20309      1478.500  
  20894837.711    20894838.848     1259769.04402    973472.46501      1266.844  
  24347516.336    24347521.504    -2214674.95909  -1623784.12109     -1023.141  
  23060737.078    23060740.430     3746572.76609   2852937.43109      2882.797  
  22556795.445    22556798.902    -4294658.30609  -3260582.19309     -2808.516  
 98 11 22 11 38 50.0000000  0  7G02G27G10G13G17G19G26
  22174754.813    22174757.883    -3447760.06409  -2602182.23709     -2049.031  
  20667371.656    20667373.883      675576.90306    530311.66909       875.234  
  21052113.258    21052115.824     1344594.69409    851011.53109      1481.250  
  20896043.602    20896044.820     1266107.18202    978411.27601      1268.641  
  24346543.203    24346547.738    -2219783.36809  -1627764.71409     -1020.031  
  23063479.781    23063483.215     3760987.70809   2864169.85409      2883.375  
  22554123.789    22554126.672    -4308699.23109  -3271523.17209     -2807.656  
 98 11 22 11 38 55.0000000  0  7G02G27G10G13G17G19G26
  22172806.188    22172809.398    -3457999.84509  -2610161.28609     -2046.422  
  20668205.219    20668207.398      679958.24505    533725.70207       877.750  
  21053523.523    21053526.652     1352008.13809    856788.23509      1484.609  
  20897251.875    20897253.141     1272455.30801    983357.86601      1271.063  
  24345575.227    24345579.820    -2224875.09909  -1631732.30309     -1016.234  
  23066223.719    23066227.586     3775406.58809   2875405.34509      2884.625  
  22551452.969    22551455.652    -4322735.01909  -3282460.15509     -2806.188  
 98 11 22 11 39  0.0000000  0  7G02G27G10G13G17G19G26
  22170860.516    22170863.902    -3468224.33009  -2618128.41109     -2043.625  
  20669041.898    20669043.961      684354.19808    537151.12407       880.375  
  21054938.148    21054941.043     1359440.50409    862579.67909      1488.094  
  20898462.438    20898463.750     1278817.77609    988315.62701      1273.656  
  24344610.766    24344617.176    -2229945.77909  -1635683.47809     -1012.297  
  23068968.984    23068972.699     3789833.72209   2886647.23309      2885.969  
  22548783.586    22548785.707    -4336761.23909  -3293389.67209     -2804.563  
 98 11 22 11 39  5.0000000  0  7G02G27G10G13G17G19G26
  22168917.398    22168920.715    -3478435.40409  -2626085.08709     -2040.844  
  20669880.844    20669882.965      688762.33409    540586.03708       882.844  
  21056355.398    21056358.598     1366889.49509    868384.08109      1491.453  
  20899675.500    20899676.824     1285192.28909    993282.77501      1276.125  
  24343649.445    24343658.590    -2234997.69909  -1639620.01509     -1008.484  
  23071715.398    23071719.008     3804266.93609   2897893.87109      2887.266  
  22546115.938    22546118.234    -4350780.14709  -3304313.49309     -2803.031  
 98 11 22 11 39 10.0000000  0  7G02G27G10G13G17G19G26
  22166976.953    22166980.141    -3488632.72809  -2634031.04709     -2038.625  
  20670722.039    20670724.266      693182.87308    544030.61209       884.844  
  21057776.164    21057779.891     1374355.07209    874201.40309      1494.250  
  20900890.836    20900892.078     1291578.94902    998259.39801      1278.000  
  24342691.984    24342699.512    -2240030.78109  -1643541.89309     -1005.266  
  23074463.398    23074466.352     3818706.68509   2909145.61109      2888.078  
  22543449.750    22543452.281    -4364791.60109  -3315231.50009     -2802.094  
 98 11 22 11 39 15.0000000  0  7G02G27G10G13G17G19G26
  22165038.391    22165041.613    -3498819.44309  -2641968.74709     -2036.344  
  20671565.109    20671567.254      697612.94509    547482.61806       886.938  
  21059199.594    21059202.934     1381833.97709    880029.12809      1497.063  
  20902108.016    20902109.246     1297974.60407   1003243.02501      1280.000  
  24341736.945    24341742.559    -2245048.06709  -1647451.40109     -1001.922  
  23077211.680    23077214.375     3833150.02509   2920400.15409      2888.984  
  22540784.273    22540786.594    -4378798.78409  -3326146.18609     -2801.078  
 98 11 22 11 39 20.0000000  0  7G02G27G10G13G17G19G26
  22163102.188    22163105.551    -3508994.40109  -2649897.28609     -2033.781  
  20672410.258    20672412.484      702053.95407    550943.14706       889.328  
  21060625.016    21060628.098     1389327.28009    885868.05409      1500.109  
  20903327.172    20903328.426     1304380.68609   1008234.77401      1282.297  
  24340784.906    24340791.293    -2250048.29609  -1651347.72309      -998.297  
  23079961.703    23079964.551     3847598.22409   2931658.47509      2890.141  
  22538119.852    22538122.746    -4392800.67409  -3337056.74309     -2799.828  
 98 11 22 11 39 25.0000000  0  7G02G27G10G13G17G19G26
  22161168.273    22161171.754    -3519157.85109  -2657816.85609     -2031.438  
  20673257.125    20673259.328      706505.58509    554411.95006       891.500  
  21062054.180    21062057.613     1396834.65509    891717.94209      1503.000  
  20904547.977    20904549.254     1310797.15409   1013234.62001      1284.438  
  24339838.125    24339844.242    -2255031.64209  -1655230.88909      -994.844  
  23082711.398    23082714.023     3862050.93209   2942920.31709      2891.109  
  22535456.133    22535459.297    -4406797.59909  -3347963.42609     -2798.766  
 98 11 22 11 39 30.0000000  0  7G02G27G10G13G17G19G26
  22159236.594    22159240.039    -3529308.28909  -2665726.28409     -2028.906  
  20674106.727    20674108.883      710969.18909    557890.08306       893.797  
  21063485.406    21063488.641     1404357.54209    897579.93209      1506.000  
  20905771.359    20905772.730     1317225.57409   1018243.77901      1286.781  
  24338892.695    24338898.895    -2259996.59809  -1659099.69309      -991.266  
  23085462.469    23085464.813     3876509.75509   2954186.91809      2892.266  
  22532794.008    22532796.797    -4420787.91809  -3358864.96509     -2797.531  
 98 11 22 11 39 35.0000000  0  7G02G27G10G13G17G19G26
  22157307.180    22157310.824    -3539447.30009  -2673626.80909     -2026.500  
  20674958.031    20674960.199      715443.04609    561376.20207       895.969  
  21064919.648    21064922.543     1411894.07409    903452.54709      1508.813  
  20906996.727    20906998.098     1323664.30709   1023260.97401      1288.953  
  24337950.227    24337959.195    -2264944.89409  -1662955.51809      -987.813  
  23088214.883    23088216.840     3890973.08409   2965457.03909      2893.297  
  22530132.516    22530135.164    -4434773.40009  -3369762.73809     -2796.453  
 98 11 22 11 39 40.0000000  0  7G02G27G10G13G17G19G26
  22155379.844    22155383.477    -3549575.14709  -2681518.63309     -2024.609  
  20675811.547    20675813.727      719926.97009    564870.16807       897.641  
  21066355.938    21066358.809     1419443.88209    909335.51309      1511.125  
  20908223.609    20908224.828     1330113.16709   1028286.05301      1290.625  
  24337012.844    24337018.516    -2269876.64009  -1666798.38009      -984.844  
  23090967.648    23090970.051     3905440.63609   2976730.43209      2893.766  
  22527472.133    22527475.145    -4448754.40109  -3380657.01209     -2795.938  
 98 11 22 11 39 45.0000000  0  7G02G27G10G13G17G19G26
  22153454.750    22153458.711    -3559690.17909  -2689400.47109     -2021.391  
  20676666.805    20676669.020      724422.72109    568373.34803       900.688  
  21067795.578    21067798.848     1427008.54309    915230.05609      1514.750  
  20909453.102    20909454.309     1336573.77403   1033320.28101      1293.641  
  24336077.008    24336082.129    -2274790.24409  -1670627.10009      -980.578  
  23093721.617    23093724.875     3919913.96409   2988008.32609      2895.594  
  22524812.867    22524816.066    -4462729.34909  -3391546.57109     -2794.031  
 98 11 22 11 39 50.0000000  0  7G02G27G10G13G17G19G26
  22151533.102    22151537.063    -3569791.21209  -2697271.40309     -2018.984  
  20677524.984    20677527.211      728931.85909    571886.95602       903.031  
  21069238.430    21069241.676     1434589.26309    921137.10909      1517.563  
  20910685.047    20910686.277     1343047.56704   1038364.78501      1295.938  
  24335146.820    24335152.070    -2279684.61909  -1674440.91309      -977.109  
  23096477.438    23096481.375     3934394.60209   2999291.95609      2896.688  
  22522155.039    22522158.145    -4476696.94909  -3402430.40709     -2792.953  
 98 11 22 11 39 55.0000000  0  7G02G27G10G13G17G19G26
  22149612.906    22149616.762    -3579880.33209  -2705133.05509     -2016.375  
  20678385.195    20678387.457      733452.71009    575409.69403       905.594  
  21070683.281    21070686.645     1442184.11009    927055.17009      1520.656  
  20911919.023    20911920.184     1349532.68409   1043418.13001      1298.391  
  24334218.609    24334221.012    -2284561.65009  -1678241.22509      -973.406  
  23099234.648    23099238.621     3948880.63409   3010579.76709      2898.000  
  22519498.398    22519501.105    -4490659.26309  -3413310.13109     -2791.672  
 98 11 22 11 40  0.0000000  0  7G02G27G10G13G17G19G26
  22147695.508    22147699.293    -3589955.61609  -2712983.91509     -2014.188  
  20679248.320    20679250.582      737987.29909    578943.13301       907.781  
  21072131.852    21072135.180     1449795.27209    932985.94509      1523.391  
  20913155.672    20913157.043     1356031.25609   1048481.94501      1300.578  
  24333293.180    24333296.777    -2289419.01809  -1682026.17809      -969.969  
  23101992.953    23101997.043     3963373.98309   3021873.29909      2898.906  
  22516842.609    22516845.105    -4504614.33309  -3424184.19209     -2790.781  
 98 11 22 11 40  5.0000000  0  7G02G27G10G13G17G19G26
  22145780.453    22145784.016    -3600020.81209  -2720826.92109     -2011.844  
  20680112.758    20680114.973      742531.86609    582484.34701       910.141  
  21073582.820    21073586.102     1457419.09909    938926.58009      1526.219  
  20914394.359    20914395.813     1362539.89409   1053553.60801      1302.969  
  24332372.727    24332375.645    -2294260.20209  -1685798.49509      -966.391  
  23104751.539    23104755.793     3977871.06609   3033169.73009      2900.000  
  22514187.711    22514190.137    -4518565.84509  -3435055.48509     -2789.734  
 98 11 22 11 40 10.0000000  0  7G02G27G10G13G17G19G26
  22143867.000    22143870.820    -3610074.83109  -2728661.22009     -2009.406  
  20680979.789    20680982.098      747087.84009    586034.45601       912.594  
  21075036.133    21075039.684     1465056.81009    944878.02609      1529.219  
  20915634.953    20915636.137     1369059.99109   1058634.19701      1305.453  
  24331454.578    24331456.840    -2299084.24709  -1689557.48909      -962.844  
  23107511.242    23107515.473     3992372.88509   3044469.84209      2901.094  
  22511533.719    22511535.945    -4532512.50609  -3445922.99809     -2788.594  
 98 11 22 11 40 15.0000000  0  7G02G27G10G13G17G19G26
  22141956.086    22141960.023    -3620116.88509  -2736486.19509     -2007.031  
  20681849.227    20681851.699      751655.92709    589594.00101       915.016  
  21076492.172    21076495.676     1472709.31609    950841.01209      1532.172  
  20916877.813    20916879.090     1375592.39909   1063724.38601      1307.906  
  24330540.242    24330541.109    -2303890.68609  -1693302.76809      -959.344  
  23110272.234    23110276.195     4006880.01709   3055774.07509      2902.125  
  22508880.789    22508882.770    -4546453.83409  -3456786.36209     -2787.563  
 98 11 22 11 40 20.0000000  0  7G02G27G10G13G17G19G26
  22140047.086    22140051.035    -3630147.97909  -2744302.63309     -2005.078  
  20682720.617    20682722.926      756235.38709    593162.41101       917.109  
  21077951.234    21077954.773     1480375.82409    956814.91709      1534.766  
  20918123.266    20918124.637     1382136.33809   1068823.55601      1310.031  
  24329628.461    24329629.832    -2308680.25709  -1697034.88909      -956.141  
  23113033.172    23113036.898     4021391.36309   3067081.60009      2902.719  
  22506228.875    22506231.066    -4560390.70209  -3467646.25209     -2786.875  
 98 11 22 11 40 25.0000000  0  7G02G27G10G13G17G19G26
  22138140.977    22138144.762    -3640167.28401  -2752109.88209     -2002.500  
  20683594.359    20683596.539      760827.25309    596740.48701       919.797  
  21079412.875    21079416.508     1488057.66209    962800.76509      1538.109  
  20919370.922    20919372.270     1388692.80309   1073932.48801      1312.703  
  24328720.711    24328721.648    -2313451.83809  -1700753.00209      -952.313  
  23115795.352    23115799.137     4035907.71509   3078393.03309      2903.969  
  22503577.688    22503579.797    -4574322.15709  -3478501.93109     -2785.547  
 98 11 22 11 40 30.0000000  0  7G02G27G10G13G17G19G26
  22136236.320    22136240.223    -3650175.77301  -2759908.70009     -2000.594  
  20684470.234    20684472.285      765430.61309    600327.51701       921.828  
  21080877.422    21080881.500     1495754.19009    968798.05809      1540.813  
  20920620.805    20920622.211     1395260.81709   1079050.41801      1314.781  
  24327815.281    24327818.656    -2318206.16909  -1704457.67909      -949.141  
  23118558.781    23118562.566     4050428.19909   3089707.68409      2904.547  
  22500927.344    22500929.289    -4588248.90809  -3489353.94209     -2784.875  
 98 11 22 11 40 35.0000000  0  7G02G27G10G13G17G19G26
  22134333.914    22134337.699    -3660172.80901  -2767698.59409     -1998.391  
  20685348.500    20685350.609      770045.94309    603923.87701       924.141  
  21082345.211    21082349.031     1503466.16909    974807.39409      1543.797  
  20921872.961    20921874.109     1401841.03909   1084177.86101      1317.141  
  24326915.102    24326919.555    -2322942.66809  -1708148.46109      -945.656  
  23121322.836    23121326.820     4064953.53609   3101026.10909      2905.438  
  22498278.031    22498279.684    -4602170.29409  -3500201.77409     -2783.859  
 98 11 22 11 40 40.0000000  0  7G02G27G10G13G17G19G26
  22132433.891    22132437.453    -3670157.76401  -2775479.07609     -1995.766  
  20686229.109    20686231.137      774673.58809    607529.83801       926.766  
  21083815.586    21083819.230     1511194.02909    980829.09409      1547.172  
  20923127.648    20923128.785     1408433.83309   1089315.10301      1319.813  
  24326016.906    24326019.086    -2327660.95809  -1711825.04709      -941.844  
  23124088.203    23124091.555     4079484.50209   3112348.93109      2906.750  
  22495630.063    22495631.563    -4616085.97309  -3511045.16309     -2782.578  
 98 11 22 11 40 45.0000000  0  7G02G27G10G13G17G19G26
  22130535.898    22130539.707    -3680131.08701  -2783250.48809     -1993.375  
  20687112.164    20687114.156      779313.11309    611145.04901       929.219  
  21085289.203    21085292.625     1518937.26109    986862.77009      1550.313  
  20924384.297    20924385.492     1415038.61309   1094461.68509      1322.281  
  24325122.211    24325123.746    -2332361.66309  -1715487.94309      -938.266  
  23126854.461    23126857.520     4094020.51009   3123675.68409      2907.828  
  22492982.914    22492984.754    -4629996.54009  -3521884.55709     -2781.516  
 98 11 22 11 40 50.0000000  0  7G02G27G10G13G17G19G26
  22128640.313    22128643.934    -3690093.19901  -2791013.16109     -1991.047  
  20687997.258    20687999.191      783964.22909    614769.29801       931.656  
  21086765.625    21086769.516     1526695.52309    992908.16209      1553.406  
  20925643.391    20925644.398     1421654.94704   1099617.27609      1324.656  
  24324230.984    24324232.391    -2337045.46109  -1719137.66309      -934.828  
  23129621.172    23129624.137     4108561.29709   3135006.15809      2908.906  
  22490336.789    22490338.734    -4643902.81309  -3532720.60009     -2780.594  
 98 11 22 11 40 55.0000000  0  7G02G27G10G13G17G19G26
  22126747.094    22126750.785    -3700043.56301  -2798766.68609     -1988.844  
  20688884.711    20688886.516      788627.48009    618403.00001       933.938  
  21088245.070    21088248.750     1534469.24209    998965.59809      1556.344  
  20926904.492    20926905.348     1428282.95001   1104781.95809      1326.797  
  24323343.508    24323344.434    -2341711.93609  -1722773.83709      -931.484  
  23132389.359    23132392.090     4123107.23309   3146340.64209      2909.766  
  22487691.250    22487693.207    -4657804.39609  -3543552.99509     -2779.766  
 98 11 22 11 41  0.0000000  0  7G02G27G10G13G17G19G26
  22124855.289    22124858.957    -3709982.71301  -2806511.47709     -1986.734  
  20689774.125    20689775.941      793302.49509    622045.85701       936.141  
  21089727.008    21089730.805     1542257.80809   1005034.61809      1559.172  
  20928168.086    20928169.059     1434922.02602   1109955.26209      1328.859  
  24322457.664    24322458.941    -2346361.49409  -1726396.87009      -928.281  
  23135158.227    23135161.180     4137657.90809   3157678.82809      2910.594  
  22485046.844    22485048.836    -4671701.54509  -3554381.92609     -2779.016  
 98 11 22 11 41  5.0000000  0  7G02G27G10G13G17G19G26
  22122966.273    22122970.023    -3719910.94401  -2814247.75809     -1984.313  
  20690665.938    20690667.813      797988.93509    625697.62101       938.703  
  21091211.820    21091215.781     1550060.84609   1011114.89409      1562.297  
  20929433.328    20929434.359     1441571.60904   1115136.75009      1331.250  
  24321576.211    24321576.410    -2350994.66409  -1730007.15409      -924.750  
  23137928.031    23137930.902     4152213.06409   3169020.51209      2911.734  
  22482403.102    22482405.246    -4685594.58209  -3565207.66109     -2777.969  
 98 11 22 11 41 10.0000000  0  7G02G27G10G13G17G19G26
  22121079.219    22121082.887    -3729826.70206  -2821974.32009     -1982.000  
  20691560.055    20691561.695      802688.37109    629359.51101       941.094  
  21092699.891    21092703.723     1557879.91309   1017207.66209      1565.328  
  20930701.141    20930702.242     1448233.28707   1120327.66409      1333.469  
  24320697.914    24320699.168    -2355609.97209  -1733603.46309      -921.391  
  23140698.125    23140701.125     4166774.17009   3180366.82509      2912.703  
  22479760.398    22479762.402    -4699482.08709  -3576029.08509     -2777.016  
 98 11 22 11 41 15.0000000  0  7G02G27G10G13G17G19G26
  22119194.477    22119198.156    -3739730.36604  -2829691.45809     -1979.453  
  20692456.891    20692458.531      807400.62809    633031.39009       943.828  
  21094191.039    21094194.977     1565714.80909   1023312.78209      1568.641  
  20931970.953    20931972.055     1454906.74604   1125527.75009      1335.938  
  24319822.563    24319825.586    -2360207.85209  -1737186.21309      -917.734  
  23143470.969    23143473.465     4181340.78309   3191717.40709      2913.938  
  22477118.648    22477120.898    -4713364.29009  -3586846.37009     -2775.828  
 98 11 22 11 41 20.0000000  0  7G02G27G10G13G17G19G26
  22117312.469    22117316.184    -3749621.42105  -2837398.76909     -1977.172  
  20693356.445    20693357.980      812126.46609    636713.86109       946.344  
  21095684.820    21095688.664     1573566.40409   1029430.90009      1571.828  
  20933243.070    20933244.078     1461592.55203   1130737.47009      1338.219  
  24318951.039    24318953.676    -2364787.59709  -1740754.84709      -914.328  
  23146243.992    23146246.582     4195913.55309   3203072.80509      2914.969  
  22474478.320    22474480.266    -4727240.51909  -3597659.01209     -2774.859  
 98 11 22 11 41 25.0000000  0  7G02G27G10G13G17G19G26
  22115432.383    22115436.168    -3759501.74405  -2845097.71909     -1975.063  
  20694257.984    20694259.613      816864.32509    640405.69709       948.719  
  21097181.625    21097185.504     1581433.21109   1035560.87509      1574.844  
  20934517.266    20934518.238     1468289.15003   1135955.60409      1340.344  
  24318083.391    24318085.664    -2369350.73009  -1744310.58909      -911.000  
  23149017.633    23149020.410     4210490.72709   3214431.64309      2915.828  
  22471838.563    22471840.543    -4741112.45009  -3608468.30009     -2774.000  
 98 11 22 11 41 30.0000000  0  7G02G27G10G13G17G19G26
  22113554.398    22113558.266    -3769370.61805  -2852787.74809     -1972.672  
  20695161.734    20695163.152      821615.20109    644107.67309       951.422  
  21098681.664    21098685.109     1589316.35609   1041703.57909      1578.234  
  20935794.070    20935794.855     1474997.66103   1141183.01709      1342.844  
  24317218.242    24317220.844    -2373896.20109  -1747852.53509      -907.359  
  23151792.203    23151795.016     4225073.17109   3225794.57109      2916.938  
  22469199.859    22469201.594    -4754979.04009  -3619273.41909     -2772.828  
 98 11 22 11 41 35.0000000  0  7G02G27G10G13G17G19G26
  22111678.188    22111682.090    -3779229.68405  -2860470.13009     -1970.750  
  20696068.070    20696069.418      826377.18809    647818.30409       953.594  
  21100184.914    21100188.723     1597214.55809   1047858.02409      1581.266  
  20937072.531    20937073.410     1481716.32904   1146418.33909      1344.875  
  24316355.086    24316358.531    -2378425.64509  -1751381.94209      -904.188  
  23154567.773    23154570.715     4239658.91709   3237160.07609      2917.563  
  22466561.852    22466563.750    -4768841.89009  -3630075.62609     -2772.109  
 98 11 22 11 41 40.0000000  0  7G02G27G10G13G17G19G26
  22109804.344    22109808.375    -3789077.38804  -2868143.65609     -1968.141  
  20696976.609    20696978.039      831151.48809    651538.54209       956.328  
  21101690.938    21101694.570     1605129.43209   1054025.45709      1584.906  
  20938353.453    20938354.426     1488446.72601   1151662.80409      1347.516  
  24315497.883    24315501.035    -2382937.61409  -1754897.74309      -900.375  
  23157344.836    23157348.270     4254249.31309   3248529.21009      2918.797  
  22463924.742    22463926.910    -4782699.46709  -3640873.72409     -2770.703  
 98 11 22 11 41 45.0000000  0  7G02G27G10G13G17G19G26
  22107932.695    22107936.762    -3798912.57806  -2875807.43509     -1965.922  
  20697887.680    20697889.156      835939.11609    655269.16809       958.719  
  21103200.844    21103204.395     1613062.32209   1060206.93109      1588.234  
  20939636.313    20939637.273     1495189.92101   1156917.23909      1349.750  
  24314642.734    24314642.840    -2387430.84309  -1758398.96709      -896.891  
  23160122.023    23160125.680     4268845.62009   3259902.94309      2919.750  
  22461289.109    22461291.441    -4796550.19409  -3651666.49009     -2769.578  
 98 11 22 11 41 50.0000000  0  7G02G27G10G13G17G19G26
  22106063.336    22106067.145    -3808736.66306  -2883462.56709     -1963.922  
  20698800.727    20698802.145      840738.67008    659009.07609       960.891  
  21104713.234    21104716.656     1621011.80109   1066401.32309      1591.359  
  20940921.758    20940922.766     1501944.26301   1162180.36109      1351.766  
  24313790.766    24313790.297    -2391906.68009  -1761886.61409      -893.641  
  23162900.570    23162903.605     4283446.51709   3271280.26809      2920.406  
  22458654.313    22458656.820    -4810395.34809  -3662454.90909     -2768.656  
 98 11 22 11 41 55.0000000  0  7G02G27G10G13G17G19G26
  22104195.766    22104199.410    -3818549.78706  -2891109.15309     -1961.500  
  20699716.359    20699717.918      845550.03206    662758.18109       963.484  
  21106229.203    21106232.344     1628977.81709   1072608.61409      1594.906  
  20942209.070    20942210.113     1508709.50805   1167451.97409      1354.156  
  24312942.852    24312942.723    -2396365.16409  -1765360.78309      -889.922  
  23165679.820    23165683.301     4298051.77209   3282660.98909      2921.516  
  22456020.859    22456023.250    -4824234.72809  -3673238.83209     -2767.281  
 98 11 22 11 42  0.0000000  0  7G02G27G10G13G17G19G26
  22102330.508    22102334.094    -3828352.85106  -2898747.89909     -1959.563  
  20700634.188    20700635.934      850372.58006    666516.00309       965.703  
  21107748.266    21107751.406     1636959.75009   1078828.30509      1598.031  
  20943498.289    20943499.473     1515484.77401   1172731.39609      1356.094  
  24312096.711    24312097.953    -2400806.94109  -1768821.92409      -886.641  
  23168459.844    23168463.266     4312660.70409   3294044.56509      2922.203  
  22453388.078    22453390.480    -4838069.10009  -3684018.85109     -2766.297  
 98 11 22 11 42  5.0000000  0  7G02G27G10G13G17G19G26
  22100467.000    22100470.574    -3838144.48306  -2906377.74309     -1957.063  
  20701554.188    20701555.875      855207.68505    670283.61009       968.406  
  21109270.375    21109274.418     1644958.97609   1085061.45209      1601.703  
  20944790.117    20944791.137     1522271.30201   1178019.59909      1358.563  
  24311254.820    24311256.438    -2405230.82609  -1772269.10709      -882.875  
  23171240.766    23171244.328     4327274.65709   3305432.04509      2923.406  
  22450756.930    22450759.168    -4851896.83209  -3694793.69809     -2764.734  
 98 11 22 11 42 10.0000000  0  7G02G27G10G13G17G19G26
  22098605.773    22098609.336    -3847926.04006  -2913999.73409     -1955.219  
  20702476.500    20702478.316      860053.73004    674059.74809       970.359  
  21110795.656    21110799.512     1652974.00309   1091306.92109      1604.656  
  20946083.188    20946084.160     1529067.64001   1183315.45009      1360.313  
  24310416.383    24310419.875    -2409638.24509  -1775703.41509      -879.750  
  23174022.047    23174025.422     4341892.37609   3316822.46309      2924.000  
  22448126.492    22448128.613    -4865719.34809  -3705564.48309     -2763.906  
 98 11 22 11 42 15.0000000  0  7G02G27G10G13G17G19G26
  22096746.367    22096749.883    -3857696.54907  -2921613.11509     -1952.781  
  20703400.797    20703402.578      864911.33304    677844.88809       972.875  
  21112323.844    21112327.699     1661005.83809   1097565.49109      1608.281  
  20947378.406    20947379.438     1535874.54801   1188619.53409      1362.641  
  24309580.617    24309582.422    -2414028.16609  -1779124.15309      -876.031  
  23176804.617    23176808.051     4356514.79209   3328216.54909      2925.156  
  22445497.250    22445499.078    -4879535.67609  -3716330.44509     -2762.438  
 98 11 22 11 42 20.0000000  0  7G02G27G10G13G17G19G26
  22094889.594    22094893.273    -3867454.62909  -2929216.81509     -1950.516  
  20704327.680    20704329.355      869781.54802    681639.85609       975.125  
  21113855.453    21113859.555     1669055.88009   1103838.25409      1611.656  
  20948676.227    20948677.316     1542693.21204   1193932.77909      1364.734  
  24308749.461    24308753.762    -2418399.38009  -1782530.25309      -872.563  
  23179588.352    23179592.254     4371143.21309   3339615.31509      2926.141  
  22442869.547    22442871.422    -4893344.45109  -3727090.52309     -2761.156  
 98 11 22 11 42 25.0000000  0  7G02G27G10G13G17G19G26
  22093034.789    22093038.504    -3877201.84809  -2936812.04509     -1948.188  
  20705256.445    20705258.039      874662.53903    685443.22409       977.438  
  21115390.703    21115394.594     1677122.00009   1110123.53909      1614.969  
  20949975.617    20949976.520     1549521.48805   1199253.50809      1366.750  
  24307920.539    24307926.070    -2422753.78009  -1785923.30609      -869.078  
  23182372.336    23182376.508     4385775.94009   3351017.44609      2927.125  
  22440242.594    22440244.539    -4907147.43709  -3737846.08809     -2759.875  
 98 11 22 11 42 30.0000000  0  7G02G27G10G13G17G19G26
  22091182.328    22091185.996    -3886936.34208  -2944397.35809     -1945.813  
  20706187.664    20706189.527      879556.02401    689256.32909       979.719  
  21116928.656    21116932.547     1685205.85009   1116422.64409      1618.344  
  20951276.992    20951277.930     1556360.81506   1204582.84809      1368.766  
  24307094.742    24307099.090    -2427089.63309  -1789301.87009      -865.484  
  23185158.648    23185163.043     4400414.61809   3362424.20209      2928.125  
  22437617.109    22437619.395    -4920942.99809  -3748595.86609     -2758.563  
 98 11 22 11 42 35.0000000  0  7G02G27G10G13G17G19G26
  22089332.031    22089335.641    -3896660.25808  -2951974.43209     -1943.453  
  20707120.570    20707122.492      884459.43301    693077.16509       981.922  
  21118470.320    21118474.938     1693305.07109   1122733.72909      1621.625  
  20952580.203    20952581.070     1563208.73207   1209918.88509      1370.688  
  24306273.438    24306278.992    -2431408.87809  -1792667.51209      -861.922  
  23187945.039    23187949.293     4415056.99409   3373833.83309      2929.094  
  22434992.992    22434995.828    -4934733.37209  -3759341.60909     -2757.281  
 98 11 22 11 42 40.0000000  0  7G02G27G10G13G17G19G26
  22087483.719    22087487.352    -3906371.86408  -2959541.91009     -1941.047  
  20708055.820    20708057.754      889374.14401    696906.80709       984.094  
  21120014.078    21120018.813     1701421.00409   1129057.83709      1624.891  
  20953885.172    20953886.004     1570066.73909   1215262.78501      1372.656  
  24305453.914    24305458.203    -2435709.98409  -1796019.04509      -858.391  
  23190732.188    23190736.277     4429704.74709   3385247.65109      2930.109  
  22432370.055    22432372.938    -4948516.97209  -3770082.07209     -2756.000  
 98 11 22 11 42 45.0000000  0  7G02G27G10G13G17G19G26
  22085638.352    22085642.008    -3916070.13009  -2967098.99309     -1938.609  
  20708993.539    20708995.637      894300.94901    700745.87009       986.266  
  21121562.547    21121567.773     1709554.60509   1135395.71209      1628.172  
  20955192.297    20955193.211     1576935.80009   1220615.29501      1374.609  
  24304639.578    24304644.207    -2439992.32709  -1799355.93709      -854.891  
  23193520.766    23193524.879     4444358.89509   3396666.44309      2931.172  
  22429748.648    22429751.555    -4962292.76809  -3780816.45509     -2754.641  
 98 11 22 11 42 50.0000000  0  7G02G27G10G13G17G19G26
  22083795.063    22083798.977    -3925756.79808  -2974647.04409     -1936.375  
  20709932.891    20709935.035      899237.93801    704592.87301       988.203  
  21123113.617    21123118.258     1717703.90809   1141745.80609      1631.219  
  20956501.250    20956502.223     1583814.15809   1225975.05401      1376.406  
  24303827.805    24303829.996    -2444257.96409  -1802679.81609      -851.672  
  23196309.852    23196313.484     4459017.65609   3408088.83009      2932.016  
  22427128.156    22427131.391    -4976062.55609  -3791546.14409     -2753.563  
 98 11 22 11 42 55.0000000  0  7G02G27G10G13G17G19G26
  22081953.609    22081957.430    -3935432.33209  -2982186.41801     -1933.734  
  20710874.273    20710876.336      904184.58901    708447.40201       990.578  
  21124666.734    21124671.551     1725868.36209   1148107.70909      1634.688  
  20957811.789    20957812.785     1590701.38809   1231341.72301      1378.594  
  24303019.031    24303023.344    -2448507.41809  -1805991.09509      -847.953  
  23199100.117    23199103.961     4473680.59209   3419514.48909      2933.250  
  22424508.938    22424512.254    -4989826.92509  -3802271.62209     -2752.063  
 98 11 22 11 43  0.0000000  0  7G02G27G10G13G17G19G26
  22080115.164    22080118.961    -3945094.18707  -2989715.13609     -1930.969  
  20711817.836    20711819.828      909143.46301    712311.45701       993.047  
  21126223.836    21126228.172     1734050.55009   1154483.43409      1638.234  
  20959124.523    20959125.602     1597600.04208   1236717.29501      1380.906  
  24302214.281    24302216.391    -2452738.01009  -1809287.69909      -844.172  
  23201891.609    23201895.969     4488350.07209   3430945.24909      2934.578  
  22421891.063    22421894.777    -5003583.27709  -3812990.85109     -2750.422  
 98 11 22 11 43  5.0000000  0  7G02G27G10G13G17G19G26
  22078279.367    22078283.340    -3954741.37209  -2997232.42101     -1928.469  
  20712764.227    20712766.207      914115.71101    716185.93801       995.297  
  21127784.523    21127789.070     1742251.35409   1160873.66609      1641.547  
  20960439.539    20960440.523     1604511.01109   1242102.46701      1382.938  
  24301412.984    24301418.398    -2456948.65109  -1812568.69809      -840.641  
  23204684.555    23204688.926     4503026.71109   3442381.58709      2935.547  
  22419275.133    22419279.328    -5017330.54809  -3823702.99209     -2749.016  
 98 11 22 11 43 10.0000000  0  7G02G27G10G13G17G19G26
  22076445.578    22076449.727    -3964378.44909  -3004741.82801     -1926.563  
  20713712.023    20713713.992      919096.62801    720067.17301       996.875  
  21129347.266    21129351.566     1750466.04509   1167274.72009      1644.156  
  20961756.297    20961757.117     1611429.69007   1247493.64701      1384.359  
  24300614.859    24300619.957    -2461143.93209  -1815837.73009      -837.656  
  23207477.969    23207482.879     4517705.71609   3453819.75109      2935.891  
  22416660.125    22416664.133    -5031073.15409  -3834411.49609     -2748.188  
 98 11 22 11 43 15.0000000  0  7G02G27G10G13G17G19G26
  22074613.563    22074617.594    -3974004.28109  -3012242.47001     -1924.141  
  20714661.719    20714663.805      924087.26201    723955.97801       998.984  
  21130913.266    21130917.859     1758695.77409   1173687.49509      1647.359  
  20963074.609    20963075.371     1618357.24209   1252891.73901      1386.297  
  24299820.180    24299826.883    -2465322.50609  -1819093.74009      -834.156  
  23210272.234    23210277.777     4532388.38909   3465260.80609      2936.797  
  22414045.773    22414049.922    -5044809.78709  -3845115.35309     -2746.844  
 98 11 22 11 43 20.0000000  0  7G02G27G10G13G17G19G26
  22072784.453    22072788.402    -3983617.53009  -3019733.30709     -1921.438  
  20715613.219    20715615.316      929088.67701    727853.18301      1001.281  
  21132483.016    21132487.504     1766941.94309   1180113.08509      1650.844  
  20964394.641    20964395.496     1625295.00408   1258297.78301      1388.516  
  24299025.977    24299030.570    -2469483.20207  -1822335.85209      -830.406  
  23213067.375    23213072.766     4547076.05009   3476705.72609      2937.969  
  22411433.055    22411436.770    -5058539.34309  -3855813.70709     -2745.266  
 98 11 22 11 43 25.0000000  0  7G02G27G10G13G17G19G26
  22070957.445    22070961.430    -3993218.00009  -3027214.19309     -1918.859  
  20716566.969    20716569.055      934100.93401    731758.84101      1003.500  
  21134055.188    21134059.406     1775204.86809   1186551.73209      1654.219  
  20965716.906    20965717.785     1632243.24106   1263711.99101      1390.672  
  24298239.234    24298245.000    -2473625.88105  -1825563.91309      -826.766  
  23215862.750    23215868.199     4561768.78309   3488154.59309      2939.031  
  22408822.297    22408825.859    -5072261.97309  -3866506.64509     -2743.875  
 98 11 22 11 43 30.0000000  0  7G02G27G10G13G17G19G26
  22069132.883    22069136.855    -4002806.72509  -3034685.92309     -1916.547  
  20717522.656    20717524.824      939122.87001    735672.03801      1005.359  
  21135630.586    21135634.125     1783483.46609   1193002.58409      1657.313  
  20967040.852    20967041.871     1639201.00607   1269133.62701      1392.516  
  24297453.656    24297460.219    -2477751.55405  -1828778.74109      -823.406  
  23218659.586    23218665.480     4576465.53009   3499606.60109      2939.750  
  22406211.813    22406215.375    -5085978.78709  -3877195.07209     -2742.750  
 98 11 22 11 43 35.0000000  0  7G02G27G10G13G17G19G26
  22067310.594    22067314.461    -4012383.45009  -3042148.30401     -1913.828  
  20718480.047    20718482.320      944154.52101    739592.80501      1007.578  
  21137208.586    21137212.324     1791778.00709   1199465.86609      1660.797  
  20968366.813    20968367.680     1646168.43206   1274562.79501      1394.750  
  24296672.141    24296678.293    -2481859.88407  -1831980.05009      -819.609  
  23221456.867    23221462.363     4591166.33009   3511061.76409      2940.875  
  22403602.773    22403606.148    -5099689.25409  -3887878.54709     -2741.141  
 98 11 22 11 43 40.0000000  0  7G02G27G10G13G17G19G26
  22065490.492    22065494.055    -4021946.93009  -3049600.36001     -1911.578  
  20719439.859    20719442.215      949196.66209    743521.73901      1009.250  
  21138790.523    21138794.250     1800089.28609   1205942.18509      1663.688  
  20969694.547    20969695.613     1653146.60508   1280000.33201      1396.500  
  24295894.609    24295899.391    -2485949.67209  -1835166.83409      -816.297  
  23224254.641    23224260.066     4605872.48209   3522521.10609      2941.531  
  22400995.203    22400998.273    -5113392.27109  -3898556.20909     -2740.078  
 98 11 22 11 43 45.0000000  0  7G02G27G10G13G17G19G26
  22063673.195    22063676.758    -4031497.29909  -3057042.19609     -1908.953  
  20720401.211    20720403.438      954248.79209    747458.46801      1011.203  
  21140375.422    21140378.809     1808416.71509   1212431.09409      1666.891  
  20971024.563    20971025.734     1660135.15409   1285445.95001      1398.531  
  24295121.000    24295128.305    -2490021.23707  -1838339.51009      -812.688  
  23227055.383    23227061.055     4620583.68209   3533984.37409      2942.531  
  22398388.977    22398391.988    -5127088.28809  -3909228.41709     -2738.672  
 98 11 22 11 43 50.0000000  0  7G02G27G10G13G17G19G26
  22061858.133    22061861.625    -4041036.13909  -3064475.05809     -1906.734  
  20721364.172    20721366.305      959308.89501    751401.41001      1012.656  
  21141962.414    21141966.141     1816758.46209   1218931.16009      1669.641  
  20972355.914    20972357.168     1667132.15706   1290898.15501      1400.078  
  24294347.727    24294354.832    -2494076.48205  -1841499.51209      -809.609  
  23229855.125    23229861.219     4635298.12909   3545450.15709      2943.094  
  22395783.695    22395786.813    -5140778.82309  -3919896.36909     -2737.703  
 98 11 22 11 43 55.0000000  0  7G02G27G10G13G17G19G26
  22060045.453    22060048.969    -4050562.52309  -3071898.21509     -1903.797  
  20722328.430    20722330.621      964377.81401    755351.22101      1014.938  
  21143552.688    21143556.215     1825115.07809   1225442.80109      1673.047  
  20973689.164    20973690.371     1674138.23603   1296357.43401      1402.375  
  24293578.500    24293585.734    -2498114.75805  -1844646.22109      -805.672  
  23232656.141    23232661.273     4650016.83109   3556919.26309      2944.422  
  22393179.594    22393182.723    -5154463.20709  -3930559.52009     -2736.016  
 98 11 22 11 44  0.0000000  0  7G02G27G10G13G17G19G26
  22058235.102    22058238.500    -4060075.21709  -3079310.70209     -1901.281  
  20723295.023    20723297.273      969457.10701    759309.11201      1016.797  
  21145146.117    21145149.844     1833487.64509   1231966.87009      1676.000  
  20975024.406    20975025.508     1681154.70801   1301824.81501      1404.203  
  24292813.602    24292819.520    -2502134.57605  -1847778.51109      -802.188  
  23235457.992    23235463.629     4664741.12609   3568392.72709      2945.313  
  22390577.117    22390580.152    -5168140.02509  -3941216.77009     -2734.703  
 98 11 22 11 44  5.0000000  0  7G02G27G10G13G17G19G26
  22056426.992    22056430.227    -4069576.64309  -3086714.40409     -1899.031  
  20724263.102    20724265.328      974544.56301    763273.36501      1018.391  
  21146741.625    21146745.176     1841873.64709   1238501.42209      1678.641  
  20976361.094    20976362.172     1688179.07408   1307298.35501      1405.766  
  24292053.859    24292057.422    -2506138.25507  -1850898.24909      -799.031  
  23238260.258    23238266.727     4679468.77509   3579868.82009      2945.938  
  22387975.523    22387978.758    -5181811.70709  -3951870.02509     -2733.734  
 98 11 22 11 44 10.0000000  0  7G02G27G10G13G17G19G26
  22054621.617    22054625.004    -4079064.55709  -3094107.57709     -1896.031  
  20725233.344    20725235.488      979642.30201    767245.63101      1020.797  
  21148340.305    21148343.691     1850275.11109   1245048.01309      1682.063  
  20977699.805    20977700.895     1695213.62809   1312779.82701      1408.156  
  24291293.820    24291300.020    -2510123.88809  -1854003.96809      -795.141  
  23241063.859    23241070.141     4694201.63609   3591348.97509      2947.297  
  22385374.844    22385378.066    -5195476.50009  -3962517.90509     -2732.094  
 98 11 22 11 44 15.0000000  0  7G02G27G10G13G17G19G26
  22052818.547    22052821.852    -4088538.89509  -3101490.17309     -1893.563  
  20726205.555    20726207.746      984750.40001    771225.97101      1022.594  
  21149942.258    21149945.773     1858692.07409   1251606.68609      1684.891  
  20979040.516    20979041.535     1702258.61909   1318269.42801      1410.000  
  24290539.664    24290544.410    -2514091.50309  -1857095.61109      -791.766  
  23243868.227    23243874.285     4708939.56809   3602833.08109      2948.047  
  22382775.727    22382779.160    -5209134.60609  -3973160.56309     -2731.031  
 98 11 22 11 44 20.0000000  0  7G02G27G10G13G17G19G26
  22051018.055    22051021.324    -4098000.19709  -3108862.60609     -1890.672  
  20727179.109    20727181.359      989868.18201    775213.85201      1024.797  
  21151546.969    21151550.590     1867123.89109   1258176.93109      1688.109  
  20980382.938    20980383.910     1709313.47807   1323766.71901      1412.219  
  24289788.742    24289792.738    -2518041.91609  -1860173.83809      -788.141  
  23246674.078    23246679.773     4723681.89909   3614320.61509      2949.188  
  22380178.211    22380181.621    -5222786.97109  -3983798.75609     -2729.641  
 98 11 22 11 44 25.0000000  0  7G02G27G10G13G17G19G26
  22049220.102    22049223.465    -4107448.05009  -3116224.56509     -1888.000  
  20728154.883    20728157.203      994995.91709    779209.49201      1026.781  
  21153154.031    21153157.734     1875570.80609   1264758.93909      1691.141  
  20981727.281    20981728.371     1716378.50809   1329271.93101      1414.266  
  24289039.352    24289042.375    -2521975.09107  -1863238.68809      -784.656  
  23249479.922    23249485.887     4738428.89609   3625811.76509      2950.078  
  22377581.109    22377584.730    -5236433.39309  -3994432.32209     -2728.469  
 98 11 22 11 44 30.0000000  0  7G02G27G10G13G17G19G26
  22047425.039    22047428.637    -4116880.91109  -3123574.84209     -1885.234  
  20729132.820    20729135.152     1000135.42401    783214.30401      1028.922  
  21154764.922    21154768.695     1884034.53909   1271354.06009      1694.266  
  20983073.977    20983075.055     1723455.36809   1334786.36601      1416.391  
  24288293.766    24288297.270    -2525889.09607  -1866288.55509      -781.047  
  23252287.641    23252293.980     4753182.12909   3637307.78109      2951.109  
  22374985.641    22374988.676    -5250072.48709  -4005060.18309     -2727.234  
 98 11 22 11 44 35.0000000  0  7G02G27G10G13G17G19G26
  22045632.617    22045636.051    -4126300.39109  -3130914.69309     -1882.547  
  20730112.789    20730115.297     1005285.31101    787227.20301      1031.000  
  21156378.414    21156381.883     1892513.49209   1277961.03909      1697.313  
  20984422.648    20984423.762     1730542.45109   1340308.76501      1418.422  
  24287552.500    24287557.141    -2529785.47807  -1869324.70709      -777.547  
  23255096.836    23255101.910     4767939.81109   3648807.26809      2951.969  
  22372391.523    22372394.723    -5263705.74709  -4015683.49909     -2726.109  
 98 11 22 11 44 40.0000000  0  7G02G27G10G13G17G19G26
  22043842.875    22043846.063    -4135706.43809  -3138244.07909     -1880.109  
  20731094.914    20731097.434     1010445.62701    791248.22801      1032.875  
  21157994.477    21157998.520     1901007.65509   1284579.87109      1700.125  
  20985773.227    20985774.375     1737639.68909   1345839.08001      1420.250  
  24286814.375    24286820.773    -2533664.28505  -1872347.14709      -774.188  
  23257905.766    23257909.938     4782701.95109   3660310.22609      2952.641  
  22369798.547    22369801.664    -5277333.39209  -4026302.44209     -2725.188  
 98 11 22 11 44 45.0000000  0  7G02G27G10G13G17G19G26
  22042055.289    22042058.430    -4145100.05309  -3145563.77509     -1877.453  
  20732078.656    20732081.223     1015615.58201    795276.76701      1035.000  
  21159613.664    21159617.121     1909516.16609   1291209.86809      1703.203  
  20987125.461    20987126.598     1744746.29701   1351376.70101      1422.328  
  24286079.648    24286086.059    -2537526.28207  -1875356.50609      -770.656  
  23260715.586    23260719.957     4797467.47209   3671815.82009      2953.500  
  22367206.070    22367209.117    -5290956.24309  -4036917.63509     -2724.047  
 98 11 22 11 44 50.0000000  0  7G02G27G10G13G17G19G26
  22040270.039    22040273.426    -4154480.84309  -3152873.47609     -1874.672  
  20733064.328    20733066.918     1020795.67201    799313.20601      1037.219  
  21161235.805    21161238.852     1918039.81309   1297851.66709      1706.438  
  20988479.852    20988481.082     1751863.13107   1356922.28501      1424.625  
  24285348.922    24285356.273    -2541370.83209  -1878352.22509      -766.969  
  23263525.906    23263530.348     4812237.05309   3683324.58209      2954.516  
  22364614.789    22364617.590    -5304573.71709  -4047528.63909     -2722.781  
 98 11 22 11 44 55.0000000  0  7G02G27G10G13G17G19G26
  22038487.453    22038490.770    -4163848.80609  -3160173.17909     -1872.406  
  20734052.102    20734054.668     1025986.11301    803357.70901      1039.047  
  21162860.500    21162864.098     1926578.71809   1304505.35709      1709.234  
  20989836.047    20989837.359     1758990.55606   1362476.11901      1426.453  
  24284621.422    24284627.480    -2545197.82309  -1881334.29409      -763.750  
  23266337.109    23266341.680     4827010.84609   3694836.62809      2955.078  
  22362024.266    22362026.750    -5318185.75809  -4058135.41609     -2721.922  
 98 11 22 11 45  0.0000000  0  7G02G27G10G13G17G19G26
  22036707.242    22036710.605    -4173203.80009  -3167462.77509     -1869.781  
  20735041.875    20735044.523     1031187.28501    807410.57101      1041.250  
  21164488.555    21164492.000     1935133.34309   1311171.30109      1712.453  
  20991194.500    20991195.953     1766128.92407   1368038.48401      1428.703  
  24283897.508    24283903.977    -2549007.16809  -1884302.60709      -760.156  
  23269149.492    23269154.145     4841789.12409   3706352.17709      2956.031  
  22359435.617    22359438.219    -5331792.02709  -4068737.69009     -2720.750  
 98 11 22 11 45  5.0000000  0  7G02G27G10G13G17G19G26
  22034929.477    22034932.746    -4182546.21408  -3174742.57709     -1866.969  
  20736033.648    20736036.391     1036399.12101    811471.74202      1043.703  
  21166119.297    21166123.082     1943703.58109   1317849.40609      1715.844  
  20992554.750    20992556.133     1773278.02609   1373609.21001      1431.156  
  24283173.648    24283178.441    -2552798.86309  -1887257.22809      -756.281  
  23271962.930    23271967.629     4856571.48609   3717870.89609      2957.141  
  22356847.008    22356849.691    -5345392.91109  -4079335.78009     -2719.406  
 98 11 22 11 45 10.0000000  0  7G02G27G10G13G17G19G26
  22033153.984    22033157.102    -4191875.65408  -3182012.26709     -1864.719  
  20737027.555    20737030.250     1041622.10801    815541.60304      1045.609  
  21167753.516    21167757.195     1952289.67409   1324539.86509      1718.656  
  20993917.617    20993918.895     1780438.26209   1379188.61201      1433.031  
  24282456.133    24282461.957    -2556572.16309  -1890197.47609      -752.922  
  23274776.781    23274781.141     4871358.42009   3729393.18409      2957.719  
  22354259.891    22354262.539    -5358988.06109  -4089929.39709     -2718.563  
 98 11 22 11 45 15.0000000  0  7G02G27G10G13G17G19G26
  22031380.938    22031384.031    -4201192.55509  -3189272.18609     -1861.688  
  20738023.742    20738026.508     1046855.84101    819619.83905      1048.250  
  21169390.109    21169393.637     1960890.97109   1331242.17209      1722.188  
  20995281.844    20995283.156     1787608.97809   1384776.18002      1435.609  
  24281741.195    24281747.254    -2560327.31209  -1893123.54209      -748.766  
  23277591.172    23277595.543     4886149.43509   3740918.64209      2959.031  
  22351673.719    22351676.168    -5372577.77109  -4100518.77909     -2717.000  
 98 11 22 11 45 20.0000000  0  7G02G27G10G13G17G19G26
  22029610.781    22029613.863    -4210495.68408  -3196521.37209     -1859.484  
  20739021.836    20739024.590     1052101.41501    823707.29605      1050.063  
  21171029.742    21171033.094     1969508.40909   1337957.05309      1724.859  
  20996648.758    20996650.328     1794791.11707   1390372.64702      1437.344  
  24281030.406    24281036.137    -2564063.12309  -1896034.53509      -745.453  
  23280407.133    23280411.035     4900945.52109   3752448.05709      2959.484  
  22349088.984    22349091.246    -5386161.16009  -4111103.23609     -2716.297  
 98 11 22 11 45 25.0000000  0  7G02G27G10G13G17G19G26
  22027842.359    22027845.465    -4219788.17408  -3203762.26609     -1857.203  
  20740021.773    20740024.492     1057355.78201    827801.61305      1051.969  
  21172671.977    21172675.527     1978138.85209   1344682.07609      1727.641  
  20998017.055    20998018.555     1801981.67008   1395975.67302      1439.203  
  24280323.383    24280328.434    -2567782.71809  -1898932.92709      -742.078  
  23283223.484    23283227.188     4915743.79109   3763979.17109      2960.109  
  22346505.234    22346507.496    -5399741.26709  -4121685.12509     -2715.438  
 98 11 22 11 45 30.0000000  0  7G02G27G10G13G17G19G26
  22026076.570    22026079.547    -4229068.34809  -3210993.56509     -1854.484  
  20741023.492    20741026.152     1062620.48601    831903.98206      1054.281  
  21174317.422    21174320.820     1986784.34909   1351418.82209      1730.922  
  20999387.352    20999389.027     1809182.62401   1401586.80601      1441.531  
  24279617.844    24279624.008    -2571484.39009  -1901817.34309      -738.219  
  23286039.898    23286043.789     4930546.29009   3775513.58209      2961.250  
  22343921.742    22343923.992    -5413316.10909  -4132262.91809     -2714.141  
 98 11 22 11 45 35.0000000  0  7G02G27G10G13G17G19G26
  22024312.961    22024316.172    -4238335.95409  -3218215.07409     -1852.281  
  20742027.391    20742030.156     1067895.74101    836014.57507      1056.078  
  21175965.648    21175969.211     1995445.09109   1358167.44209      1733.641  
  21000759.531    21000761.219     1816394.18701   1407206.20701      1443.359  
  24278917.477    24278922.902    -2575167.72909  -1904687.49209      -734.859  
  23288857.445    23288861.582     4945353.43409   3787051.60409      2961.859  
  22341339.555    22341342.027    -5426885.53009  -4142836.48809     -2713.359  
 98 11 22 11 45 40.0000000  0  7G02G27G10G13G17G19G26
  22022551.742    22022554.871    -4247590.77307  -3225426.61409     -1849.859  
  20743033.258    20743036.035     1073181.82704    840133.60708      1058.141  
  21177616.602    21177620.141     2004121.24109   1364928.06909      1736.594  
  21002134.047    21002135.711     1823616.62901   1412834.08401      1445.406  
  24278219.703    24278225.598    -2578832.53609  -1907543.18509      -731.266  
  23291675.906    23291679.832     4960165.26409   3798593.28009      2962.656  
  22338758.258    22338760.777    -5440449.17109  -4153405.55109     -2712.297  
 98 11 22 11 45 45.0000000  0  7G02G27G10G13G17G19G26
  22020793.023    22020796.141    -4256833.35406  -3232628.61109     -1847.078  
  20744041.141    20744043.836     1078478.43509    844260.83309      1060.594  
  21179270.594    21179274.086     2012812.17609   1371700.22809      1739.859  
  21003510.383    21003512.012     1830849.56509   1418470.13702      1447.859  
  24277526.023    24277531.637    -2582479.08509  -1910384.64609      -727.266  
  23294495.313    23294499.320     4974981.16709   3810138.13209      2963.813  
  22336178.203    22336180.676    -5454007.19209  -4163970.23809     -2710.828  
 98 11 22 11 45 50.0000000  0  7G02G27G10G13G17G19G26
  22019036.961    22019040.172    -4266062.03806  -3239819.78109     -1844.516  
  20745051.734    20745054.512     1083787.19409    848397.53109      1062.813  
  21180927.195    21180930.629     2021519.26509   1378484.97509      1742.844  
  21004889.313    21004891.082     1838094.59009   1424115.60904      1450.031  
  24276834.516    24276839.906    -2586105.61709  -1913210.51109      -723.453  
  23297315.063    23297319.293     4989802.79409   3821687.45409      2964.750  
  22333599.797    22333602.211    -5467557.85209  -4174529.18809     -2709.547  
 98 11 22 11 45 55.0000000  0  7G02G27G10G13G17G19G26
  22017283.125    22017286.359    -4275277.77007  -3247000.86409     -1841.984  
  20746063.961    20746066.727     1089107.24709    852543.02609      1065.016  
  21182586.852    21182590.250     2030241.47409   1385281.50009      1745.828  
  21006269.891    21006271.637     1845350.72008   1429769.73503      1452.203  
  24276150.141    24276156.703    -2589713.11009  -1916021.53709      -719.734  
  23300136.867    23300141.320     5004629.20309   3833240.48509      2965.641  
  22331022.398    22331025.316    -5481102.17409  -4185083.19909     -2708.375  
 98 11 22 11 46  0.0000000  0  7G02G27G10G13G17G19G26
  22015532.180    22015535.379    -4284479.69008  -3254171.18709     -1838.797  
  20747078.672    20747081.449     1094439.58109    856698.09509      1067.922  
  21184250.258    21184253.492     2038979.76509   1392090.55909      1749.484  
  21007652.961    21007654.742     1852618.98805   1435433.32202      1455.078  
  24275466.750    24275474.418    -2593300.68809  -1918817.03909      -715.328  
  23302959.398    23302963.840     5019461.34609   3844797.99609      2967.203  
  22328446.375    22328449.480    -5494639.40609  -4195631.68209     -2706.516  
 98 11 22 11 46  5.0000000  0  7G02G27G10G13G17G19G26
  22013783.750    22013786.656    -4293667.90109  -3261330.82509     -1836.375  
  20748095.789    20748098.555     1099784.34809    860862.85209      1070.109  
  21185915.977    21185918.836     2047734.17409   1398912.16509      1752.406  
  21009038.422    21009040.145     1859899.42701   1441106.39601      1457.203  
  24274787.898    24274795.215    -2596868.55409  -1921597.20209      -711.703  
  23305783.211    23305787.570     5034298.97009   3856359.77809      2967.953  
  22325871.633    22325875.137    -5508169.69209  -4206174.75409     -2705.484  
 98 11 22 11 46 10.0000000  0  7G02G27G10G13G17G19G26
  22012037.945    22012041.051    -4302842.50609  -3268479.85409     -1833.516  
  20749115.227    20749117.992     1105141.61309    865037.34709      1072.750  
  21187584.633    21187587.703     2056504.64209   1405746.29209      1755.750  
  21010426.016    21010427.621     1867191.85902   1446788.81301      1459.719  
  24274111.891    24274118.348    -2600417.00709  -1924362.21209      -707.688  
  23308607.688    23308611.871     5049141.92809   3867925.72009      2969.188  
  22323297.906    22323301.492    -5521693.44609  -4216712.72709     -2704.063  
 98 11 22 11 46 15.0000000  0  7G02G27G10G13G17G19G26
  22010294.320    22010297.180    -4312005.00909  -3275619.45809     -1831.438  
  20750136.742    20750139.461     1110509.95109    869220.46909      1074.641  
  21189256.742    21189260.000     2065289.57709   1412591.69009      1758.297  
  21011815.906    21011817.477     1874494.86801   1452479.46901      1461.531  
  24273440.336    24273446.992    -2603947.46009  -1927113.22009      -704.438  
  23311432.813    23311436.820     5063988.62309   3879494.55909      2969.547  
  22320725.547    22320728.793    -5535212.42609  -4227246.98809     -2703.438  
 98 11 22 11 46 20.0000000  0  7G02G27G10G13G17G19G26
  22008553.141    22008555.965    -4321155.02909  -3282749.33209     -1828.969  
  20751160.680    20751163.445     1115889.85209    873412.59909      1076.891  
  21190930.758    21190934.215     2074089.54509   1419448.80109      1761.266  
  21013207.867    21013209.473     1881809.08601   1458178.86001      1463.781  
  24272771.734    24272777.453    -2607459.34409  -1929849.75709      -700.750  
  23314258.883    23314263.770     5078839.38509   3891066.56609      2970.328  
  22318153.883    22318157.035    -5548726.13109  -4237777.14409     -2702.484  
 98 11 22 11 46 25.0000000  0  7G02G27G10G13G17G19G26
  22006813.984    22006816.434    -4330293.81809  -3289870.45109     -1826.734  
  20752186.242    20752189.102     1121279.84109    877612.59309      1078.875  
  21192608.289    21192611.781     2082903.31509   1426316.66709      1764.031  
  21014601.648    21014603.230     1889133.39701   1463886.10901      1465.750  
  24272107.531    24272114.234    -2610954.18709  -1932573.01609      -697.422  
  23317085.125    23317090.117     5093693.00309   3902640.80409      2970.891  
  22315583.305    22315586.551    -5562235.99409  -4248304.30509     -2701.703  
 98 11 22 11 46 30.0000000  0  7G02G27G10G13G17G19G26
  22005077.359    22005079.762    -4339419.62409  -3296981.45309     -1823.859  
  20753214.109    20753216.922     1126681.55309    881821.71909      1081.547  
  21194288.641    21194292.027     2091732.61609   1433196.63809      1767.438  
  21015997.602    21015999.137     1896469.47401   1469602.52401      1468.406  
  24271445.117    24271452.961    -2614430.37009  -1935281.71609      -693.328  
  23319912.609    23319917.906     5108551.12209   3914218.54909      2972.109  
  22313013.125    22313016.031    -5575740.38909  -4258827.20709     -2700.297  
 98 11 22 11 46 35.0000000  0  7G02G27G10G13G17G19G26
  22003343.422    22003345.824    -4348532.65909  -3304082.51509     -1821.063  
  20754244.398    20754247.258     1132095.09603    886040.05809      1084.172  
  21195971.719    21195975.012     2100577.49709   1440088.75209      1770.828  
  21017395.977    21017397.406     1903817.19301   1475328.02401      1470.969  
  24270787.586    24270795.734    -2617887.78609  -1937975.78809      -689.359  
  23322740.938    23322746.223     5123413.78909   3925799.84209      2973.281  
  22310444.539    22310447.258    -5589239.32109  -4269345.85309     -2698.938  
 98 11 22 11 46 40.0000000  0  7G02G27G10G13G17G19G26
  22001611.563    22001613.941    -4357632.61009  -3311173.37709     -1818.969  
  20755276.742    20755279.543     1137520.87202    890267.93909      1086.078  
  21197658.031    21197661.125     2109438.50209   1446993.42909      1773.516  
  21018796.227    21018797.891     1911176.78701   1481062.77501      1472.813  
  24270133.383    24270143.535    -2621326.08009  -1940654.97809      -686.047  
  23325570.086    23325575.406     5138281.66909   3937385.21409      2973.781  
  22307876.930    22307879.813    -5602732.25509  -4279859.83009     -2698.250  
 98 11 22 11 46 45.0000000  0  7G02G27G10G13G17G19G26
  21999882.500    21999884.797    -4366719.71609  -3318254.22409     -1816.063  
  20756311.500    20756314.441     1142958.68009    894505.19109      1088.844  
  21199347.070    21199350.152     2118315.43609   1453910.51709      1777.063  
  21020199.063    21020200.563     1918548.19301   1486806.72901      1475.563  
  24269483.023    24269491.688    -2624745.06809  -1943319.11409      -681.766  
  23328400.203    23328406.074     5153154.67109   3948974.56509      2975.203  
  22305310.211    22305313.223    -5616219.23909  -4290369.16009     -2696.703  
 98 11 22 11 46 50.0000000  0  7G02G27G10G13G17G19G26
  21998155.711    21998158.184    -4375793.52409  -3325324.71309     -1813.828  
  20757348.852    20757351.652     1148408.92109    898752.13209      1090.891  
  21201039.617    21201042.746     2127208.85709   1460840.44909      1779.953  
  21021604.328    21021605.770     1925932.22704   1492560.51401      1477.703  
  24268834.984    24268843.719    -2628144.11509  -1945967.74609      -678.219  
  23331231.586    23331237.563     5168033.42009   3960568.38909      2975.953  
  22302745.195    22302747.832    -5629699.46709  -4300873.22309     -2695.766  
 98 11 22 11 46 55.0000000  0  7G02G27G10G13G17G19G26
  21996431.023    21996433.227    -4384857.24709  -3332387.34109     -1811.734  
  20758387.609    20758390.434     1153868.02406    903005.98109      1092.672  
  21202734.383    21202737.523     2136115.52909   1467780.70809      1782.641  
  21023011.195    21023012.508     1933325.53602   1498321.53101      1479.578  
  24268192.711    24268200.953    -2631526.72409  -1948603.56909      -674.891  
  23334064.156    23334069.805     5182914.74409   3972164.22709      2976.500  
  22300180.258    22300183.035    -5643176.42209  -4311374.73809     -2695.078  
 98 11 22 11 47  0.0000000  0  7G02G27G10G13G17G19G26
  21994708.289    21994710.316    -4393909.29009  -3339440.87509     -1809.313  
  20759428.352    20759431.164     1159337.24801    907267.71409      1094.797  
  21204432.133    21204435.355     2145036.81609   1474732.35409      1785.656  
  21024419.859    21024421.336     1940729.72301   1504091.02601      1481.891  
  24267551.953    24267558.773    -2634891.29109  -1951225.31309      -671.172  
  23336896.508    23336902.367     5197800.14609   3983763.23309      2977.422  
  22297617.078    22297619.809    -5656648.62909  -4321872.56009     -2694.000  
 98 11 22 11 47  5.0000000  0  7G02G27G10G13G17G19G26
  21992988.086    21992990.137    -4402949.28609  -3346485.02309     -1806.547  
  20760471.453    20760474.266     1164817.10202    911537.72809      1097.281  
  21206132.617    21206135.793     2153973.14809   1481695.72809      1789.016  
  21025831.352    21025832.816     1948145.42901   1509869.50301      1484.563  
  24266914.820    24266922.031    -2638237.41509  -1953832.68009      -667.156  
  23339729.477    23339735.277     5212690.03909   3995365.73909      2978.688  
  22295054.328    22295057.012    -5670115.41209  -4332366.16109     -2692.578  
 98 11 22 11 47 10.0000000  0  7G02G27G10G13G17G19G26
  21991270.563    21991272.566    -4411974.41909  -3353517.58509     -1803.797  
  20761516.484    20761519.320     1170310.13601    915818.01009      1099.672  
  21207836.305    21207839.445     2162927.03509   1488672.77909      1792.266  
  21027245.109    21027246.574     1955575.28201   1515659.00401      1487.094  
  24266282.188    24266289.750    -2641562.64309  -1956423.77509      -663.234  
  23342565.016    23342570.688     5227586.98409   4006973.74609      2979.813  
  22292493.383    22292495.984    -5683574.26409  -4342853.57909     -2691.266  
 98 11 22 11 47 15.0000000  0  7G02G27G10G13G17G19G26
  21989555.539    21989557.707    -4420987.80909  -3360540.99809     -1801.422  
  20762563.656    20762566.469     1175812.98301    920105.94409      1101.625  
  21209543.133    21209546.461     2171895.07809   1495660.85709      1795.094  
  21028660.969    21028662.340     1963015.65601   1521456.70901      1489.188  
  24265653.023    24265659.844    -2644870.39009  -1959001.21409      -659.734  
  23345399.773    23345405.305     5242487.52109   4018584.54709      2980.531  
  22289933.086    22289935.734    -5697028.53309  -4353337.42209     -2690.328  
 98 11 22 11 47 20.0000000  0  7G02G27G10G13G17G19G26
  21987842.555    21987844.887    -4429989.08809  -3367554.96609     -1798.875  
  20763612.805    20763615.430     1181325.76301    924401.61809      1103.719  
  21211252.445    21211255.715     2180877.35609   1502660.03009      1798.031  
  21030078.984    21030080.695     1970466.64901   1527262.67801      1491.422  
  24265026.727    24265034.148    -2648160.49309  -1961564.93909      -656.109  
  23348236.258    23348242.047     5257391.76409   4030198.23109      2981.391  
  22287373.656    22287376.223    -5710478.01609  -4363817.53909     -2689.250  
 98 11 22 11 47 25.0000000  0  7G02G27G10G13G17G19G26
  21986132.203    21986134.488    -4438976.88109  -3374558.42209     -1796.531  
  20764664.000    20764666.730     1186849.77401    928706.04209      1105.578  
  21212964.461    21212967.625     2189875.00909   1509671.18309      1800.719  
  21031499.023    21031500.805     1977929.43601   1533077.82601      1493.375  
  24264404.984    24264413.051    -2651431.67909  -1964113.90609      -652.703  
  23351073.078    23351078.551     5272301.14709   4041815.92409      2982.031  
  22284815.445    22284817.777    -5723921.28309  -4374292.80609     -2688.359  
 98 11 22 11 47 30.0000000  0  7G02G27G10G13G17G19G26
  21984424.438    21984426.746    -4447951.69209  -3381551.77009     -1793.484  
  20765717.234    20765719.953     1192384.32702    933018.68009      1108.141  
  21214679.648    21214682.742     2198887.55409   1516693.94209      1804.203  
  21032921.359    21032922.918     1985403.50801   1538901.77301      1496.141  
  24263784.992    24263791.203    -2654684.61309  -1966648.65609      -648.594  
  23353911.172    23353916.527     5287215.07109   4053437.16809      2983.406  
  22282258.391    22282260.793    -5737358.64309  -4384763.47609     -2686.719  
 98 11 22 11 47 35.0000000  0  7G02G27G10G13G17G19G26
  21982719.070    21982721.473    -4456912.73509  -3388534.39509     -1790.922  
  20766772.383    20766774.938     1197930.12701    937340.08109      1110.188  
  21216397.867    21216401.008     2207916.02809   1523729.11209      1807.203  
  21034345.734    21034347.387     1992889.77001   1544735.23001      1498.406  
  24263169.352    24263176.973    -2657918.77809  -1969168.78509      -645.078  
  23356750.617    23356756.488     5302134.24409   4065062.49309      2984.250  
  22279702.898    22279705.371    -5750789.39509  -4395229.00209     -2685.594  
 98 11 22 11 47 40.0000000  0  7G02G27G10G13G17G19G26
  21981016.328    21981018.988    -4465860.21609  -3395506.44609     -1787.875  
  20767829.891    20767832.340     1203487.16401    941670.24009      1112.828  
  21218118.688    21218121.734     2216960.59109   1530776.82309      1810.828  
  21035772.844    21035774.473     2000388.32901   1550578.26301      1501.234  
  24262557.211    24262564.152    -2661134.44709  -1971674.51509      -640.984  
  23359590.414    23359595.770     5317058.36209   4076691.66609      2985.594  
  22277148.125    22277150.574    -5764213.81209  -4405689.58609     -2683.922  
 98 11 22 11 47 45.0000000  0  7G02G27G10G13G17G19G26
  21979316.352    21979318.977    -4474793.92209  -3402467.76009     -1785.578  
  20768889.469    20768892.000     1209055.75902    946009.40809      1114.656  
  21219843.102    21219846.289     2226021.81801   1537837.52009      1813.703  
  21037202.195    21037203.824     2007899.63201   1556431.22101      1503.313  
  24261949.211    24261954.613    -2664331.34509  -1974165.57809      -637.734  
  23362432.195    23362437.668     5331987.78109   4088324.97409      2986.188  
  22274594.609    22274597.199    -5777631.25809  -4416144.74109     -2683.016  
 98 11 22 11 47 50.0000000  0  7G02G27G10G13G17G19G26
  21977618.594    21977621.359    -4483716.09508  -3409420.09009     -1783.203  
  20769950.914    20769953.434     1214633.65806    950355.82309      1116.594  
  21221570.039    21221573.250     2235097.34201   1544909.35209      1816.578  
  21038633.391    21038634.996     2015421.30501   1562292.26101      1505.438  
  24261343.992    24261350.133    -2667512.05509  -1976644.06409      -634.484  
  23365273.359    23365278.586     5346919.94609   4099960.42309      2986.750  
  22272042.156    22272044.605    -5791044.25809  -4426596.42809     -2682.125  
 98 11 22 11 47 55.0000000  0  7G02G27G10G13G17G19G26
  21975923.133    21975925.910    -4492625.27509  -3416362.29909     -1780.828  
  20771014.391    20771016.945     1220222.47109    954710.74009      1118.578  
  21223299.992    21223303.086     2244188.38301   1551993.27809      1819.500  
  21040066.969    21040068.551     2022954.63001   1568162.38601      1507.531  
  24260742.758    24260749.063    -2670675.23109  -1979108.89309      -631.188  
  23368115.688    23368120.703     5361856.00209   4111598.88909      2987.297  
  22269491.008    22269493.609    -5804451.71709  -4437043.79809     -2681.203  
 98 11 22 11 48  0.0000000  0  7G02G27G10G13G17G19G26
  21974229.875    21974232.336    -4501522.04809  -3423294.83509     -1778.109  
  20772079.813    20772082.367     1225821.77109    959073.82709      1120.906  
  21225032.875    21225036.145     2253294.64901   1559089.06509      1822.781  
  21041502.570    21041504.117     2030499.04901   1574041.16101      1509.984  
  24260143.063    24260149.883    -2673821.69409  -1981560.67009      -627.625  
  23370957.969    23370962.492     5376795.23709   4123239.85309      2988.188  
  22266940.648    22266942.828    -5817854.11509  -4447487.22809     -2680.000  
 98 11 22 11 48  5.0000000  0  7G02G27G10G13G17G19G26
  21972539.641    21972542.313    -4510405.04907  -3430216.63909     -1775.188  
  20773147.781    20773150.324     1231432.87109    963446.10809      1123.391  
  21226769.039    21226772.379     2262417.57101   1566197.83209      1826.281  
  21042940.664    21042942.340     2038055.89101   1579929.61601      1512.609  
  24259548.359    24259553.785    -2676950.40309  -1983998.59809      -623.969  
  23373802.000    23373806.910     5391739.04609   4134884.38609      2989.234  
  22264391.156    22264393.559    -5831250.31909  -4457925.83009     -2678.641  
 98 11 22 11 48 10.0000000  0  7G02G27G10G13G17G19G26
  21970851.750    21970854.340    -4519274.93607  -3437128.23209     -1772.703  
  20774217.578    20774220.180     1237054.97609    967826.96908      1125.484  
  21228508.211    21228511.680     2271556.62201   1573319.16009      1829.406  
  21044380.664    21044382.246     2045624.24101   1585827.03201      1514.797  
  24258955.922    24258961.195    -2680062.27509  -1986423.43609      -620.750  
  23376646.211    23376650.852     5406686.80709   4146531.97909      2989.922  
  22261843.313    22261845.867    -5844641.16109  -4468360.25309     -2677.656  
 98 11 22 11 48 15.0000000  0  7G02G27G10G13G17G19G26
  21969166.492    21969169.141    -4528131.22707  -3444029.22509     -1770.063  
  20775289.711    20775292.277     1242688.77209    972216.93705      1127.781  
  21230250.453    21230253.863     2280712.64401   1580453.71309      1832.750  
  21045823.430    21045824.977     2053204.71701   1591733.89801      1517.156  
  24258367.328    24258373.457    -2683156.94809  -1988834.86409      -617.359  
  23379491.898    23379496.363     5421639.13209   4158183.13309      2990.781  
  22259295.805    22259298.500    -5858026.06609  -4478790.05009     -2676.547  
 98 11 22 11 48 20.0000000  0  7G02G27G10G13G17G19G26
  21967483.352    21967485.789    -4536975.96205  -3450921.21509     -1767.969  
  20776363.555    20776366.320     1248332.45609    976614.61104      1129.547  
  21231995.805    21231999.168     2289883.76801   1587600.04009      1835.563  
  21047267.758    21047269.340     2060795.30701   1597648.64301      1518.938  
  24257780.422    24257786.797    -2686236.31009  -1991234.38509      -614.563  
  23382337.523    23382341.848     5436594.12309   4169836.36909      2991.078  
  22256750.047    22256752.508    -5871406.94009  -4489216.70709     -2675.938  
 98 11 22 11 48 25.0000000  0  7G02G27G10G13G17G19G26
  21965802.703    21965805.375    -4545809.17005  -3457804.22309     -1765.438  
  20777439.320    20777442.156     1253985.98205    981019.95201      1131.734  
  21233743.797    21233747.137     2299069.84101   1594758.01709      1838.766  
  21048714.086    21048715.680     2068395.77501   1603571.08301      1521.125  
  24257197.617    24257202.727    -2689300.47809  -1993622.06009      -611.234  
  23385184.313    23385188.754     5451551.71309   4181491.62509      2991.859  
  22254204.250    22254206.816    -5884783.72409  -4499640.17509     -2674.891  
 98 11 22 11 48 30.0000000  0  7G02G27G10G13G17G19G26
  21964124.008    21964126.645    -4554630.25004  -3464677.78209     -1763.156  
  20778517.273    20778520.145     1259649.92608    985433.41001      1133.672  
  21235494.875    21235498.344     2308271.66001   1601928.25909      1841.797  
  21050162.398    21050163.957     2076006.80901   1609501.75701      1523.125  
  24256618.320    24256624.391    -2692348.74009  -1995997.32609      -608.203  
  23388031.078    23388035.590     5466512.85709   4193149.65409      2992.406  
  22251659.750    22251662.785    -5898155.56209  -4510059.78809     -2674.016  
 98 11 22 11 48 35.0000000  0  7G02G27G10G13G17G19G26
  21962447.820    21962450.410    -4563438.62304  -3471541.44409     -1760.578  
  20779597.156    20779600.027     1265324.86802    989855.43901      1135.938  
  21237249.039    21237252.426     2317489.94601   1609111.33909      1845.156  
  21051612.984    21051614.414     2083629.21101   1615441.29201      1525.453  
  24256040.773    24256047.430    -2695380.41409  -1998359.66609      -604.844  
  23390878.672    23390882.797     5481478.02409   4204810.80309      2993.266  
  22249116.117    22249119.000    -5911521.42509  -4520474.75309     -2672.703  
 98 11 22 11 48 40.0000000  0  7G02G27G10G13G17G19G26
  21960773.922    21960776.582    -4572234.74704  -3478395.55409     -1758.000  
  20780679.102    20780681.855     1271010.49301    994285.79001      1138.188  
  21239006.195    21239009.512     2326724.37501   1616306.99309      1848.484  
  21053065.297    21053066.902     2091262.55101   1621389.35001      1527.750  
  24255467.109    24255471.363    -2698395.87809  -2000709.36809      -601.500  
  23393727.094    23393731.488     5496447.10909   4216475.03309      2994.188  
  22246573.859    22246576.695    -5924881.53509  -4530885.22309     -2671.469  
 98 11 22 11 48 45.0000000  0  7G02G27G10G13G17G19G26
  21959102.586    21959105.246    -4581017.33903  -3485239.11909     -1754.813  
  20781763.141    20781765.789     1276708.00704    998725.41101      1141.047  
  21240766.797    21240770.184     2335976.10201   1623516.12509      1852.438  
  21054520.445    21054522.004     2098907.90701   1627346.76801      1530.609  
  24254896.516    24254900.922    -2701394.17409  -2003045.72509      -597.578  
  23396576.547    23396581.293     5511421.19009   4228143.16509      2995.641  
  22244032.406    22244035.406    -5938234.75609  -4541290.33609     -2669.594  
 98 11 22 11 48 50.0000000  0  7G02G27G10G13G17G19G26
  21957433.906    21957436.730    -4589786.46003  -3492072.18409     -1752.625  
  20782849.648    20782852.121     1282417.25803   1003174.17901      1142.875  
  21242530.672    21242533.918     2345245.01101   1630738.64409      1855.359  
  21055977.570    21055978.895     2106565.03901   1633313.36201      1532.469  
  24254329.945    24254334.691    -2704375.18309  -2005368.56609      -594.609  
  23399426.906    23399430.902     5526399.97109   4239814.94209      2996.078  
  22241492.859    22241496.035    -5951580.94809  -4551689.96409     -2668.641  
 98 11 22 11 48 55.0000000  0  7G02G27G10G13G17G19G26
  21955767.422    21955770.352    -4598543.56804  -3498895.89609     -1750.156  
  20783937.914    20783940.352     1288136.59601   1007630.80301      1144.906  
  21244297.484    21244300.531     2354529.37301   1637973.20709      1858.453  
  21057436.609    21057437.980     2114232.39801   1639287.92501      1534.516  
  24253765.281    24253769.453    -2707340.28009  -2007679.04509      -591.375  
  23402277.813    23402282.113     5541382.00809   4251489.24109      2996.781  
  22238954.297    22238957.684    -5964921.35109  -4562085.07909     -2667.453  
 98 11 22 11 49  0.0000000  0  7G02G27G10G13G17G19G26
  21954103.242    21954106.242    -4607288.31704  -3505709.97809     -1747.719  
  20785028.133    20785030.547     1293866.03901   1012095.29901      1146.891  
  21246067.227    21246070.180     2363829.23301   1645219.84809      1861.516  
  21058897.531    21058899.043     2121910.14001   1645270.58101      1536.578  
  24253204.641    24253209.176    -2710289.29609  -2009976.96609      -588.203  
  23405129.344    23405133.480     5556367.51709   4263166.24709      2997.438  
  22236416.797    22236420.430    -5978255.79109  -4572475.54509     -2666.297  
 98 11 22 11 49  5.0000000  0  7G02G27G10G13G17G19G26
  21952441.781    21952444.465    -4616019.88204  -3512513.78509     -1744.906  
  20786120.594    20786122.938     1299606.34501   1016568.26301      1149.234  
  21247839.875    21247842.922     2373145.15403   1652479.00309      1864.891  
  21060360.773    21060362.168     2129598.86201   1651261.79601      1538.906  
  24252646.289    24252650.930    -2713221.67609  -2012261.91809      -584.766  
  23407982.023    23407986.359     5571357.02209   4274846.38309      2998.344  
  22233880.336    22233883.770    -5991583.47809  -4582860.75009     -2664.781  
 98 11 22 11 49 10.0000000  0  7G02G27G10G13G17G19G26
  21950782.734    21950785.676    -4624738.08504  -3519307.17909     -1742.625  
  20787215.055    20787217.328     1305357.67801   1021049.81309      1151.047  
  21249615.773    21249618.844     2382477.31404   1659750.81509      1867.703  
  21061825.805    21061827.164     2137298.37507   1657261.41901      1540.625  
  24252091.375    24252097.223    -2716137.30409  -2014533.81509      -581.766  
  23410834.898    23410839.703     5586350.40809   4286529.53409      2998.719  
  22231345.742    22231349.281    -6004904.27909  -4593240.59409     -2663.828  
 98 11 22 11 49 15.0000000  0  7G02G27G10G13G17G19G26
  21949125.633    21949128.773    -4633445.57002  -3526092.22109     -1740.188  
  20788311.109    20788313.324     1311117.46601   1025537.95109      1153.047  
  21251394.203    21251397.367     2391822.74704   1667032.96509      1870.625  
  21063292.523    21063293.859     2145005.74209   1663267.16501      1542.500  
  24251539.445    24251545.727    -2719038.91109  -2016794.79509      -578.688  
  23413688.305    23413692.828     5601344.89309   4298213.53509      2999.234  
  22228811.328    22228815.184    -6018221.01609  -4603617.27609     -2662.703  
 98 11 22 11 49 20.0000000  0  7G02G27G10G13G17G19G26
  21947471.539    21947474.750    -4642139.02806  -3532866.32909     -1737.516  
  20789409.305    20789411.508     1316889.14801   1030035.36409      1155.328  
  21253175.563    21253178.797     2401184.64504   1674327.94409      1873.828  
  21064761.344    21064762.691     2152724.31308   1669281.63301      1544.594  
  24250991.023    24250996.414    -2721923.29409  -2019042.39509      -575.422  
  23416542.641    23416546.918     5616343.70809   4309900.93309      2999.953  
  22226279.055    22226282.922    -6031530.14009  -4613988.01609     -2661.297  
 98 11 22 11 49 25.0000000  0  7G02G27G10G13G17G19G26
  21945819.148    21945822.477    -4650820.87108  -3539631.38909     -1735.031  
  20790509.156    20790511.523     1322670.54409   1034540.34609      1157.406  
  21254959.852    21254963.145     2410560.77002   1681634.00909      1876.797  
  21066231.859    21066233.160     2160451.51909   1675302.83001      1546.453  
  24250444.578    24250449.172    -2724792.90909  -2021278.46809      -572.266  
  23419396.938    23419401.250     5631344.52609   4321589.87709      3000.547  
  22223747.656    22223751.441    -6044834.14709  -4624354.77609     -2660.141  
 98 11 22 11 49 30.0000000  0  7G02G27G10G13G17G19G26
  21944169.375    21944172.586    -4659491.63309  -3546387.82009     -1732.766  
  20791611.070    20791613.461     1328461.30309   1039052.63009      1159.422  
  21256746.508    21256749.965     2419950.53601   1688950.70709      1879.625  
  21067704.016    21067705.059     2168186.83009   1681330.34801      1548.172  
  24249901.172    24249906.258    -2727648.06909  -2023503.26309      -569.266  
  23422252.102    23422256.250     5646347.06209   4333280.15509      3000.969  
  22221216.602    22221220.316    -6058133.44409  -4634717.86609     -2659.078  
 98 11 22 11 49 35.0000000  0  7G02G27G10G13G17G19G26
  21942521.797    21942525.336    -4668149.56909  -3553134.25309     -1730.688  
  20792715.117    20792717.730     1334263.64409   1043573.93609      1161.266  
  21258536.398    21258539.902     2429356.07501   1696279.69309      1882.328  
  21069178.008    21069178.945     2175932.32107   1687365.79901      1549.781  
  24249360.438    24249364.316    -2730486.78009  -2025715.22609      -566.484  
  23425108.141    23425112.066     5661353.37609   4344973.35409      3001.313  
  22218687.297    22218690.625    -6071425.84409  -4645075.58509     -2658.125  
 98 11 22 11 49 40.0000000  0  7G02G27G10G13G17G19G26
  21940876.266    21940879.711    -4676796.50209  -3559872.11209     -1728.031  
  20793821.469    20793824.176     1340075.93409   1048102.98809      1163.703  
  21260328.867    21260332.348     2438775.79401   1703619.73209      1885.625  
  21070653.414    21070654.328     2183686.75409   1693408.21401      1552.063  
  24248824.242    24248828.238    -2733310.71709  -2027915.70009      -563.031  
  23427964.008    23427968.086     5676362.08209   4356668.44209      3002.234  
  22216158.781    22216162.086    -6084712.84709  -4655429.09009     -2656.594  
 98 11 22 11 49 45.0000000  0  7G02G27G10G13G17G19G26
  21939233.570    21939237.004    -4685429.71009  -3566599.26809     -1725.438  
  20794929.906    20794932.555     1345900.90009   1052641.91209      1166.094  
  21262124.609    21262128.230     2448212.66901   1710973.14009      1888.938  
  21072131.445    21072132.219     2191453.10609   1699459.91501      1554.297  
  24248290.258    24248295.941    -2736116.94909  -2030102.38709      -559.641  
  23430820.805    23430824.543     5691375.84309   4368367.48209      3003.109  
  22213631.898    22213635.648    -6097991.53409  -4665776.11209     -2655.063  
 98 11 22 11 49 50.0000000  0  7G02G27G10G13G17G19G26
  21937592.750    21937596.230    -4694051.80309  -3573317.76909     -1723.609  
  20796040.289    20796042.703     1351736.05509   1057188.78109      1167.766  
  21263923.359    21263927.074     2457664.18302   1718337.94809      1891.469  
  21073611.047    21073611.809     2199228.80209   1705518.89801      1555.781  
  24247758.742    24247765.059    -2738907.99109  -2032277.21709      -557.031  
  23433678.773    23433682.008     5706392.18509   4380068.52509      3003.234  
  22211105.930    22211109.609    -6111264.68409  -4676118.81809     -2654.406  
 98 11 22 11 49 55.0000000  0  7G02G27G10G13G17G19G26
  21935954.141    21935957.680    -4702663.14409  -3580027.89009     -1721.078  
  20797152.258    20797154.754     1357581.07109   1061743.33209      1170.109  
  21265724.484    21265728.012     2467129.76601   1725713.72009      1894.609  
  21075092.328    21075093.078     2207013.47906   1711584.87401      1557.938  
  24247230.734    24247234.473    -2741684.24509  -2034440.51709      -553.641  
  23436536.422    23436539.996     5721410.89809   4391771.41609      3004.109  
  22208581.266    22208584.781    -6124532.88609  -4686457.67009     -2653.016  
 98 11 22 11 50  0.0000000  0  7G02G27G10G13G17G19G26
  21934317.789    21934321.457    -4711262.52909  -3586728.69609     -1718.844  
  20798266.547    20798269.055     1363437.13309   1066306.50409      1172.141  
  21267528.758    21267532.262     2476610.36401   1733101.19809      1897.438  
  21076575.852    21076576.602     2214808.21001   1717658.68801      1559.766  
  24246705.211    24246708.270    -2744444.40809  -2036591.27109      -550.594  
  23439395.477    23439398.711     5736433.47009   4403477.29109      3004.734  
  22206057.438    22206061.129    -6137794.84409  -4696791.65609     -2651.922  
 98 11 22 11 50  5.0000000  0  7G02G27G10G13G17G19G26
  21932684.164    21932687.809    -4719846.98909  -3593417.87509     -1715.406  
  20799383.430    20799386.043     1369306.87609   1070880.33509      1175.297  
  21269336.086    21269339.824     2486108.61702   1740502.43209      1901.375  
  21078061.375    21078062.055     2222615.62801   1723742.38601      1562.734  
  24246184.234    24246188.676    -2747185.67609  -2038727.31009      -546.406  
  23442255.508    23442258.402     5751463.01309   4415188.61109      3006.594  
  22203535.805    22203539.320    -6151047.64309  -4707118.50809     -2649.672  
 98 11 22 11 50 10.0000000  0  7G02G27G10G13G17G19G26
  21931052.711    21931056.168    -4728419.84509  -3600098.01109     -1713.500  
  20800502.391    20800505.156     1375186.80609   1075462.09509      1176.922  
  21271146.031    21271149.781     2495620.84505   1747914.55209      1903.766  
  21079548.938    21079549.676     2230432.17001   1729833.19501      1564.141  
  24245665.750    24245670.051    -2749911.50309  -2040851.31809      -543.688  
  23445116.445    23445119.234     5766496.21009   4426902.78909      3006.953  
  22201014.820    22201018.031    -6164294.86709  -4717441.02009     -2648.969  
 98 11 22 11 50 15.0000000  0  7G02G27G10G13G17G19G26
  21929423.789    21929427.352    -4736979.23409  -3606767.64909     -1710.297  
  20801623.750    20801626.586     1381078.76109   1080053.22309      1179.828  
  21272959.344    21272963.000     2505148.79703   1755338.92509      1907.406  
  21081038.453    21081039.098     2238259.55101   1735932.45002      1566.797  
  24245150.031    24245154.988    -2752619.84309  -2042961.71309      -539.672  
  23447977.820    23447980.457     5781535.02509   4438621.34709      3008.578  
  22198495.477    22198498.348    -6177534.55509  -4727757.65309     -2646.938  
 98 11 22 11 50 20.0000000  0  7G02G27G10G13G17G19G26
  21927797.609    21927801.125    -4745526.38009  -3613427.74709     -1708.234  
  20802747.031    20802750.055     1386981.44409   1084652.70809      1181.563  
  21274775.164    21274778.785     2514691.11203   1762774.48909      1909.828  
  21082529.828    21082530.531     2246096.61301   1742039.25103      1568.344  
  24244637.867    24244643.422    -2755311.83409  -2045059.35909      -536.797  
  23450840.672    23450843.391     5796578.44009   4450343.48709      3009.125  
  22195977.320    22195980.227    -6190767.91409  -4738069.35509     -2646.063  
 98 11 22 11 50 25.0000000  0  7G02G27G10G13G17G19G26
  21926173.250    21926176.777    -4754060.92209  -3620078.02609     -1705.828  
  20803872.344    20803875.332     1392895.03209   1089260.69809      1183.625  
  21276593.648    21276597.188     2524247.74404   1770221.21009      1912.563  
  21084023.164    21084023.867     2253943.72201   1748153.87803      1570.234  
  24244129.055    24244134.563    -2757986.88309  -2047143.81709      -533.484  
  23453704.570    23453707.336     5811626.80009   4462069.48409      3009.984  
  22193460.516    22193463.117    -6203994.67409  -4748375.91209     -2644.891  
 98 11 22 11 50 30.0000000  0  7G02G27G10G13G17G19G26
  21924551.641    21924555.250    -4762583.46809  -3626718.95709     -1703.328  
  20804999.617    20805002.406     1398818.98909   1093876.76509      1185.828  
  21278414.859    21278418.469     2533817.87504   1777678.45209      1915.344  
  21085518.164    21085518.820     2261800.20902   1754275.81505      1572.234  
  24243622.617    24243628.289    -2760645.30509  -2049215.31709      -530.031  
  23456568.805    23456572.027     5826679.57409   4473798.90509      3010.953  
  22190944.797    22190947.387    -6217215.36109  -4758677.73409     -2643.531  
 98 11 22 11 50 35.0000000  0  7G02G27G10G13G17G19G26
  21922932.086    21922935.637    -4771094.09309  -3633350.60309     -1700.609  
  20806128.938    20806131.832     1404753.27609   1098500.88709      1188.203  
  21280238.531    21280242.105     2543401.21104   1785145.98409      1918.281  
  21087014.820    21087015.664     2269666.15004   1760405.11705      1574.453  
  24243119.609    24243125.246    -2763286.93309  -2051273.72709      -526.313  
  23459433.977    23459437.832     5841736.50209   4485531.55209      3012.141  
  22188430.039    22188432.406    -6230429.93809  -4768974.80609     -2641.984  
 98 11 22 11 50 40.0000000  0  7G02G27G10G13G17G19G26
  21921315.164    21921318.738    -4779591.29209  -3639971.78209     -1698.250  
  20807260.359    20807263.383     1410699.15809   1103134.03909      1190.156  
  21282065.039    21282068.484     2552998.99103   1792624.77009      1920.844  
  21088513.828    21088514.672     2277543.02206   1766542.93406      1576.328  
  24242621.039    24242625.410    -2765910.13309  -2053317.77709      -522.922  
  23462300.227    23462303.332     5856799.01309   4497268.57909      3012.875  
  22185916.852    22185919.137    -6243636.98509  -4779266.01409     -2640.797  
 98 11 22 11 50 45.0000000  0  7G02G27G10G13G17G19G26
  21919700.422    21919704.031    -4788076.11309  -3646583.32001     -1695.531  
  20808393.797    20808396.949     1416655.33009   1107775.21109      1192.438  
  21283893.547    21283897.215     2562609.97802   1800113.84409      1923.688  
  21090014.664    21090015.496     2285429.79607   1772688.47107      1578.531  
  24242124.984    24242129.449    -2768515.96009  -2055348.26009      -519.250  
  23465167.016    23465170.613     5871865.72709   4509008.86109      3013.938  
  22183405.023    22183407.133    -6256837.49909  -4789552.12909     -2639.297  
 98 11 22 11 50 50.0000000  0  7G02G27G10G13G17G19G26
  21918088.461    21918092.047    -4796546.87809  -3653183.90701     -1692.766  
  20809529.500    20809532.676     1422623.36709   1112425.63609      1194.766  
  21285725.242    21285728.711     2572235.71902   1807614.41509      1926.547  
  21091517.641    21091518.484     2293328.08708   1778842.98008      1580.766  
  24241632.898    24241637.820    -2771102.60409  -2057363.82809      -515.422  
  23468035.461    23468038.848     5886938.12509   4520753.55909      3015.000  
  22180894.711    22180896.715    -6270030.07009  -4799832.05909     -2637.734  
 98 11 22 11 50 55.0000000  0  7G02G27G10G13G17G19G26
  21916479.031    21916482.699    -4805004.44209  -3659774.20701     -1690.234  
  20810667.273    20810670.355     1428602.45109   1117084.67209      1196.875  
  21287559.820    21287563.277     2581875.13702   1815125.64209      1929.219  
  21093022.625    21093023.434     2301237.00308   1785005.76808      1582.797  
  24241144.547    24241150.125    -2773670.67309  -2059364.92809      -511.797  
  23470904.805    23470908.953     5902015.06009   4532501.80409      3015.797  
  22178385.555    22178387.301    -6283215.60409  -4810106.49509     -2636.469  
 98 11 22 11 51  0.0000000  0  7G02G27G10G13G17G19G26
  21914872.086    21914875.789    -4813450.07109  -3666355.20601     -1687.922  
  20811807.070    20811810.188     1434591.27709   1121751.29309      1198.750  
  21289396.398    21289399.949     2591527.09502   1822646.64709      1931.672  
  21094529.492    21094530.230     2309155.39809   1791175.94509      1584.641  
  24240658.789    24240663.934    -2776221.31609  -2061352.44009      -508.375  
  23473773.828    23473777.109     5917095.46909   4544252.75409      3016.422  
  22175877.625    22175879.629    -6296395.47109  -4820376.51309     -2635.422  
 98 11 22 11 51  5.0000000  0  7G02G27G10G13G17G19G26
  21913267.133    21913270.754    -4821883.67109  -3672926.83001     -1685.484  
  20812948.578    20812951.695     1440589.99309   1126425.61009      1200.781  
  21291235.688    21291239.297     2601191.80501   1830177.58809      1934.234  
  21096038.242    21096038.980     2317083.40907   1797353.61209      1586.594  
  24240176.625    24240180.820    -2778754.15209  -2063326.08509      -504.719  
  23476644.500    23476647.371     5932179.41309   4556006.47409      3017.203  
  22173370.406    22173372.609    -6309569.54709  -4830642.01909     -2634.172  
 98 11 22 11 51 10.0000000  0  7G02G27G10G13G17G19G26
  21911664.719    21911668.328    -4830303.91109  -3679488.04201     -1682.688  
  20814092.297    20814095.297     1446600.15509   1131108.84409      1203.234  
  21293077.625    21293081.270     2610870.65401   1837719.53909      1937.219  
  21097548.758    21097549.426     2325022.44809   1803539.87509      1588.953  
  24239698.414    24239700.898    -2781267.54109  -2065284.55509      -500.719  
  23479515.594    23479518.395     5947268.58609   4567764.25809      3018.391  
  22170864.781    22170867.230    -6322736.28409  -4840901.80409     -2632.578  
 98 11 22 11 51 15.0000000  0  7G02G27G10G13G17G19G26
  21910065.063    21910068.684    -4838710.83309  -3686038.87801     -1680.141  
  20815238.258    20815241.563     1452622.02209   1135801.19901      1205.453  
  21294922.180    21294925.789     2620563.76102   1845272.60809      1939.969  
  21099061.734    21099062.543     2332972.50008   1809734.71809      1591.016  
  24239224.102    24239228.273    -2783761.61509  -2067228.00009      -496.969  
  23482387.477    23482389.773     5962363.04809   4579526.16709      3019.344  
  22168360.867    22168363.281    -6335895.72009  -4851155.89709     -2631.250  
 98 11 22 11 51 20.0000000  0  7G02G27G10G13G17G19G26
  21908467.305    21908470.844    -4847106.36305  -3692580.83701     -1678.031  
  20816386.055    20816389.055     1458653.76109   1140501.25201      1207.281  
  21296768.711    21296772.426     2630269.25202   1852835.32609      1942.266  
  21100576.250    21100577.188     2340931.61108   1815936.62009      1592.672  
  24238753.086    24238756.215    -2786238.35609  -2069157.90709      -493.672  
  23485260.398    23485262.215     5977460.92009   4591290.73809      3019.859  
  22165857.336    22165860.008    -6349049.95309  -4861405.94009     -2630.375  
 98 11 22 11 51 25.0000000  0  7G02G27G10G13G17G19G26
  21906871.664    21906875.109    -4855491.65807  -3699114.81901     -1675.609  
  20817535.852    20817538.828     1464694.29701   1145208.16401      1209.406  
  21298618.102    21298621.781     2639986.14502   1860406.92509      1944.969  
  21102092.398    21102093.324     2348898.91007   1822144.90309      1594.734  
  24238285.008    24238288.324    -2788698.73909  -2071075.08109      -489.984  
  23488134.109    23488138.105     5992561.09109   4603057.09809      3020.688  
  22163355.039    22163358.039    -6362200.07509  -4871652.77309     -2629.172  
 98 11 22 11 51 30.0000000  0  7G02G27G10G13G17G19G26
  21905278.492    21905281.984    -4863863.56602  -3705638.37501     -1672.797  
  20818687.406    20818690.406     1470746.69701   1149924.32401      1211.922  
  21300469.828    21300473.461     2649717.75201   1867989.99109      1948.016  
  21103610.852    21103611.859     2356877.94608   1828362.33009      1597.234  
  24237820.516    24237824.219    -2791139.29509  -2072976.79309      -485.906  
  23491008.344    23491012.328     6007666.83809   4614827.78009      3021.969  
  22160853.984    22160857.195    -6375342.78709  -4881893.84009     -2627.531  
 98 11 22 11 51 35.0000000  0  7G02G27G10G13G17G19G26
  21903688.102    21903691.488    -4872222.09604  -3712151.50501     -1670.469  
  20819841.367    20819844.309     1476810.98201   1154649.74301      1213.953  
  21302324.383    21302328.027     2659463.99901   1875584.46509      1950.641  
  21105131.336    21105132.309     2364868.94206   1834589.07609      1599.328  
  24237359.836    24237365.379    -2793560.15809  -2074863.18509      -482.266  
  23493884.086    23493887.766     6022778.40009   4626603.01409      3022.781  
  22158354.391    22158357.531    -6388477.92909  -4892129.00409     -2626.344  
 98 11 22 11 51 40.0000000  0  7G02G27G10G13G17G19G26
  21902099.422    21902102.691    -4880569.59401  -3718656.04001     -1668.016  
  20820997.195    20821000.160     1482884.79501   1159382.58401      1216.094  
  21304181.656    21304185.125     2669222.92401   1883188.82109      1953.438  
  21106654.000    21106654.938     2372869.68406   1840823.41909      1601.484  
  24236902.031    24236907.398    -2795963.60409  -2076735.99209      -478.578  
  23496760.383    23496763.875     6037893.38609   4638380.91709      3023.719  
  22155855.922    22155858.992    -6401607.75709  -4902360.03109     -2625.063  
 98 11 22 11 51 45.0000000  0  7G02G27G10G13G17G19G26
  21900513.313    21900516.547    -4888905.19501  -3725151.30401     -1665.766  
  20822155.023    20822158.082     1488969.13001   1164123.62101      1218.078  
  21306041.305    21306044.902     2678995.40901   1890803.74109      1956.031  
  21108178.445    21108179.348     2380881.07506   1847066.06009      1603.516  
  24236448.008    24236451.266    -2798348.62909  -2078594.44909      -474.969  
  23499637.414    23499642.254     6053012.69409   4650162.17509      3024.469  
  22153358.797    22153361.891    -6414731.29009  -4912586.15509     -2623.891  
 98 11 22 11 51 50.0000000  0  7G02G27G10G13G17G19G26
  21898929.656    21898932.750    -4897227.21001  -3731635.98101     -1663.188  
  20823315.055    20823318.055     1495065.63801   1168874.14403      1220.359  
  21307903.883    21307907.539     2688783.16901   1898430.56609      1958.922  
  21109705.398    21109706.500     2388904.92806   1853318.41209      1605.859  
  24235998.836    24236003.453    -2800713.36409  -2080437.08309      -471.063  
  23502515.773    23502521.563     6068137.94109   4661948.08609      3025.438  
  22150862.820    22150865.668    -6427846.64309  -4922805.90209     -2622.422  
 98 11 22 11 51 55.0000000  0  7G02G27G10G13G17G19G26
  21897348.281    21897351.398    -4905536.73302  -3738110.92201     -1660.797  
  20824477.359    20824480.277     1501172.64701   1173632.85103      1222.250  
  21309769.000    21309772.645     2698584.93802   1906068.30109      1961.594  
  21111234.180    21111235.234     2396939.70405   1859579.27409      1607.859  
  24235551.461    24235554.777    -2803059.38909  -2082265.13809      -467.500  
  23505394.344    23505400.145     6083267.52209   4673737.35809      3026.188  
  22148368.477    22148371.113    -6440955.32809  -4933020.45109     -2621.266  
 98 11 22 11 52  0.0000000  0  7G02G27G10G13G17G19G26
  21895769.445    21895772.492    -4913833.90101  -3744576.23601     -1658.188  
  20825641.375    20825644.258     1507289.39204   1178399.14405      1224.344  
  21311636.648    21311640.328     2708400.09501   1913716.47209      1964.359  
  21112765.211    21112766.266     2404984.71202   1865848.11009      1610.000  
  24235109.117    24235112.504    -2805387.07609  -2084078.91009      -463.672  
  23508274.656    23508280.129     6098401.02209   4685529.67509      3027.063  
  22145874.852    22145877.840    -6454057.99009  -4943230.30509     -2619.953  
 98 11 22 11 52  5.0000000  0  7G02G27G10G13G17G19G26
  21894192.867    21894195.832    -4922119.42202  -3751032.47201     -1656.078  
  20826807.148    20826810.090     1513415.17004   1183172.47905      1225.922  
  21313506.836    21313510.598     2718227.54601   1921374.21909      1966.547  
  21114297.742    21114298.902     2413038.77304   1872124.00109      1611.563  
  24234669.445    24234673.395    -2807697.02209  -2085878.85009      -460.328  
  23511155.219    23511160.902     6113537.47109   4697324.29709      3027.453  
  22143382.578    22143385.777    -6467155.78109  -4953436.36209     -2619.234  
 98 11 22 11 52 10.0000000  0  7G02G27G10G13G17G19G26
  21892618.344    21892621.367    -4930392.35701  -3757478.90701     -1653.422  
  20827974.773    20827977.727     1519550.98205   1187953.62806      1228.078  
  21315379.422    21315382.914     2728068.12701   1929042.19809      1969.344  
  21115832.289    21115833.555     2421102.86003   1878407.70509      1613.734  
  24234233.469    24234237.758    -2809988.27309  -2087664.22609      -456.469  
  23514035.969    23514042.227     6128677.87809   4709122.01509      3028.422  
  22140890.906    22140894.117    -6480247.85109  -4963637.96209     -2617.922  
 98 11 22 11 52 15.0000000  0  7G02G27G10G13G17G19G26
  21891047.063    21891050.109    -4938651.35505  -3763914.48001     -1650.531  
  20829144.594    20829147.512     1525697.98505   1192743.49507      1230.375  
  21317254.820    21317258.441     2737923.08301   1936721.38309      1972.313  
  21117369.094    21117370.512     2429178.32103   1884700.26809      1616.094  
  24233800.930    24233806.402    -2812259.44609  -2089433.97009      -452.359  
  23516918.313    23516924.816     6143823.36109   4720923.68009      3029.469  
  22138401.125    22138404.582    -6493332.92509  -4973834.12209     -2616.422  
 98 11 22 11 52 20.0000000  0  7G02G27G10G13G17G19G26
  21889477.648    21889480.508    -4946898.01406  -3770340.43701     -1648.047  
  20830315.938    20830318.855     1531854.45407   1197540.74108      1232.281  
  21319132.633    21319136.207     2747790.91201   1944410.59509      1974.891  
  21118907.609    21118909.016     2437263.40702   1891000.33409      1618.031  
  24233372.352    24233378.516    -2814512.11909  -2091189.30009      -448.609  
  23519800.992    23519806.523     6158972.06109   4732727.83709      3030.047  
  22135912.047    22135915.363    -6506412.48309  -4984025.97809     -2615.313  
 98 11 22 11 52 25.0000000  0  7G02G27G10G13G17G19G26
  21887910.922    21887913.664    -4955130.74501  -3776755.54501     -1645.234  
  20831489.750    20831492.680     1538022.07106   1202346.67608      1234.563  
  21321013.078    21321016.594     2757673.25001   1952111.11809      1977.859  
  21120448.344    21120449.785     2445359.80301   1897309.21109      1620.328  
  24232947.516    24232953.328    -2816744.60409  -2092928.89509      -444.547  
  23522684.328    23522690.094     6174125.17409   4744535.43909      3030.984  
  22133424.406    22133427.395    -6519484.90109  -4994212.26909     -2613.859  
 98 11 22 11 52 30.0000000  0  7G02G27G10G13G17G19G26
  21886346.953    21886349.672    -4963349.86301  -3783160.04501     -1642.266  
  20832665.656    20832668.387     1544200.86209   1207161.31608      1237.078  
  21322896.648    21322900.152     2767570.13301   1959822.96609      1981.047  
  21121991.063    21121992.609     2453467.44201   1903626.85309      1622.875  
  24232526.344    24232531.301    -2818956.92609  -2094652.78009      -440.234  
  23525568.883    23525574.496     6189282.40909   4756346.25509      3032.078  
  22130937.922    22130940.828    -6532550.33009  -5004393.10309     -2612.172  
 98 11 22 11 52 35.0000000  0  7G02G27G10G13G17G19G26
  21884785.703    21884788.375    -4971554.41201  -3789553.19601     -1639.359  
  20833843.805    20833846.570     1550391.82409   1211985.43909      1239.484  
  21324782.703    21324786.301     2777482.81601   1967547.12709      1984.234  
  21123536.305    21123537.887     2461587.61002   1909954.25809      1625.406  
  24232109.266    24232114.785    -2821147.72809  -2096359.88709      -435.891  
  23528454.539    23528461.137     6204444.86209   4768161.12609      3033.125  
  22128453.383    22128456.254    -6545607.69809  -5014567.65809     -2610.578  
 98 11 22 11 52 40.0000000  0  7G02G27G10G13G17G19G26
  21883227.039    21883229.535    -4979744.77701  -3795935.28701     -1636.906  
  20835024.047    20835026.730     1556594.46609   1216818.66309      1241.438  
  21326672.195    21326675.664     2787411.15501   1975283.48809      1986.984  
  21125083.883    21125085.559     2469720.11301   1916291.27209      1627.484  
  24231697.031    24231702.879    -2823317.25709  -2098050.41909      -432.063  
  23531340.672    23531346.672     6219612.33509   4779979.92809      3033.750  
  22125970.320    22125973.063    -6558657.14009  -5024736.04609     -2609.328  
 98 11 22 11 52 45.0000000  0  7G02G27G10G13G17G19G26
  21881670.727    21881673.270    -4987923.34401  -3802308.18601     -1634.359  
  20836206.195    20836208.715     1562806.25209   1221659.01509      1243.469  
  21328564.031    21328567.605     2797352.83601   1983030.24709      1989.875  
  21126633.211    21126634.863     2477862.41209   1922635.91708      1629.625  
  24231287.258    24231293.129    -2825468.10809  -2099726.39409      -428.125  
  23534227.813    23534233.473     6234782.22809   4791800.60709      3034.422  
  22123487.984    22123490.797    -6571700.95009  -5034900.04609     -2608.000  
 98 11 22 11 52 50.0000000  0  7G02G27G10G13G17G19G26
  21880117.008    21880119.480    -4996089.13201  -3808671.12901     -1631.828  
  20837390.242    20837392.727     1569028.18409   1226507.27109      1245.453  
  21330458.633    21330462.406     2807309.11601   1990788.38309      1992.813  
  21128184.711    21128186.340     2486015.62309   1928989.06907      1631.813  
  24230882.086    24230887.945    -2827599.27909  -2101387.03809      -424.188  
  23537114.969    23537120.359     6249955.53609   4803623.95709      3035.063  
  22121007.078    22121010.031    -6584738.01309  -5045058.78609     -2606.688  
 98 11 22 11 52 55.0000000  0  7G02G27G10G13G17G19G26
  21878565.195    21878567.691    -5004242.79603  -3815024.62601     -1629.594  
  20838576.070    20838578.414     1575259.54209   1231362.87209      1247.141  
  21332355.820    21332359.664     2817279.51201   1998557.51809      1995.406  
  21129738.320    21129739.914     2494179.14809   1935350.25908      1633.641  
  24230479.977    24230486.434    -2829711.52909  -2103032.92409      -420.641  
  23540003.508    23540007.891     6265131.57209   4815449.41709      3035.422  
  22118527.578    22118530.355    -6597769.10109  -5055212.87009     -2605.688  
 98 11 22 11 53  0.0000000  0  7G02G27G10G13G17G19G26
  21877015.766    21877018.273    -5012385.31202  -3821369.43701     -1627.063  
  20839763.469    20839765.906     1581499.41609   1236225.11109      1249.156  
  21334255.648    21334259.645     2827263.01901   2006336.86909      1998.344  
  21131293.352    21131294.793     2502351.91909   1941718.65307      1635.813  
  24230081.117    24230086.402    -2831806.03109  -2104665.01109      -416.813  
  23542892.047    23542896.359     6280309.56209   4827276.41009      3036.094  
  22116048.453    22116050.797    -6610795.20609  -5065363.07209     -2604.406  
 98 11 22 11 53  5.0000000  0  7G02G27G10G13G17G19G26
  21875468.719    21875471.297    -5020514.21106  -3827703.64101     -1624.422  
  20840953.000    20840955.402     1587750.40309   1241096.00609      1251.313  
  21336158.398    21336162.488     2837262.20401   2014128.43309      2001.406  
  21132850.875    21132852.258     2510536.36109   1948096.14006      1638.063  
  24229686.547    24229691.328    -2833880.52709  -2106281.49309      -412.906  
  23545781.391    23545785.738     6295491.99309   4839106.86609      3036.938  
  22113571.250    22113573.500    -6623813.84009  -5075507.46109     -2602.984  
 98 11 22 11 53 10.0000000  0  7G02G27G10G13G17G19G26
  21873924.469    21873927.012    -5028629.46607  -3834027.20701     -1621.828  
  20842144.547    20842146.938     1594012.52609   1245975.58309      1253.406  
  21338064.359    21338068.344     2847277.11801   2021932.24909      2004.422  
  21134410.539    21134411.910     2518732.53309   1954482.76307      1640.281  
  24229295.133    24229300.594    -2835935.06909  -2107882.42409      -409.063  
  23548671.391    23548675.609     6310679.17909   4850941.02409      3037.813  
  22111095.141    22111097.543    -6636824.97909  -5085646.00509     -2601.594  
 98 11 22 11 53 15.0000000  0  7G02G27G10G13G17G19G26
  21872382.805    21872385.395    -5036732.60209  -3840341.32801     -1619.797  
  20843338.133    20843340.395     1600284.22109   1250862.61709      1254.906  
  21339972.859    21339976.797     2857306.38901   2029747.25909      2006.922  
  21135972.156    21135973.492     2526939.07709   1960877.47106      1641.969  
  24228908.336    24228912.707    -2837971.38809  -2109469.15309      -405.859  
  23551561.883    23551566.254     6325869.74509   4862777.80909      3038.094  
  22108620.234    22108623.164    -6649830.02109  -5095779.79309     -2600.781  
 98 11 22 11 53 20.0000000  0  7G02G27G10G13G17G19G26
  21870842.781    21870845.418    -5044824.31809  -3846646.55201     -1616.797  
  20844533.281    20844535.590     1606564.72305   1255756.50909      1257.375  
  21341883.961    21341887.805     2867349.44501   2037573.01309      2010.375  
  21137535.617    21137536.813     2535155.24709   1967279.68305      1644.594  
  24228523.148    24228526.781    -2839990.55109  -2111042.53409      -401.719  
  23554453.453    23554457.848     6341062.94509   4874616.65309      3039.281  
  22106146.594    22106149.816    -6662829.79409  -5105909.47309     -2599.047  
 98 11 22 11 53 25.0000000  0  7G02G27G10G13G17G19G26
  21869305.633    21869308.293    -5052902.17209  -3852940.97701     -1614.469  
  20845730.516    20845732.754     1612856.34105   1260659.06509      1259.141  
  21343798.070    21343801.832     2877408.24301   2045411.03009      2013.016  
  21139101.578    21139102.785     2543383.19809   1973691.07305      1646.453  
  24228143.172    24228148.434    -2841990.41709  -2112600.88609      -398.375  
  23557345.172    23557349.824     6356260.85809   4886459.17009      3039.750  
  22103674.242    22103676.797    -6675822.02209  -5116033.26909     -2597.984  
 98 11 22 11 53 30.0000000  0  7G02G27G10G13G17G19G26
  21867770.688    21867773.395    -5060968.49309  -3859226.41901     -1611.922  
  20846929.383    20846931.539     1619156.43107   1265568.22309      1261.031  
  21345714.875    21345718.461     2887480.22401   2053259.32209      2015.906  
  21140668.891    21140670.098     2551620.29409   1980109.58804      1648.516  
  24227764.664    24227770.254    -2843973.70309  -2114146.29109      -394.828  
  23560237.891    23560242.637     6371460.88009   4898303.33309      3040.375  
  22101202.922    22101205.500    -6688809.18709  -5126153.12709     -2596.781  
 98 11 22 11 53 35.0000000  0  7G02G27G10G13G17G19G26
  21866238.055    21866240.715    -5069021.88509  -3865501.78001     -1609.344  
  20848130.070    20848132.227     1625465.94307   1270484.72009      1262.844  
  21347634.203    21347637.672     2897566.73901   2061118.93509      2018.781  
  21142238.258    21142239.477     2559867.74209   1986536.16903      1650.563  
  24227391.070    24227396.566    -2845939.25209  -2115677.89609      -391.313  
  23563131.258    23563135.746     6386664.06109   4910149.95409      3040.969  
  22098732.688    22098735.418    -6701790.40409  -5136268.35609     -2595.625  
 98 11 22 11 53 40.0000000  0  7G02G27G10G13G17G19G26
  21864707.922    21864710.629    -5077062.24309  -3871766.98601     -1606.703  
  20849332.594    20849334.773     1631784.83104   1275408.52409      1264.813  
  21349556.516    21349559.938     2907667.77301   2068989.86409      2021.719  
  21143809.680    21143810.781     2568125.79509   1992971.01403      1652.766  
  24227020.883    24227026.344    -2847887.10509  -2117195.69109      -387.734  
  23566024.836    23566029.781     6401870.43709   4921999.05909      3041.656  
  22096263.984    22096265.941    -6714765.48309  -5146378.80209     -2594.344  
 98 11 22 11 53 45.0000000  0  7G02G27G10G13G17G19G26
  21863180.539    21863183.188    -5085089.33909  -3878021.85701     -1604.141  
  20850536.891    20850538.953     1638113.45706   1280339.91709      1266.641  
  21351481.484    21351484.801     2917783.66802   2076872.36809      2024.609  
  21145383.398    21145384.383     2576394.87909   1999414.45403      1654.844  
  24226653.305    24226657.898    -2849817.02609  -2118699.48409      -384.281  
  23568919.375    23568923.898     6417080.20609   4933850.81009      3042.234  
  22093796.141    22093798.063    -6727734.02109  -5156484.14809     -2593.125  
 98 11 22 11 53 50.0000000  0  7G02G27G10G13G17G19G26
  21861655.641    21861658.523    -5093102.73808  -3884266.05501     -1601.156  
  20851743.180    20851745.289     1644452.22001   1285279.21009      1268.938  
  21353409.469    21353412.809     2927914.83001   2084766.77209      2027.938  
  21146959.086    21146959.930     2584675.19309   2005866.64902      1657.328  
  24226289.641    24226295.852    -2851728.86709  -2120189.21809      -380.406  
  23571814.180    23571819.020     6432293.83809   4945705.57409      3043.297  
  22091329.531    22091331.008    -6740695.89509  -5166584.31409     -2591.578  
 98 11 22 11 53 55.0000000  0  7G02G27G10G13G17G19G26
  21860133.063    21860136.355    -5101102.74408  -3890499.81701     -1598.719  
  20852951.398    20852953.625     1650801.00602   1290226.31009      1270.703  
  21355340.180    21355343.461     2938061.13303   2092672.97809      2030.688  
  21148536.766    21148537.504     2592966.21209   2012327.18401      1659.188  
  24225929.617    24225935.336    -2853623.00609  -2121665.19409      -377.094  
  23574709.961    23574714.566     6447511.05209   4957563.13909      3043.750  
  22088864.008    22088865.602    -6753651.62009  -5176679.69809     -2590.609  
 98 11 22 11 54  0.0000000  0  7G02G27G10G13G17G19G26
  21858613.133    21858616.344    -5109089.97909  -3896723.63401     -1596.109  
  20854161.203    20854163.348     1657159.10904   1295180.67509      1272.594  
  21357273.445    21357276.539     2948221.65504   2100590.26609      2033.563  
  21150116.305    21150117.137     2601267.01809   2018795.34601      1661.203  
  24225572.078    24225578.488    -2855500.01909  -2123127.79809      -373.641  
  23577606.016    23577611.043     6462731.17409   4969422.96209      3044.375  
  22086399.703    22086401.191    -6766601.98409  -5186770.87809     -2589.516  
 98 11 22 11 54  5.0000000  0  7G02G27G10G13G17G19G26
  21857096.008    21857099.348    -5117063.40308  -3902936.68701     -1593.109  
  20855373.094    20855375.121     1663527.35509   1300142.94009      1274.813  
  21359210.094    21359213.305     2958397.26001   2108519.30509      2036.828  
  21151697.875    21151698.602     2609578.52409   2025271.84601      1663.547  
  24225217.469    24225223.492    -2857358.94909  -2124576.29909      -369.797  
  23580502.281    23580507.918     6477955.18309   4981285.81709      3045.406  
  22083936.508    22083938.160    -6779546.34009  -5196857.37609     -2588.109  
