     2              OBSERVATION DATA    G (GPS)             RINEX VERSION / TYPE
TerraSat GeoGenius GPS+GLONASS Decoder  08-Jun-99 19:22:46  PGM / RUN BY / DATE
ZB00____                      ZB001751                      MARKER NAME
                                                            OBSERVER / AGENCY
     14916          TRIMBLE              722 306            REC # / TYPE / VERS
00000000            EXT_COMP_L12_GP                         ANT # / TYPE
  4177105.1044   854991.1165  4728431.1402                  APPROX POSITION XYZ
        0.0000        0.0000        0.0000                  ANTENNA: DELTA H/E/N
     1     1     0                                          WAVELENGTH FACT L1/2
     5    C1    P2    L1    L2    D1                        # / TYPES OF OBSERV
     1                                                      INTERVAL
  1997     6    24    14    48   56.000000        GPS       TIME OF FIRST OBS
                                                            END OF HEADER
 97  6 24 14 48 56.0000000  0  7G01G14G31G15G29G21G02
  22179050.672    22179054.867      113466.77611     20642.67119      2652.547  
  22097074.188    22097078.078      -50087.89519    -11739.25019     -1156.422  
  22219902.445                       90177.68119         0.00000      4750.234  
  20022894.320                       18929.69319         0.00000      1000.984  
  22451824.148    22451827.664      -66103.72619    -15508.12119     -1528.469  
  24295545.938                       89704.87119         0.00000      4722.781  
  24440839.992                       82461.76019         0.00000      2239.563  
 97  6 24 14 48 57.0000000  0  7G01G14G31G15G29G21G02
  22179555.563    22179559.676      116119.65701     22709.85309      2653.250  
  22096854.234    22096858.195      -51244.12209    -12640.20609     -1155.984  
  22220806.500                       94928.11709         0.00000      4750.688  
  20023084.844                       19930.92409         0.00000      1001.531  
  22451533.359    22451536.969      -67632.01209    -16698.99209     -1528.016  
  24296444.711                       94427.72609         0.00000      4722.953  
  24441265.648                       84701.61009         0.00000      2240.203  
 97  6 24 14 48 58.0000000  0  7G01G14G31G15G29G21G02
  22180060.539    22180064.629      118773.36101     24777.67809      2654.016  
  22096634.359    22096638.285      -52399.75909    -13540.70309     -1155.469  
  22221710.664                       99679.16309         0.00000      4751.219  
  20023275.477                       20932.83909         0.00000      1002.141  
  22451242.570    22451246.145      -69159.66509    -17889.36709     -1527.469  
  24297343.438                       99150.90409         0.00000      4723.234  
  24441691.555                       86942.26809         0.00000      2240.906  
 97  6 24 14 48 59.0000000  0  7G01G14G31G15G29G21G02
  22180565.719    22180569.773      121427.68102     26845.97709      2654.703  
  22096414.336    22096418.156      -53555.03009    -14440.91609     -1155.000  
  22222614.750                      104430.57409         0.00000      4751.703  
  20023466.352                       21935.22409         0.00000      1002.703  
  22450951.859    22450955.375      -70686.93809    -19079.44609     -1526.953  
  24298242.250                      103874.19409         0.00000      4723.438  
  24442119.117                       89183.47509         0.00000      2241.594  
 97  6 24 14 49  0.0000000  0  7G01G14G31G15G29G21G02
  22181070.969    22181075.023      124082.55002     28914.70809      2655.078  
  22096194.453    22096198.262      -54710.01809    -15340.90609     -1154.891  
  22223519.102                      109182.29909         0.00000      4751.828  
  20023656.875                       22938.00309         0.00000      1002.922  
  22450661.141    22450664.574      -72213.88809    -20269.27109     -1526.844  
  24299140.859                      108597.52909         0.00000      4723.328  
  24442545.570                       91425.19709         0.00000      2241.906  
 97  6 24 14 49  1.0000000  0  7G01G14G31G15G29G21G02
  22181576.281    22181580.336      126737.96401     30983.86309      2655.828  
  22095974.398    22095978.266      -55864.70409    -16240.65909     -1154.422  
  22224423.164                      113934.33909         0.00000      4752.297  
  20023847.953                       23941.18709         0.00000      1003.500  
  22450371.008    22450374.523      -73740.51009    -21458.84209     -1526.344  
  24300040.070                      113320.94309         0.00000      4723.531  
  24442972.016                       93667.42109         0.00000      2242.578  
 97  6 24 14 49  2.0000000  0  7G01G14G31G15G29G21G02
  22182081.742    22182085.832      129394.01002     33053.51009      2656.344  
  22095755.125    22095759.039      -57019.02609    -17140.13109     -1154.156  
  22225327.445                      118686.76109         0.00000      4752.609  
  20024038.758                       24944.83809         0.00000      1003.875  
  22450080.539    22450083.984      -75266.74009    -22648.10709     -1526.031  
  24300939.055                      118044.47209         0.00000      4723.594  
  24443398.867                       95910.22709         0.00000      2243.094  
 97  6 24 14 49  3.0000000  0  7G01G14G31G15G29G21G02
  22182587.391    22182591.527      132050.79802     35123.73609      2657.250  
  22095535.500    22095539.449      -58172.87909    -18039.23709     -1153.500  
  22226232.125                      123439.67409         0.00000      4753.266  
  20024230.086                       25949.07809         0.00000      1004.641  
  22449790.375    22449793.621      -76792.45809    -23836.97509     -1525.359  
  24301837.422                      122768.22609         0.00000      4723.984  
  24443825.961                       98153.72109         0.00000      2243.953  
 97  6 24 14 49  4.0000000  0  7G01G14G31G15G29G21G02
  22183093.008    22183097.109      134708.43202     37194.62109      2657.813  
  22095316.102    22095320.051      -59326.12209    -18937.86809     -1153.203  
  22227136.797                      128193.22209         0.00000      4753.594  
  20024421.203                       26954.03209         0.00000      1005.047  
  22449499.703    22449503.090      -78317.52909    -25025.33909     -1525.016  
  24302736.023                      127492.36209         0.00000      4724.063  
  24444253.328                      100398.05809         0.00000      2244.484  
 97  6 24 14 49  5.0000000  0  7G01G14G31G15G29G21G02
  22183598.734    22183603.012      137366.33702     39265.71409      2658.078  
  22095096.992    22095101.000      -60479.35509    -19836.49209     -1153.172  
  22228041.352                      132946.79209         0.00000      4753.656  
  20024612.461                       27959.10909         0.00000      1005.188  
  22449209.750    22449213.125      -79842.55809    -26213.67209     -1524.938  
  24303635.141                      132216.28009         0.00000      4723.875  
  24444679.609                      102642.59809         0.00000      2244.719  
 97  6 24 14 49  6.0000000  0  7G01G14G31G15G29G21G02
  22184104.664    22184108.930      140024.86002     41337.29209      2658.906  
  22094877.313    22094881.238      -61632.22809    -20734.83509     -1152.609  
  22228946.055                      137700.74209         0.00000      4754.219  
  20024803.789                       28964.66409         0.00000      1005.875  
  22448919.336    22448922.570      -81367.19409    -27401.70109     -1524.359  
  24304534.102                      136940.33209         0.00000      4724.188  
  24445106.805                      104887.73109         0.00000      2245.516  
 97  6 24 14 49  7.0000000  0  7G01G14G31G15G29G21G02
  22184610.742    22184614.938      142684.15902     43409.47409      2659.469  
  22094658.258    22094662.066      -62784.55009    -21632.74709     -1152.297  
  22229850.594                      142455.27009         0.00000      4754.563  
  20024995.234    20024998.574       29970.87609         0.00019      1006.297  
  22448629.492    22448632.598      -82891.22909    -28589.26009     -1524.000  
  24305433.461                      141664.72609         0.00000      4724.313  
  24445535.227                      107133.62809         0.00000      2246.047  
 97  6 24 14 49  8.0000000  0  7G01G14G31G15G29G21G02
  22185116.742    22185121.020      145343.85001     45481.96309      2660.000  
  22094438.820    22094442.664      -63936.74009    -22530.55509     -1151.984  
  22230755.383    22230758.406      147209.92009         0.00019      4754.875  
  20025186.711    20025190.039       30977.32809       783.13001      1006.719  
  22448339.414    22448342.473      -84415.09609    -29776.68409     -1523.609  
  24306332.633                      146389.05109         0.00000      4724.422  
  24445961.711                      109379.87609         0.00000      2246.563  
 97  6 24 14 49  9.0000000  0  7G01G14G31G15G29G21G02
  22185622.969    22185627.293      148004.19101     47554.95509      2660.703  
  22094219.625    22094223.387      -65088.53209    -23428.05309     -1151.547  
  22231660.320    22231663.332      151964.98509      3700.75909      4755.328  
  20025378.383    20025381.676       31984.29009      1567.77701      1007.266  
  22448049.563    22448052.598      -85938.52309    -30963.77109     -1523.141  
  24307231.125                      151113.54109         0.00000      4724.656  
  24446389.375                      111626.73909         0.00000      2247.234  
 97  6 24 14 49 10.0000000  0  7G01G14G31G15G29G21G02
  22186129.414    22186133.797      150665.23701     49628.49709      2661.359  
  22094000.406    22094004.109      -66239.85609    -24325.18909     -1151.141  
  22232565.125    22232568.055      156720.54509      7406.39109      4755.750  
  20025570.180    20025573.449       32991.84109      2352.88109      1007.797  
  22447759.727    22447762.773      -87461.41009    -32150.43609     -1522.688  
  24308130.531                      155838.33009         0.00000      4724.844  
  24446817.258                      113874.31809         0.00000      2247.859  
 97  6 24 14 49 11.0000000  0  7G01G14G31G15G29G21G02
  22186635.898    22186640.258      153326.88901     51702.51209      2661.922  
  22093781.469    22093785.172      -67390.84809    -25222.06609     -1150.828  
  22233470.188    22233473.129      161476.45101     11112.29209      4756.063  
  20025762.008    20025765.254       33999.84609      3138.34201      1008.219  
  22447469.938    22447472.844      -88983.93609    -33336.82109     -1522.344  
  24309029.688                      160563.23409         0.00000      4724.969  
  24447245.305                      116122.45609         0.00000      2248.422  
 97  6 24 14 49 12.0000000  0  7G01G14G31G15G29G21G02
  22187142.539    22187146.875      155989.13801     53776.99209      2662.453  
  22093562.430    22093566.145      -68541.50109    -26118.68009     -1150.578  
  22234375.344    22234378.309      166232.70501     14818.46409      4756.328  
  20025953.836    20025957.059       35008.30709      3924.15601      1008.609  
  22447180.313    22447183.301      -90506.08209    -34522.90809     -1522.047  
  24309929.016                      165288.28509         0.00000      4725.016  
  24447672.758                      118371.18109         0.00000      2248.938  
 97  6 24 14 49 13.0000000  0  7G01G14G31G15G29G21G02
  22187649.313    22187653.648      158651.81701     55851.80509      2663.016  
  22093343.672    22093347.422      -69691.96009    -27015.14109     -1150.266  
  22235280.664    22235283.688      170989.14401     18524.78009      4756.625  
  20026145.781    20026148.992       36017.08309      4710.21601      1009.031  
  22446890.867    22446894.031      -92027.99209    -35708.81309     -1521.703  
  24310827.633                      170013.34009         0.00000      4725.125  
  24448100.438                      120620.34609         0.00000      2249.469  
 97  6 24 14 49 14.0000000  0  7G01G14G31G15G29G21G02
  22188156.164    22188160.313      161315.27201     57927.22409      2663.703  
  22093124.844    22093128.488      -70841.91109    -27911.20509     -1149.828  
  22236185.742    22236188.672      175746.11901     22231.51409      4757.109  
  20026337.859    20026341.059       37026.48309      5496.76309      1009.594  
  22446601.258    22446604.480      -93549.34809    -36894.28709     -1521.172  
  24311726.898                      174738.68609         0.00000      4725.422  
  24448528.563                      122870.25709         0.00000      2250.172  
 97  6 24 14 49 15.0000000  0  7G01G14G31G15G29G21G02
  22188663.055    22188667.145      163979.35201     60003.13209      2664.531  
  22092905.789    22092909.387      -71991.49309    -28806.98209     -1149.250  
  22237091.281    22237094.070      180503.45801     25938.52909      4757.688  
  20026530.047    20026533.305       38036.38109      6283.69709      1010.297  
  22446311.938    22446315.148      -95070.26509    -38079.41709     -1520.563  
  24312626.203                      179464.20409         0.00000      4725.766  
  24448957.516                      125120.78009         0.00000      2250.969  
 97  6 24 14 49 16.0000000  0  7G01G14G31G15G29G21G02
  22189170.195    22189174.402      166644.11701     62079.57209      2664.969  
  22092687.172    22092690.781      -73140.63809    -29702.41809     -1149.078  
  22237996.477    22237999.160      185261.27201     29645.91609      4757.891  
  20026722.414    20026725.695       39046.84909      7071.07509      1010.594  
  22446022.539    22446025.621      -96590.68209    -39264.16009     -1520.328  
  24313526.023                      184189.97409         0.00000      4725.719  
  24449386.500                      127372.01009         0.00000      2251.391  
 97  6 24 14 49 17.0000000  0  7G01G14G31G15G29G21G02
  22189677.500    22189681.730      169309.39501     64156.41109      2665.516  
  22092468.719    22092472.434      -74289.53209    -30597.65909     -1148.766  
  22238902.047    22238904.754      190019.33301     33353.49609      4758.203  
  20026914.805    20026918.109       40057.69009      7858.74309      1011.031  
  22445733.328    22445736.504      -98110.81309    -40448.67209     -1519.969  
  24314424.680                      188915.79209         0.00000      4725.844  
  24449814.336                      129623.73209         0.00000      2251.984  
 97  6 24 14 49 18.0000000  0  7G01G14G31G15G29G21G02
  22190184.766    22190189.066      171975.16101     66233.63109      2666.172  
  22092250.023    22092253.809      -75438.20009    -31492.72309     -1148.391  
  22239807.281    22239809.953      194777.64001     37061.26709      4758.578  
  20027107.367    20027110.660       41068.87909      8646.68209      1011.547  
  22445444.258    22445447.527      -99630.68009    -41632.98109     -1519.547  
  24315324.586                      193641.61209         0.00000      4726.016  
  24450242.766                      131875.93209         0.00000      2252.609  
 97  6 24 14 49 19.0000000  0  7G01G14G31G15G29G21G02
  22190692.008    22190696.344      174641.59501     68311.36909      2666.641  
  22092031.641    22092035.414      -76586.44109    -32387.45809     -1148.172  
  22240712.695    22240715.344      199536.38401     40769.37709      4758.813  
  20027299.641    20027302.969       42080.63509      9435.06501      1011.875  
  22445155.164    22445158.480     -101150.04809    -42816.90209     -1519.281  
  24316223.664                      198367.69709         0.00000      4726.047  
  24450671.617                      134128.82109         0.00000      2253.063  
 97  6 24 14 49 20.0000000  0  7G01G14G31G15G29G21G02
  22191199.531    22191203.855      177308.52001     70389.49109      2667.172  
  22091813.180    22091816.906      -77734.45009    -33282.01009     -1147.875  
  22241618.375    22241621.152      204295.36601     44477.67409      4759.125  
  20027492.148    20027495.477       43092.74409     10223.72101      1012.297  
  22444865.914    22444869.336     -102669.15109    -44000.62109     -1518.906  
  24317123.344                      203093.80309         0.00000      4726.156  
  24451100.758                      136382.19009         0.00000      2253.625  
 97  6 24 14 49 21.0000000  0  7G01G14G31G15G29G21G02
  22191707.180    22191711.551      179976.10101     72468.12709      2667.844  
  22091594.703    22091598.348      -78882.07009    -34176.25909     -1147.484  
  22242524.008    22242526.633      209054.76501     48186.29609      4759.531  
  20027685.141    20027688.457       44105.36609     11012.77909      1012.828  
  22444577.016    22444580.320     -104187.78509    -45183.97609     -1518.453  
  24318022.867                      207820.08309         0.00000      4726.344  
  24451528.703                      138636.17709         0.00000      2254.281  
 97  6 24 14 49 22.0000000  0  7G01G14G31G15G29G21G02
  22192214.781    22192219.176      182644.25901     74547.21009      2668.641  
  22091376.578    22091380.246      -80029.35309    -35070.24309     -1146.922  
  22243429.859    22243432.473      213814.50101     51895.18109      4760.094  
  20027877.930    20027881.293       45118.45809     11802.20209      1013.500  
  22444288.195    22444291.512     -105705.99109    -46366.99309     -1517.844  
  24318921.969                      212546.53609         0.00000      4726.688  
  24451958.281                      140890.76609         0.00000      2255.047  
 97  6 24 14 49 23.0000000  0  7G01G14G31G15G29G21G02
  22192722.656    22192726.934      185313.11301     76626.83809      2669.094  
  22091158.219    22091161.793      -81176.20709    -35963.89409     -1146.734  
  22244335.531    22244338.027      218574.67101     55604.40309      4760.281  
  20028070.641    20028073.957       46132.10609     12592.06009      1013.828  
  22443999.109    22444002.344     -107223.72209    -47549.64009     -1517.563  
  24319821.414                      217273.19909         0.00000      4726.703  
  24452387.180                      143146.04809         0.00000      2255.531  
 97  6 24 14 49 24.0000000  0  7G01G14G31G15G29G21G02
  22193230.766    22193234.984      187982.69301     78707.03309      2669.828  
  22090939.883    22090943.668      -82322.59909    -36857.18709     -1146.281  
  22245241.445    22245244.070      223335.31109     59313.99309      4760.766  
  20028263.828    20028267.109       47146.35109     13382.37809      1014.422  
  22443710.594    22443714.027     -108740.92409    -48731.87509     -1517.047  
  24320720.758                      222000.11909         0.00000      4726.938  
  24452816.547                      145402.01609         0.00000      2256.203  
 97  6 24 14 49 25.0000000  0  7G01G14G31G15G29G21G02
  22193738.891    22193743.051      190652.65601     80787.52409      2670.250  
  22090721.758    22090725.637      -83468.86109    -37750.37609     -1146.109  
  22246147.797    22246150.434      228096.07801     63023.68109      4760.938  
  20028456.711    20028460.063       48160.85709     14172.90409      1014.719  
  22443422.063    22443425.449     -110257.91809    -49913.95009     -1516.828  
  24321620.336                      226726.97909         0.00000      4726.906  
  24453246.438                      147658.38009         0.00000      2256.625  
 97  6 24 14 49 26.0000000  0  7G01G14G31G15G29G21G02
  22194247.086    22194251.270      193323.30401     82868.54809      2670.938  
  22090503.805    22090507.836      -84614.70309    -38643.23809     -1145.672  
  22247053.719    22247056.414      232857.27001     66733.70009      4761.375  
  20028649.813    20028653.199       49175.91209     14963.85609      1015.297  
  22443133.320    22443136.766     -111774.45009    -51095.66509     -1516.313  
  24322520.320                      231454.04809         0.00000      4727.141  
  24453675.359                      149915.40009         0.00000      2257.344  
 97  6 24 14 49 27.0000000  0  7G01G14G31G15G29G21G02
  22194755.281    22194759.477      195994.58901     84950.06909      2671.672  
  22090285.813    22090289.855      -85760.18909    -39535.82309     -1145.219  
  22247959.820    22247962.645      237618.83001     70444.00609      4761.813  
  20028843.336    20028846.699       50191.45809     15755.19001      1015.875  
  22442844.727    22442848.148     -113290.56809    -52277.05609     -1515.813  
  24323419.328                      236181.26109         0.00000      4727.375  
  24454104.625                      152173.01309         0.00000      2258.016  
 97  6 24 14 49 28.0000000  0  7G01G14G31G15G29G21G02
  22195263.664    22195267.918      198666.49701     87032.07509      2672.219  
  22090067.797    22090072.027      -86905.31209    -40428.12609     -1144.953  
  22248866.016    22248868.734      242380.75701     74154.59909      4762.094  
  20029036.594    20029039.945       51207.49909     16546.90901      1016.281  
  22442556.195    22442559.770     -114806.25309    -53458.10909     -1515.500  
  24324318.922                      240908.63109         0.00000      4727.438  
  24454535.141    24454539.430      154431.26809         0.00019      2258.531  
 97  6 24 14 49 29.0000000  0  7G01G14G31G15G29G21G02
  22195772.344    22195776.574      201338.99901     89114.54309      2672.734  
  22089849.938    22089854.285      -88050.13009    -41320.19209     -1144.719  
  22249772.281    22249774.977      247142.97901     77865.41709      4762.344  
  20029230.078    20029233.348       52223.98309     17338.97309      1016.656  
  22442268.008    22442271.441     -116321.58809    -54638.88909     -1515.172  
  24325218.547                      245636.11309         0.00000      4727.469  
  24454964.570    24454968.801      156690.05309      1757.86409      2259.047  
 97  6 24 14 49 30.0000000  0  7G01G14G31G15G29G21G02
  22196281.008    22196285.227      204012.17401     91197.53609      2673.531  
  22089632.109    22089636.480      -89194.54509    -42211.94109     -1144.203  
  22250678.469    22250681.211      251905.62301     81576.56709      4762.859  
  20029423.617    20029426.852       53240.99809     18131.45309      1017.297  
  22441979.719    22441983.176     -117836.45909    -55819.30809     -1514.625  
  24326118.180    24326125.613      250363.79109         0.00019      4727.781  
  24455395.414    24455399.750      158949.50009      3518.47309      2259.781  
 97  6 24 14 49 31.0000000  0  7G01G14G31G15G29G21G02
  22196789.922    22196794.152      206685.87001     93280.93509      2674.016  
  22089414.516    22089418.934      -90338.71009    -43103.49909     -1143.984  
  22251584.984    22251587.715      256668.50001     85287.89809      4763.063  
  20029617.125    20029620.383       54258.39109     18924.22709      1017.641  
  22441691.500    22441694.781     -119351.00409    -56999.47109     -1514.344  
  24327017.719    24327025.328      255091.50109      3679.25909      4727.766  
  24455825.086    24455828.930      161209.44109      5279.45309      2260.219  
 97  6 24 14 49 32.0000000  0  7G01G14G31G15G29G21G02
  22197298.703    22197302.910      209360.15101     95364.79109      2674.594  
  22089196.758    22089201.316      -91482.58209    -43994.82609     -1143.688  
  22252491.313    22252494.043      261431.66601     88999.45509      4763.328  
  20029810.898    20029814.063       55276.20909     19717.33209      1018.063  
  22441403.359    22441406.688     -120865.20309    -58179.36509     -1514.000  
  24327917.469    24327924.844      259819.27809      7363.24409      4727.844  
  24456255.664    24456259.625      163469.91709      7040.85809      2260.781  
 97  6 24 14 49 33.0000000  0  7G01G14G31G15G29G21G02
  22197807.711    22197811.871      212035.05101     97449.12709      2675.219  
  22088978.953    22088983.477      -92626.11309    -44885.88609     -1143.359  
  22253397.719    22253400.402      266195.16501     92711.27309      4763.656  
  20030004.531    20030007.707       56294.48809     20510.79501      1018.516  
  22441115.477    22441118.887     -122379.03109    -59358.97209     -1513.641  
  24328817.086    24328824.227      264547.16709     11047.31009      4727.953  
  24456684.922    24456689.141      165730.96609      8802.71409      2261.359  
 97  6 24 14 49 34.0000000  0  7G01G14G31G15G29G21G02
  22198316.984    22198321.227      214710.52701     99533.91309      2675.672  
  22088761.648    22088766.113      -93769.36909    -45776.73309     -1143.203  
  22254304.250    22254306.934      270958.93901     96423.30209      4763.844  
  20030198.273    20030201.496       57313.17809     21304.57809      1018.813  
  22440827.469    22440830.809     -123892.52609    -60538.31809     -1513.422  
  24329716.703    24329723.703      269275.13709     14731.44109      4727.922  
  24457115.758    24457119.367      167992.54509     10564.98709      2261.750  
 97  6 24 14 49 35.0000000  0  7G01G14G31G15G29G21G02
  22198826.047    22198830.277      217386.43301    101619.03509      2676.219  
  22088544.102    22088548.660      -94912.47709    -46667.46509     -1142.953  
  22255210.641    22255213.453      275722.85801    100135.44609      4764.063  
  20030392.313    20030395.512       58332.14209     22098.57601      1019.203  
  22440539.352    22440542.680     -125405.83309    -61717.51709     -1513.094  
  24330616.156    24330623.074      274003.04809     18415.53609      4727.984  
  24457545.570    24457549.086      170254.51109     12327.55109      2262.250  
 97  6 24 14 49 36.0000000  0  7G01G14G31G15G29G21G02
  22199335.617    22199339.883      220062.94101    103704.62509      2676.813  
  22088326.414    22088330.961      -96055.27809    -47557.96009     -1142.656  
  22256117.297    22256120.168      280487.07609    103847.82209      4764.375  
  20030586.250    20030589.461       59351.54009     22892.91201      1019.625  
  22440251.469    22440254.844     -126918.77509    -62896.43109     -1512.750  
  24331516.125    24331523.582      278731.04009     22099.69209      4728.063  
  24457976.734    24457980.098      172517.01109     14090.53809      2262.797  
 97  6 24 14 49 37.0000000  0  7G01G14G31G15G29G21G02
  22199844.656    22199848.852      222740.06701    105790.69709      2677.484  
  22088109.297    22088113.832      -97197.76109    -48448.20609     -1142.250  
  22257023.867    22257026.691      285251.58809    107560.42609      4764.734  
  20030780.305    20030783.504       60371.39609     23687.60201      1020.141  
  22439964.063    22439967.414     -128431.33309    -64075.04409     -1512.313  
  24332415.867    24332422.902      283459.16909     25783.94809      4728.234  
  24458407.617    24458410.406      174780.08709     15853.96009      2263.406  
 97  6 24 14 49 38.0000000  0  7G01G14G31G15G29G21G02
  22200354.367    22200358.527      225417.85701    107877.28709      2678.125  
  22087891.969    22087896.457      -98339.86909    -49338.16109     -1141.938  
  22257930.859    22257933.672      290016.48209    111273.32709      4765.078  
  20030974.422    20030977.633       61391.74809     24482.68001      1020.609  
  22439676.063    22439679.332     -129943.46809    -65253.32909     -1511.891  
  24333315.703    24333322.395      288187.44609     29468.31709      4728.391  
  24458837.828    24458840.875      177043.76709     17617.86209      2264.016  
 97  6 24 14 49 39.0000000  0  7G01G14G31G15G29G21G02
  22200864.125    22200868.273      228096.24401    109964.34109      2678.750  
  22087674.688    22087679.117      -99481.67209    -50227.87509     -1141.578  
  22258837.344    22258840.203      294781.67509    114986.46209      4765.422  
  20031168.688    20031171.934       62412.54609     25278.10801      1021.094  
  22439388.398    22439391.656     -131455.22009    -66431.31509     -1511.516  
  24334215.344    24334222.285      292915.81709     33152.75909      4728.484  
  24459269.117    24459272.551      179307.98509     19382.18109      2264.563  
 97  6 24 14 49 40.0000000  0  7G01G14G31G15G29G21G02
  22201373.828    22201377.906      230775.34401    112051.95209      2679.406  
  22087457.484    22087461.973     -100623.04209    -51117.25409     -1141.219  
  22259744.039    22259746.840      299547.30609    118699.93909      4765.781  
  20031363.008    20031366.266       63433.91909     26073.98301      1021.594  
  22439100.773    22439104.020     -132966.48109    -67608.91909     -1511.094  
  24335115.141    24335121.469      297644.42809     36837.39509      4728.656  
  24459699.453    24459703.309      181572.89509     21147.03709      2265.156  
 97  6 24 14 49 41.0000000  0  7G01G14G31G15G29G21G02
  22201883.703    22201887.852      233455.12801    114140.09609      2680.172  
  22087240.414    22087244.832     -101764.01509    -52006.32209     -1140.719  
  22260651.180    22260654.039      304313.31809    122413.71109      4766.250  
  20031557.641    20031560.934       64455.82009     26870.27001      1022.219  
  22438813.250    22438816.438     -134477.29709    -68786.17609     -1510.516  
  24336015.094    24336020.695      302373.21709     40522.17009      4728.953  
  24460131.047    24460134.996      183838.43109     22912.38509      2265.922  
 97  6 24 14 49 42.0000000  0  7G01G14G31G15G29G21G02
  22202393.742    22202397.832      236135.56201    116228.74409      2680.703  
  22087023.289    22087027.672     -102904.61209    -52895.09809     -1140.469  
  22261558.125    22261561.020      309079.68409    126127.76009      4766.516  
  20031752.133    20031755.309       65478.22709     27666.95101      1022.609  
  22438525.898    22438529.133     -135987.69409    -69963.10809     -1510.234  
  24336914.758    24336920.031      307102.17009     44207.06709      4728.984  
  24460562.016    24460565.977      186104.57709     24678.21709      2266.406  
 97  6 24 14 49 43.0000000  0  7G01G14G31G15G29G21G02
  22202903.984    22202908.133      238816.40401    118317.71309      2681.125  
  22086806.164    22086810.547     -104045.08609    -53783.77809     -1140.328  
  22262465.266    22262468.160      313846.19409    129841.92409      4766.672  
  20031946.719    20031949.895       66500.90209     28463.84001      1022.875  
  22438238.414    22438241.613     -137497.88709    -71139.88109     -1510.031  
  24337814.813    24337819.969      311831.05909     47891.91309      4728.891  
  24460993.875    24460997.730      188371.08909     26444.32709      2266.766  
 97  6 24 14 49 44.0000000  0  7G01G14G31G15G29G21G02
  22203414.430    22203418.473      241497.88301    120407.17609      2681.813  
  22086589.063    22086593.410     -105185.20409    -54672.18209     -1139.922  
  22263372.555    22263375.449      318613.09909    133556.39509      4767.094  
  20032141.391    20032144.531       67524.07009     29261.11401      1023.438  
  22437950.844    22437954.020     -139007.66809    -72316.33209     -1509.547  
  24338714.570    24338718.859      316560.09909     51576.87609      4729.125  
  24461425.078    24461428.969      190638.20709     28210.91209      2267.438  
 97  6 24 14 49 45.0000000  0  7G01G14G31G15G29G21G02
  22203924.703    22203928.629      244179.99401    122497.13309      2682.578  
  22086372.477    22086376.883     -106324.96509    -55560.30809     -1139.422  
  22264279.602    22264282.496      323380.35309    137271.13509      4767.578  
  20032336.383    20032339.570       68547.72509     30058.76801      1024.063  
  22437663.555    22437666.730     -140517.04809    -73492.47109     -1509.000  
  24339614.906    24339619.453      321289.26009     55261.93109      4729.406  
  24461856.648    24461860.375      192905.90609     29977.94909      2268.141  
 97  6 24 14 49 46.0000000  0  7G01G14G31G15G29G21G02
  22204435.281    22204439.359      246862.96001    124587.75609      2683.266  
  22086155.820    22086160.262     -107464.14009    -56447.97609     -1139.016  
  22265186.797    22265189.668      328148.18409    140986.32509      4768.000  
  20032531.094    20032534.316       69572.10609     30856.98701      1024.594  
  22437376.453    22437379.547     -142025.76209    -74668.09109     -1508.563  
  24340514.703    24340518.992      326018.82509     58947.29709      4729.578  
  24462287.953    24462292.090      195174.44809     31745.64109      2268.797  
 97  6 24 14 49 47.0000000  0  7G01G14G31G15G29G21G02
  22204945.734    22204949.813      249546.53701    126678.85609      2683.906  
  22085939.070    22085943.523     -108602.98009    -57335.38109     -1138.641  
  22266094.289    22266097.148      332916.34509    144701.77409      4768.328  
  20032726.141    20032729.363       70596.94909     31655.56501      1025.109  
  22437089.531    22437092.766     -143534.11309    -75843.42809     -1508.125  
  24341415.031    24341419.613      330748.49009     62632.74509      4729.766  
  24462719.695    24462724.066      197443.54809     33513.77209      2269.453  
 97  6 24 14 49 48.0000000  0  7G01G14G31G15G29G21G02
  22205456.719    22205460.820      252230.80701    128770.49609      2684.563  
  22085722.219    22085726.695     -109741.39809    -58222.46009     -1138.266  
  22267001.750    22267004.586      337684.89601    148417.52609      4768.703  
  20032921.586    20032924.891       71622.33709     32454.57001      1025.609  
  22436802.430    22436805.793     -145042.01209    -77018.41009     -1507.719  
  24342314.953    24342319.465      335478.36509     66318.36109      4729.922  
  24463151.625    24463155.703      199713.28909     35282.41109      2270.016  
 97  6 24 14 49 49.0000000  0  7G01G14G31G15G29G21G02
  22205967.625    22205971.762      254915.66001    130862.58909      2685.094  
  22085505.805    22085510.246     -110879.49909    -59109.29109     -1138.000  
  22267909.289    22267912.172      342453.74401    152133.51009      4768.953  
  20033116.688    20033119.969       72648.17709     33253.92701      1026.000  
  22436515.672    22436519.023     -146549.53109    -78193.10109     -1507.406  
  24343214.727    24343219.063      340208.37209     70004.07609      4730.000  
  24463583.820    24463587.605      201983.60109     37051.48409      2270.516  
 97  6 24 14 49 50.0000000  0  7G01G14G31G15G29G21G02
  22206478.594    22206482.707      257601.15201    132955.18209      2685.797  
  22085289.445    22085293.980     -112017.24009    -59995.84309     -1137.563  
  22268816.781    22268819.629      347222.93101    155849.75809      4769.359  
  20033311.781    20033315.016       73674.50109     34053.65901      1026.563  
  22436228.680    22436232.137     -148056.65409    -79367.48309     -1506.938  
  24344114.797    24344119.730      344938.50409     73689.88809      4730.234  
  24464016.367    24464020.527      204254.48709     38820.99409      2271.172  
 97  6 24 14 49 51.0000000  0  7G01G14G31G15G29G21G02
  22206989.797    22206993.945      260287.24001    135048.23709      2686.484  
  22085072.859    22085077.406     -113154.66709    -60882.15109     -1137.188  
  22269724.367    22269727.262      351992.43501    159566.25309      4769.750  
  20033507.422    20033510.645       74701.27109     34853.74001      1027.078  
  22435942.188    22435945.680     -149563.44709    -80541.60609     -1506.516  
  24345015.109    24345020.266      349668.72909     77375.76909      4730.359  
  24464448.195    24464453.059      206525.91309     40590.94509      2271.781  
 97  6 24 14 49 52.0000000  0  7G01G14G31G15G29G21G02
  22207500.883    22207505.078      262974.02001    137141.83209      2687.078  
  22084856.563    22084861.109     -114291.68409    -61768.13709     -1136.875  
  22270632.203    22270635.156      356762.31401    163283.04109      4770.031  
  20033702.805    20033706.063       75728.58109     35654.24101      1027.531  
  22435655.391    22435658.930     -151069.76009    -81715.35609     -1506.156  
  24345915.461    24345920.617      354399.17409     81061.81509      4730.469  
  24464881.055    24464885.754      208797.97809     42361.39809      2272.328  
 97  6 24 14 49 53.0000000  0  7G01G14G31G15G29G21G02
  22208012.422    22208016.676      265661.45001    139235.93509      2687.641  
  22084640.266    22084644.824     -115428.32609    -62653.83009     -1136.578  
  22271539.766    22271542.742      361532.55101    167000.11109      4770.297  
  20033898.453    20033901.711       76756.39109     36455.13301      1027.938  
  22435369.039    22435372.590     -152575.66509    -82888.78709     -1505.813  
  24346815.648    24346821.027      359129.74209     84747.96309      4730.547  
  24465313.219    24465318.633      211070.63409     44132.30009      2272.844  
 97  6 24 14 49 54.0000000  0  7G01G14G31G15G29G21G02
  22208523.820    22208528.027      268349.49801    141330.51709      2688.344  
  22084424.070    22084428.734     -116564.63709    -63539.26709     -1136.156  
  22272447.453    22272450.242      366303.10001    170717.42109      4770.688  
  20034094.078    20034097.324       77784.66009     37256.38101      1028.484  
  22435082.344    22435085.930     -154081.20309    -84061.93409     -1505.359  
  24347715.852    24347720.844      363860.42809     88434.21209      4730.719  
  24465745.734    24465751.359      213343.85509     45903.63809      2273.484  
 97  6 24 14 49 55.0000000  0  7G01G14G31G15G29G21G02
  22209035.516    22209039.699      271038.17901    143425.59409      2689.031  
  22084207.844    22084212.414     -117700.57709    -64424.41509     -1135.734  
  22273355.594    22273358.383      371073.99901    174435.00409      4771.109  
  20034289.836    20034293.129       78813.42509     38058.01601      1029.031  
  22434796.023    22434799.703     -155586.34109    -85234.76809     -1504.922  
  24348616.094    24348621.906      368591.28109     92120.59709      4730.953  
  24466178.227    24466183.629      215617.66209     47675.43209      2274.125  
 97  6 24 14 49 56.0000000  0  7G01G14G31G15G29G21G02
  22209547.523    22209551.578      273727.45001    145521.13209      2689.594  
  22083991.758    22083996.328     -118836.21209    -65309.32309     -1135.453  
  22274263.438    22274266.215      375845.17709    178152.80509      4771.328  
  20034485.672    20034489.000       79842.60609     38859.97401      1029.422  
  22434509.672    22434513.363     -157091.15809    -86407.35009     -1504.641  
  24349516.281    24349521.789      373322.21109     95807.02609      4731.000  
  24466610.656    24466615.766      217891.98909     49447.64009      2274.609  
 97  6 24 14 49 57.0000000  0  7G01G14G31G15G29G21G02
  22210059.188    22210063.371      276417.20301    147617.04309      2690.141  
  22083775.438    22083780.137     -119971.65109    -66194.07809     -1135.203  
  22275171.273    22275173.945      380616.54809    181870.75609      4771.594  
  20034681.695    20034685.094       80872.11309     39662.18801      1029.797  
  22434223.367    22434227.188     -158595.76209    -87579.76809     -1504.375  
  24350416.859    24350422.320      378053.10909     99493.44109      4731.016  
  24467043.992    24467049.629      220166.72309     51220.15809      2275.078  
 97  6 24 14 49 58.0000000  0  7G01G14G31G15G29G21G02
  22210571.289    22210575.473      279107.71601    149713.54609      2690.844  
  22083559.789    22083564.477     -121106.58809    -67078.44309     -1134.750  
  22276079.531    22276082.262      385388.36909    185589.05909      4772.000  
  20034877.734    20034881.098       81902.23406     40464.88001      1030.359  
  22433937.141    22433941.031     -160099.87909    -88751.80609     -1503.922  
  24351316.836    24351322.578      382784.29909    103180.07709      4731.250  
  24467477.047    24467482.156      222442.17509     52993.24809      2275.734  
 97  6 24 14 49 59.0000000  0  7G01G14G31G15G29G21G02
  22211083.414    22211087.645      281798.83801    151810.52409      2691.438  
  22083343.734    22083348.434     -122241.20509    -67962.55609     -1134.438  
  22276987.594    22276990.395      390160.51309    189307.61409      4772.313  
  20035073.734    20035077.121       82932.80706     41267.92501      1030.828  
  22433650.984    22433654.863     -161603.63809    -89923.56509     -1503.578  
  24352217.289    24352223.160      387515.58209    106866.78809      4731.391  
  24467909.688    24467914.973      224718.15409     54766.74309      2276.297  
 97  6 24 14 50  0.0000000  0  7G01G14G31G15G29G21G02
  22211595.547    22211599.672      284490.55301    153907.96509      2692.063  
  22083127.813    22083132.406     -123375.49909    -68846.42009     -1134.094  
  22277895.742    22277898.496      394932.95309    193026.39709      4772.625  
  20035270.141    20035273.516       83963.81907     42071.31001      1031.281  
  22433365.000    22433368.949     -163107.06309    -91095.06609     -1503.219  
  24353117.117    24353122.684      392246.96309    110553.57709      4731.453  
  24468343.164    24468348.578      226994.65709     56540.65009      2276.828  
 97  6 24 14 50  1.0000000  0  7G01G14G31G15G29G21G02
  22212107.922    22212112.141      287182.99901    156005.97609      2692.859  
  22082912.258    22082916.887     -124509.33509    -69729.92609     -1133.563  
  22278804.313    22278806.996      399705.81409    196745.51009      4773.125  
  20035466.086    20035469.414       84995.41107     42875.14701      1031.938  
  22433078.820    22433082.758     -164610.02209    -92266.20309     -1502.672  
  24354017.992    24354023.500      396978.56609    114240.54209      4731.766  
  24468776.563    24468782.422      229271.84409     58315.08209      2277.563  
 97  6 24 14 50  2.0000000  0  7G01G14G31G15G29G21G02
  22212620.469    22212624.711      289876.15001    158104.53309      2693.375  
  22082696.563    22082701.262     -125642.72609    -70613.08609     -1133.297  
  22279712.352    22279715.059      404479.06409    200464.92509      4773.313  
  20035662.594    20035665.934       86027.56009     43679.41801      1032.297  
  22432792.875    22432796.707     -166112.51709    -93436.97809     -1502.406  
  24354918.164    24354923.156      401710.36609    117927.66109      4731.813  
  24469210.398    24469216.656      231549.65909     60090.00409      2278.000  
 97  6 24 14 50  3.0000000  0  7G01G14G31G15G29G21G02
  22213132.984    22213137.227      292569.80901    160203.48709      2694.031  
  22082480.805    22082485.563     -126775.89509    -71496.07309     -1132.938  
  22280620.695    22280623.566      409252.52509    204184.50609      4773.688  
  20035859.016    20035862.309       87060.06109     44483.96301      1032.797  
  22432506.977    22432510.902     -167614.78209    -94607.57209     -1502.031  
  24355819.023    24355823.957      406442.16009    121614.77709      4731.938  
  24469642.773    24469647.801      233827.91509     61865.26509      2278.594  
 97  6 24 14 50  4.0000000  0  7G01G14G31G15G29G21G02
  22213645.633    22213649.875      295264.14501    162302.96809      2694.719  
  22082265.453    22082270.281     -127908.64509    -72378.73309     -1132.516  
  22281529.063    22281531.781      414026.37309    207904.38809      4774.078  
  20036055.813    20036059.129       88093.09508     45288.92501      1033.328  
  22432221.180    22432225.188     -169116.62609    -95777.83909     -1501.609  
  24356719.313    24356724.656      411174.15409    125302.04409      4732.125  
  24470076.680    24470082.234      236106.78209     63641.00609      2279.219  
 97  6 24 14 50  5.0000000  0  7G01G14G31G15G29G21G02
  22214158.492    22214162.652      297959.17601    164402.99109      2695.297  
  22082049.805    22082054.715     -129040.96809    -73261.06009     -1132.172  
  22282437.617    22282440.289      418800.62109    211624.58009      4774.375  
  20036252.453    20036255.793       89126.67009     46094.30801      1033.781  
  22431935.438    22431939.445     -170618.03809    -96947.77109     -1501.266  
  24357619.938    24357624.953      415906.34109    128989.45809      4732.234  
  24470511.391    24470517.508      238386.27509     65417.23609      2279.766  
 97  6 24 14 50  6.0000000  0  7G01G14G31G15G29G21G02
  22214671.359    22214675.602      300654.68701    166503.38909      2695.703  
  22081834.492    22081839.391     -130173.07909    -74143.22409     -1132.047  
  22283346.219    22283348.938      423575.07409    215344.93309      4774.500  
  20036449.297    20036452.590       90160.58409     46899.95401      1034.031  
  22431649.867    22431653.910     -172119.24509    -98117.54209     -1501.141  
  24358519.922    24358525.113      420638.51209    132676.85509      4732.125  
  24470945.133    24470950.090      240666.17809     67193.78109      2280.078  
 97  6 24 14 50  7.0000000  0  7G01G14G31G15G29G21G02
  22215184.484    22215188.633      303350.79301    168604.25109      2696.563  
  22081619.109    22081624.055     -131304.85009    -75025.12109     -1131.469  
  22284254.703    22284257.586      428349.84109    219065.53009      4775.078  
  20036646.047    20036649.340       91194.94809     47705.95201      1034.734  
  22431364.344    22431368.398     -173620.10309    -99287.04109     -1500.531  
  24359420.000    24359424.641      425370.79709    136364.34609      4732.438  
  24471378.133    24471382.691      242946.63009     68970.75609      2280.859  
 97  6 24 14 50  8.0000000  0  7G01G14G31G15G29G21G02
  22215697.586    22215701.805      306047.67701    170705.71809      2697.203  
  22081403.773    22081408.719     -132436.12409    -75906.63109     -1131.094  
  22285163.102    22285166.078      433125.09409    222786.50909      4775.391  
  20036842.891    20036846.090       92229.93509     48512.43401      1035.219  
  22431078.922    22431082.895     -175120.43909   -100456.13309     -1500.156  
  24360321.281    24360326.309      430103.34609    140052.05009      4732.625  
  24471813.141    24471817.594      245227.77709     70748.27509      2281.438  
 97  6 24 14 50  9.0000000  0  7G01G14G31G15G29G21G02
  22216211.016    22216215.246      308745.18701    172807.67309      2697.828  
  22081188.523    22081193.574     -133567.04901    -76787.87009     -1130.750  
  22286072.070    22286075.094      437900.66509    226507.73309      4775.734  
  20037040.133    20037043.297       93265.39109     49319.28201      1035.703  
  22430793.211    22430797.230     -176620.41109   -101624.94009     -1499.781  
  24361221.867    24361226.836      434836.00309    143739.84109      4732.719  
  24472247.094    24472251.781      247509.47309     72526.21809      2281.969  
 97  6 24 14 50 10.0000000  0  7G01G14G31G15G29G21G02
  22216724.531    22216728.715      311443.35901    174910.14509      2698.516  
  22080973.477    22080978.469     -134697.59501    -77668.81209     -1130.344  
  22286980.930    22286983.930      442676.56509    230229.21409      4776.094  
  20037237.039    20037240.203       94301.36109     50126.53101      1036.234  
  22430507.852    22430511.977     -178119.98609   -102793.43809     -1499.375  
  24362122.320    24362127.559      439568.82809    147427.75209      4732.922  
  24472681.695    24472686.313      249791.77009     74304.62409      2282.625  
 97  6 24 14 50 11.0000000  0  7G01G14G31G15G29G21G02
  22217238.023    22217242.195      314142.16401    177013.11009      2699.078  
  22080758.375    22080763.379     -135827.78301    -78549.47909     -1130.047  
  22287889.719    22287892.777      447452.79609    233950.95009      4776.344  
  20037434.492    20037437.680       95337.80309     50934.14802      1036.641  
  22430222.875    22430226.930     -179619.20209   -103961.65709     -1499.063  
  24363022.563    24363027.813      444301.77809    151115.77209      4732.984  
  24473115.711    24473120.023      252074.62709     76083.47309      2283.094  
 97  6 24 14 50 12.0000000  0  7G01G14G31G15G29G21G02
  22217751.688    22217755.918      316841.55801    179116.53709      2699.813  
  22080543.375    22080548.367     -136957.66901    -79429.90909     -1129.609  
  22288798.617    22288801.770      452229.31609    237672.91309      4776.797  
  20037631.469    20037634.621       96374.67509     51742.10002      1037.219  
  22429937.594    22429941.590     -181118.06509   -105129.60209     -1498.563  
  24363923.359    24363928.715      449034.82109    154803.86309      4733.188  
  24473550.477    24473554.578      254358.00509     77862.73109      2283.766  
 97  6 24 14 50 13.0000000  0  7G01G14G31G15G29G21G02
  22218265.516    22218269.734      319541.73201    181220.56909      2700.422  
  22080328.406    22080333.340     -138087.06001    -80309.95309     -1129.281  
  22289707.555    22289710.754      457006.34209    241395.27009      4777.141  
  20037829.031    20037832.172       97412.17009     52550.53902      1037.672  
  22429652.367    22429656.281     -182616.43109   -106297.16109     -1498.266  
  24364824.086    24364831.133      453768.12009    158492.15309      4733.313  
  24473984.633    24473988.805      256642.10409     79642.54309      2284.297  
 97  6 24 14 50 14.0000000  0  7G01G14G31G15G29G21G02
  22218779.359    22218783.508      322242.45801    183325.03009      2701.063  
  22080113.664    22080118.551     -139216.18709    -81189.79209     -1128.922  
  22290616.789    22290620.082      461783.63109    245117.83209      4777.469  
  20038026.523    20038029.746       98450.05309     53359.27902      1038.156  
  22429367.461    22429371.199     -184114.52109   -107464.50409     -1497.875  
  24365725.188    24365730.672      458501.44209    162180.44409      4733.422  
  24474419.688    24474424.293      258926.67109     81422.71909      2284.875  
 97  6 24 14 50 15.0000000  0  7G01G14G31G15G29G21G02
  22219293.617    22219297.766      324943.87601    185430.03209      2701.734  
  22079898.750    22079903.578     -140344.91309    -82069.32009     -1128.563  
  22291525.820    22291529.195      466561.30409    248840.69309      4777.813  
  20038224.000    20038227.223       99488.46809     54168.43301      1038.641  
  22429082.109    22429085.766     -185612.18709   -108631.51709     -1497.500  
  24366626.102    24366631.352      463234.93709    165868.87009      4733.547  
  24474854.539    24474859.496      261211.87209     83203.39209      2285.469  
 97  6 24 14 50 16.0000000  0  7G01G14G31G15G29G21G02
  22219807.656    22219811.793      327645.95501    187535.54809      2702.438  
  22079684.063    22079688.855     -141473.26809    -82948.55909     -1128.141  
  22292434.969    22292438.285      471339.31509    252563.81509      4778.234  
  20038421.789    20038425.035      100527.37409     54977.97101      1039.188  
  22428797.227    22428800.848     -187109.46109   -109798.22309     -1497.031  
  24367526.758    24367532.359      467968.59209    169557.43209      4733.719  
  24475288.969    24475293.867      263497.63009     84984.50909      2286.094  
 97  6 24 14 50 17.0000000  0  7G01G14G31G15G29G21G02
  22220322.063    22220326.223      330348.78901    189641.65309      2703.203  
  22079469.438    22079474.125     -142601.14909    -83827.42709     -1127.656  
  22293344.195    22293347.535      476117.80709    256287.31109      4778.672  
  20038619.516    20038622.750      101566.87909     55787.97501      1039.781  
  22428512.406    22428516.098     -188606.22609   -110964.53509     -1496.547  
  24368427.594    24368433.219      472702.46809    173246.17009      4734.000  
  24475724.586    24475729.965      265784.07809     86766.16109      2286.797  
 97  6 24 14 50 18.0000000  0  7G01G14G31G15G29G21G02
  22220836.383    22220840.637      333052.23801    191748.23709      2703.750  
  22079254.789    22079259.441     -143728.69609    -84706.03609     -1127.406  
  22294253.758    22294257.133      480896.59909    260011.04309      4778.922  
  20038817.742    20038820.977      102606.83409     56598.33101      1040.172  
  22428227.609    22428231.289     -190102.65009   -112130.58009     -1496.281  
  24369327.914    24369332.695      477436.44709    176934.98309      4734.031  
  24476159.828    24476164.961      268071.09009     88548.25609      2287.266  
 97  6 24 14 50 19.0000000  0  7G01G14G31G15G29G21G02
  22221350.969    22221355.199      335756.39701    193855.37509      2704.516  
  22079040.180    22079044.820     -144855.82009    -85584.31409     -1126.906  
  22295163.000    22295166.422      485675.75809    263735.05909      4779.391  
  20039015.492    20039018.691      103647.33509     57409.11201      1040.781  
  22427943.039    22427946.895     -191598.63809   -113296.28209     -1495.766  
  24370228.875    24370233.773      482170.63809    180623.96209      4734.281  
  24476595.297    24476600.078      270358.67409     90330.78909      2287.938  
 97  6 24 14 50 20.0000000  0  7G01G14G31G15G29G21G02
  22221865.758    22221869.883      338461.14301    195962.97109      2704.984  
  22078825.953    22078830.582     -145982.63409    -86462.35109     -1126.703  
  22296072.813    22296076.258      490455.22109    267459.31409      4779.547  
  20039213.398    20039216.551      104688.26709     58220.22901      1041.094  
  22427658.344    22427662.340     -193094.29109   -114461.72409     -1495.547  
  24371130.102    24371135.141      486904.89409    184312.97609      4734.234  
  24477030.117    24477034.746      272646.80709     92113.75109      2288.328  
 97  6 24 14 50 21.0000000  0  7G01G14G31G15G29G21G02
  22222380.391    22222384.539      341166.46301    198071.01109      2705.703  
  22078611.719    22078616.395     -147109.14809    -87340.15209     -1126.266  
  22296982.047    22296985.586      495234.95709    271183.78109      4779.969  
  20039411.719    20039414.895      105729.60909     59031.66401      1041.656  
  22427373.906    22427377.727     -194589.63809   -115626.92809     -1495.078  
  24372030.891    24372036.176      491639.19509    188002.03109      4734.469  
  24477466.047    24477471.344      274935.44209     93897.10509      2288.984  
 97  6 24 14 50 22.0000000  0  7G01G14G31G15G29G21G02
  22222895.344    22222899.492      343872.54601    200179.64709      2706.328  
  22078397.430    22078402.082     -148235.17601    -88217.57509     -1125.922  
  22297891.766    22297895.328      500015.13409    274908.59409      4780.281  
  20039609.836    20039613.059      106771.56009     59843.57701      1042.125  
  22427089.445    22427093.277     -196084.48509   -116791.74209     -1494.750  
  24372931.641    24372936.598      496373.80609    191691.34909      4734.563  
  24477901.344    24477906.289      277224.75109     95680.98809      2289.516  
 97  6 24 14 50 23.0000000  0  7G01G14G31G15G29G21G02
  22223410.336    22223414.520      346579.20701    202288.73509      2706.969  
  22078183.016    22078187.668     -149360.90001    -89094.76209     -1125.563  
  22298801.742    22298805.492      504795.59109    278633.62309      4780.594  
  20039808.477    20039811.711      107813.93509     60655.81701      1042.594  
  22426805.172    22426809.016     -197579.03409   -117956.32409     -1494.359  
  24373832.820    24373838.188      501108.46409    195380.69809      4734.734  
  24478336.367    24478341.629      279514.58109     97465.25809      2290.094  
 97  6 24 14 50 24.0000000  0  7G01G14G31G15G29G21G02
  22223925.531    22223929.656      349286.53701    204398.34109      2707.656  
  22077968.930    22077973.641     -150486.23701    -89971.64609     -1125.141  
  22299711.461    22299715.293      509576.41009    282358.93409      4780.984  
  20040006.867    20040010.113      108856.81609     61468.45301      1043.125  
  22426520.781    22426524.566     -199073.17709   -119120.59109     -1493.969  
  24374733.813    24374740.082      505843.27809    199070.15909      4734.891  
  24478772.758    24478778.266      281804.99309     99249.97809      2290.719  
 97  6 24 14 50 25.0000000  0  7G01G14G31G15G29G21G02
  22224441.008    22224445.063      351994.41101    206508.37509      2708.203  
  22077754.898    22077759.504     -151611.30301    -90848.31809     -1124.891  
  22300621.094    22300624.879      514357.42609    286084.39909      4781.188  
  20040205.297    20040208.531      109900.07709     62281.38401      1043.500  
  22426236.234    22426240.020     -200567.06109   -120284.65709     -1493.688  
  24375634.930    24375640.871      510578.12609    202759.64709      4734.891  
  24479208.359    24479213.762      284095.87809    101035.07609      2291.188  
 97  6 24 14 50 26.0000000  0  7G01G14G31G15G29G21G02
  22224956.445    22224960.535      354702.91201    208618.89509      2708.766  
  22077540.773    22077545.355     -152736.02801    -91724.72909     -1124.594  
  22301530.875    22301534.742      519138.74409    289810.10309      4781.406  
  20040404.031    20040407.266      110943.81009     63094.68301      1043.906  
  22425952.227    22425956.082     -202060.57109   -121448.42809     -1493.391  
  24376535.867    24376542.523      515313.05409    206449.20109      4734.953  
  24479644.945    24479650.793      286387.31809    102820.61209      2291.672  
 97  6 24 14 50 27.0000000  0  7G01G14G31G15G29G21G02
  22225471.898    22225476.059      357412.02101    210729.89009      2709.469  
  22077326.891    22077331.461     -153860.41901    -92600.87609     -1124.172  
  22302440.664    22302444.426      523920.36709    293536.04009      4781.813  
  20040602.641    20040605.969      111987.98009     63908.32301      1044.453  
  22425668.063    22425671.930     -203553.74609   -122611.93609     -1492.969  
  24377436.898    24377444.273      520048.10909    210138.85309      4735.141  
  24480080.719    24480087.434      288679.27609    104606.55109      2292.281  
 97  6 24 14 50 28.0000000  0  7G01G14G31G15G29G21G02
  22225987.594    22225991.766      360121.83801    212841.43709      2710.125  
  22077113.070    22077117.559     -154984.39901    -93476.70409     -1123.844  
  22303350.578    22303354.199      528702.35409    297262.26309      4782.125  
  20040801.531    20040804.883      113032.69709     64722.38701      1044.906  
  22425383.742    22425387.586     -205046.49609   -123775.11509     -1492.609  
  24378338.281    24378345.891      524783.33909    213828.63809      4735.250  
  24480516.984    24480524.078      290971.87709    106392.99409      2292.844  
 97  6 24 14 50 29.0000000  0  7G01G14G31G15G29G21G02
  22226503.594    22226507.719      362832.20701    214953.41509      2710.688  
  22076899.219    22076903.707     -156108.11301    -94352.32309     -1123.563  
  22304260.719    22304264.398      533484.56809    300988.66109      4782.344  
  20041000.344    20041003.684      114077.80109     65536.75501      1045.328  
  22425099.867    22425103.699     -206538.96209   -124938.07309     -1492.328  
  24379239.102    24379246.676      529518.61409    217518.46209      4735.313  
  24480954.492    24480961.445      293264.92209    108179.78209      2293.328  
 97  6 24 14 50 30.0000000  0  7G01G14G31G15G29G21G02
  22227019.195    22227023.320      365543.21301    217065.88809      2711.297  
  22076685.383    22076689.930     -157231.47809    -95227.67209     -1123.219  
  22305170.891    22305174.535      538267.08709    304715.29809      4782.641  
  20041199.344    20041202.742      115123.37409     66351.48901      1045.781  
  22424815.813    22424819.762     -208031.08609   -126100.76509     -1491.984  
  24380139.977    24380147.668      534254.02109    221208.38009      4735.422  
  24481390.391    24481397.461      295558.55809    109967.03309      2293.859  
 97  6 24 14 50 31.0000000  0  7G01G14G31G15G29G21G02
  22227535.500    22227539.531      368254.86001    219178.86009      2712.000  
  22076471.750    22076476.262     -158354.47909    -96102.73609     -1122.797  
  22306081.094    22306084.668      543049.90909    308442.17009      4783.016  
  20041398.328    20041401.773      116169.42009     67166.58901      1046.313  
  22424531.992    22424535.941     -209522.84609   -127263.17309     -1491.563  
  24381041.617    24381048.699      538989.55909    224898.40409      4735.609  
  24481826.438    24481832.730      297852.75409    111754.72009      2294.516  
 97  6 24 14 50 32.0000000  0  7G01G14G31G15G29G21G02
  22228051.500    22228055.590      370967.19601    221292.36809      2712.656  
  22076257.945    22076262.563     -159477.08609    -96977.49409     -1122.453  
  22306991.391    22306994.859      547833.10309    312169.33309      4783.328  
  20041597.547    20041600.957      117215.97809     67982.08901      1046.781  
  22424248.375    22424252.359     -211014.22609   -128425.28409     -1491.250  
  24381942.234    24381949.422      543725.24409    228588.54009      4735.766  
  24482263.188    24482269.668      300147.54909    113542.86509      2295.094  
 97  6 24 14 50 33.0000000  0  7G01G14G31G15G29G21G02
  22228567.672    22228571.797      373680.13601    223406.34709      2713.281  
  22076044.258    22076048.922     -160599.37409    -97852.00509     -1122.094  
  22307901.367    22307904.918      552616.55509    315896.69609      4783.609  
  20041797.000    20041800.434      118262.97908     68797.93301      1047.250  
  22423964.203    22423968.246     -212505.29409   -129587.15409     -1490.859  
  24382843.445    24382850.621      548461.04209    232278.76309      4735.875  
  24482699.898    24482706.590      302442.87709    115331.42709      2295.625  
 97  6 24 14 50 34.0000000  0  7G01G14G31G15G29G21G02
  22229083.953    22229088.230      376393.73301    225520.83909      2713.953  
  22075830.852    22075835.551     -161721.30309    -98726.23309     -1121.719  
  22308811.641    22308815.109      557400.31309    319624.29809      4783.984  
  20041996.094    20041999.527      119310.46308     69614.15501      1047.766  
  22423680.586    22423684.676     -213995.99309   -130748.73609     -1490.469  
  24383744.875    24383751.922      553196.99109    235969.10909      4736.078  
  24483137.633    24483144.066      304738.78909    117120.45309      2296.234  
 97  6 24 14 50 35.0000000  0  7G01G14G31G15G29G21G02
  22229600.547    22229604.859      379108.07301    227635.90809      2714.688  
  22075617.492    22075622.156     -162842.77509    -99600.10609     -1121.281  
  22309722.320    22309725.801      562184.50909    323352.24309      4784.344  
  20042195.898    20042199.262      120358.53006     70430.82901      1048.328  
  22423396.906    22423401.008     -215486.21009   -131909.94109     -1490.016  
  24384646.281    24384653.008      557933.16909    239659.62609      4736.297  
  24483574.141    24483580.152      307035.37109    118909.99209      2296.891  
 97  6 24 14 50 36.0000000  0  7G01G14G31G15G29G21G02
  22230117.219    22230121.438      381823.00001    229751.43509      2715.250  
  22075404.125    22075408.824     -163963.96509   -100473.75809     -1121.000  
  22310632.750    22310636.219      566968.96009    327080.38609      4784.625  
  20042395.172    20042398.500      121407.01906     71247.83301      1048.734  
  22423113.609    22423117.770     -216976.13209   -133070.91909     -1489.734  
  24385547.508    24385553.695      562669.43009    243350.21309      4736.344  
  24484012.203    24484018.180      309332.47209    120699.94209      2297.391  
 97  6 24 14 50 37.0000000  0  7G01G14G31G15G29G21G02
  22230634.063    22230638.270      384538.58601    231867.47609      2716.047  
  22075190.930    22075195.676     -165084.78309   -101347.12209     -1120.516  
  22311543.453    22311546.840      571753.73709    330808.78209      4785.094  
  20042594.734    20042598.016      122456.00004     72065.22001      1049.359  
  22422829.984    22422834.156     -218465.67409   -134231.59709     -1489.203  
  24386449.297    24386455.871      567405.86109    247040.93409      4736.625  
  24484448.883    24484454.520      311630.14309    122490.33109      2298.094  
 97  6 24 14 50 38.0000000  0  7G01G14G31G15G29G21G02
  22231151.031    22231155.297      387254.92101    233984.10009      2716.688  
  22074977.555    22074982.348     -166205.14909   -102220.13309     -1120.156  
  22312453.789    22312457.164      576538.94009    334537.51109      4785.391  
  20042794.367    20042797.590      123505.56506     72883.06301      1049.828  
  22422546.906    22422551.078     -219954.74209   -135391.90709     -1488.844  
  24387350.445    24387356.668      572142.53709    250731.83709      4736.797  
  24484885.938    24484891.879      313928.50309    124281.25609      2298.672  
 97  6 24 14 50 39.0000000  0  7G01G14G31G15G29G21G02
  22231667.930    22231672.160      389971.88201    236101.21309      2717.250  
  22074764.438    22074769.195     -167325.18109   -103092.88509     -1119.891  
  22313364.445    22313367.785      581324.46309    338266.49009      4785.656  
  20042994.477    20042997.676      124555.58607     73701.26101      1050.219  
  22422263.359    22422267.473     -221443.46009   -136551.94409     -1488.578  
  24388251.422    24388256.133      576879.34609    254422.85209      4736.844  
  24485323.992    24485329.313      316227.40009    126072.60209      2299.125  
 97  6 24 14 50 40.0000000  0  7G01G14G31G15G29G21G02
  22232184.914    22232189.227      392689.45001    238218.79909      2717.875  
  22074551.422    22074556.215     -168444.90709   -103965.39609     -1119.563  
  22314275.383    22314278.758      586110.26009    341995.68309      4785.953  
  20043194.313    20043197.477      125606.04808     74519.80101      1050.688  
  22421980.180    22421984.328     -222931.86809   -137711.74109     -1488.250  
  24389152.930    24389157.441      581616.23609    258113.93709      4736.938  
  24485761.375    24485766.988      318526.80109    127864.34709      2299.672  
 97  6 24 14 50 41.0000000  0  7G01G14G31G15G29G21G02
  22232702.664    22232707.035      395407.70601    240336.91809      2718.641  
  22074338.375    22074343.133     -169564.23009   -104837.59509     -1119.094  
  22315185.844    22315189.219      590896.42309    345725.16109      4786.375  
  20043394.242    20043397.418      126657.03507     75338.75001      1051.281  
  22421697.109    22421701.281     -224419.87309   -138871.22409     -1487.766  
  24390054.461    24390059.828      586353.32309    261805.16609      4737.250  
  24486198.719    24486204.414      320826.82609    129656.57309      2300.375  
 97  6 24 14 50 42.0000000  0  7G01G14G31G15G29G21G02
  22233219.711    22233224.070      398126.71401    242455.62609      2719.297  
  22074126.000    22074130.816     -170683.08209   -105709.42709     -1118.734  
  22316096.781    22316100.215      595683.02709    349454.98309      4786.719  
  20043594.336    20043597.523      127708.61209     76158.16001      1051.781  
  22421414.008    22421418.273     -225907.38609   -140030.32309     -1487.375  
  24390955.422    24390961.480      591090.66409    265496.60009      4737.375  
  24486636.648    24486642.004      323127.54609    131449.34209      2300.953  
 97  6 24 14 50 43.0000000  0  7G01G14G31G15G29G21G02
  22233737.211    22233741.617      400846.37701    244574.84309      2719.969  
  22073912.984    22073917.695     -171801.59409   -106580.99409     -1118.344  
  22317007.727    22317011.313      600469.93309    353185.03809      4787.063  
  20043794.414    20043797.578      128760.67109     76977.94601      1052.281  
  22421131.148    22421135.367     -227394.53709   -141189.13809     -1487.000  
  24391856.828    24391862.664      595828.17209    269188.18009      4737.547  
  24487074.570    24487080.242      325428.82209    133242.54209      2301.531  
 97  6 24 14 50 44.0000000  0  7G01G14G31G15G29G21G02
  22234254.906    22234259.254      403566.67401    246694.55609      2720.625  
  22073699.820    22073704.508     -172919.76209   -107452.29309     -1117.969  
  22317918.727    22317922.184      605257.16409    356915.34609      4787.391  
  20043994.742    20043997.918      129813.20009     77798.09901      1052.781  
  22420848.281    22420852.547     -228881.34009   -142347.68509     -1486.609  
  24392758.461    24392764.250      600565.79409    272879.82909      4737.734  
  24487512.578    24487518.871      327730.62009    135036.15209      2302.125  
 97  6 24 14 50 45.0000000  0  7G01G14G31G15G29G21G02
  22234772.563    22234776.922      406287.53701    248814.70909      2721.188  
  22073487.336    22073491.906     -174037.65809   -108323.38009     -1117.719  
  22318829.766    22318833.352      610044.63709    360645.84209      4787.609  
  20044195.141    20044198.340      130866.11609     78618.55301      1053.172  
  22420565.266    22420569.391     -230367.87509   -143506.02309     -1486.344  
  24393660.383    24393665.023      605303.47209    276571.52009      4737.750  
  24487950.953    24487956.895      330032.92009    136830.14809      2302.594  
 97  6 24 14 50 46.0000000  0  7G01G14G31G15G29G21G02
  22235290.695    22235295.078      409009.07101    250935.38509      2721.859  
  22073274.453    22073279.023     -175155.17209   -109194.16909     -1117.344  
  22319740.766    22319744.270      614832.42209    364376.58409      4787.969  
  20044395.672    20044398.883      131919.54409     79439.40601      1053.672  
  22420282.609    22420286.652     -231854.01709   -144664.05309     -1485.953  
  24394562.070    24394567.145      610041.30109    280263.32609      4737.891  
  24488388.266    24488393.938      332335.82109    138624.61309      2303.172  
 97  6 24 14 50 47.0000000  0  7G01G14G31G15G29G21G02
  22235808.648    22235812.996      411731.22901    253056.54509      2722.547  
  22073061.938    22073066.555     -176272.36009   -110064.70509     -1116.938  
  22320651.758    22320655.203      619620.51809    368107.56709      4788.297  
  20044595.992    20044599.215      132973.41509     80260.60501      1054.172  
  22420000.063    22420004.188     -233339.81909   -145821.82109     -1485.578  
  24395463.539    24395468.566      614779.25109    283955.22809      4738.094  
  24488826.953    24488832.566      334639.25409    140419.49209      2303.781  
 97  6 24 14 50 48.0000000  0  7G01G14G31G15G29G21G02
  22236326.859    22236331.336      414454.14201    255178.29709      2723.203  
  22072849.500    22072854.117     -177389.07909   -110934.87409     -1116.594  
  22321563.109    22321566.578      624409.04009    371838.88109      4788.625  
  20044796.883    20044800.117      134027.88209     81082.26801      1054.656  
  22419717.141    22419721.148     -234825.15309   -146979.22509     -1485.203  
  24396365.586    24396370.402      619517.43509    287647.32909      4738.203  
  24489265.883    24489271.098      336943.37809    142214.90809      2304.359  
 97  6 24 14 50 49.0000000  0  7G01G14G31G15G29G21G02
  22236845.117    22236849.617      417177.56101    257300.44209      2723.703  
  22072637.227    22072641.855     -178505.61109   -111804.89709     -1116.391  
  22322474.305    22322477.785      629197.70209    375570.30609      4788.797  
  20044997.578    20045000.836      135082.66309     81904.17601      1054.984  
  22419434.734    22419438.625     -236310.31509   -148136.49609     -1485.016  
  24397266.773    24397271.871      624255.59409    291339.40409      4738.188  
  24489704.242    24489709.094      339247.89509    144010.64209      2304.766  
 97  6 24 14 50 50.0000000  0  7G01G14G31G15G29G21G02
  22237363.438    22237367.938      419901.60901    259423.07809      2724.438  
  22072424.680    22072429.320     -179621.80909   -112674.66109     -1115.969  
  22323385.742    22323389.293      633986.65409    379301.95509      4789.156  
  20045198.328    20045201.621      136137.90509     82726.44101      1055.531  
  22419152.258    22419156.102     -237795.11509   -149293.48409     -1484.563  
  24398168.406    24398174.266      628993.87809    295031.56909      4738.406  
  24490142.672    24490147.512      341552.97609    145806.80809      2305.438  
 97  6 24 14 50 51.0000000  0  7G01G14G31G15G29G21G02
  22237882.109    22237886.574      422626.41701    261546.30609      2725.063  
  22072212.344    22072217.031     -180737.55701   -113544.07309     -1115.641  
  22324297.242    22324300.922      638776.03309    383033.93909      4789.438  
  20045399.188    20045402.469      137193.71809     83549.15301      1055.984  
  22418869.578    22418873.457     -239279.44409   -150450.10409     -1484.234  
  24399070.258    24399076.152      633732.38509    298723.91109      4738.516  
  24490581.703    24490586.625      343858.72509    147603.49009      2305.953  
 97  6 24 14 50 52.0000000  0  7G01G14G31G15G29G21G02
  22238400.633    22238405.133      425351.84801    263670.02009      2725.750  
  22072000.289    22072004.871     -181852.98601   -114413.23609     -1115.266  
  22325208.500    22325212.227      643565.65409    386766.11009      4789.781  
  20045600.070    20045603.387      138249.97409     84372.21101      1056.484  
  22418587.367    22418591.152     -240763.46409   -151606.48409     -1483.844  
  24399972.133    24399978.273      638471.00209    302416.33409      4738.688  
  24491020.500    24491025.715      346165.00009    149400.58609      2306.563  
 97  6 24 14 50 53.0000000  0  7G01G14G31G15G29G21G02
  22238919.320    22238923.891      428077.91501    265794.22709      2726.453  
  22071787.938    22071792.461     -182968.08101   -115282.14109     -1114.875  
  22326120.258    22326123.855      648355.58909    390498.52609      4790.141  
  20045801.336    20045804.676      139306.69209     85195.62901      1057.016  
  22418304.992    22418308.859     -242247.12909   -152762.58809     -1483.406  
  24400874.094    24400880.387      643209.72409    306108.83209      4738.875  
  24491460.117    24491465.309      348471.83909    151198.12809      2307.172  
 97  6 24 14 50 54.0000000  0  7G01G14G31G15G29G21G02
  22239438.148    22239442.754      430804.69001    267918.98709      2727.219  
  22071575.844    22071580.355     -184082.77201   -116150.73009     -1114.391  
  22327031.828    22327035.473      653145.90609    394231.23909      4790.594  
  20046002.336    20046005.676      140363.94809     86019.46501      1057.625  
  22418022.422    22418026.324     -243730.34009   -153918.33809     -1482.922  
  24401775.867    24401782.289      647948.63909    309801.48109      4739.094  
  24491898.195    24491902.918      350779.30809    152996.15709      2307.875  
 97  6 24 14 50 55.0000000  0  7G01G14G31G15G29G21G02
  22239957.336    22239961.988      433532.22901    270044.34109      2727.766  
  22071363.867    22071368.402     -185197.00401   -117018.96209     -1114.156  
  22327943.750    22327947.395      657936.62509    397964.26609      4790.797  
  20046203.531    20046206.824      141421.78809     86843.75601      1057.984  
  22417740.328    22417744.195     -245213.09709   -155073.73309     -1482.656  
  24402677.742    24402684.742      652687.80709    313494.32909      4739.109  
  24492336.945    24492342.207      353087.43809    154794.69909      2308.313  
 97  6 24 14 50 56.0000000  0  7G01G14G31G15G29G21G02
  22240476.297    22240480.891      436260.28201    272170.09609      2728.438  
  22071151.734    22071156.176     -186311.02801   -117887.03109     -1113.813  
  22328855.406    22328859.039      662727.52409    401697.43309      4791.078  
  20046405.266    20046408.652      142479.97109     87668.31401      1058.469  
  22417458.203    22417462.188     -246695.61509   -156228.94109     -1482.313  
  24403579.641    24403586.227      657426.95709    317187.17409      4739.281  
  24492776.648    24492781.160      355396.00409    156593.57909      2308.875  
 97  6 24 14 50 57.0000000  0  7G01G14G31G15G29G21G02
  22240995.695    22241000.430      438989.02501    274296.38909      2729.000  
  22070939.836    22070944.313     -187424.66301   -118754.79709     -1113.547  
  22329767.164    22329770.879      667518.77509    405430.87409      4791.328  
  20046606.586    20046609.938      143538.67409     88493.27701      1058.875  
  22417176.328    22417180.336     -248177.73209   -157383.83609     -1482.016  
  24404481.133    24404487.719      662166.29609    320880.17009      4739.313  
  24493216.063    24493220.563      357705.17609    158392.93909      2309.391  
 97  6 24 14 50 58.0000000  0  7G01G14G31G15G29G21G02
  22241514.961    22241519.660      441718.35601    276423.14209      2729.688  
  22070727.813    22070732.289     -188538.03801   -119622.36209     -1113.141  
  22330678.727    22330682.359      672310.23209    409164.47509      4791.672  
  20046807.875    20046811.215      144597.78809     89318.56101      1059.391  
  22416894.375    22416898.254     -249659.56209   -158538.50809     -1481.609  
  24405383.102    24405389.242      666905.68309    324573.20009      4739.484  
  24493656.484    24493660.914      360014.84209    160192.68509      2309.984  
 97  6 24 14 50 59.0000000  0  7G01G14G31G15G29G21G02
  22242034.469    22242039.156      444448.43301    278550.47509      2730.438  
  22070516.195    22070520.648     -189650.96701   -120489.58009     -1112.734  
  22331590.578    22331594.305      677102.09709    412898.39409      4792.047  
  20047009.789    20047013.070      145657.47109     90144.28901      1059.953  
  22416612.180    22416616.023     -251140.94009   -159692.82709     -1481.156  
  24406284.711    24406291.473      671645.30309    328266.40809      4739.719  
  24494095.258    24494099.090      362325.14909    161992.93409      2310.625  
 97  6 24 14 51  0.0000000  0  7G01G14G31G15G29G21G02
  22242554.453    22242559.070      447179.22601    280678.36409      2731.141  
  22070304.508    22070308.973     -190763.49801   -121356.48809     -1112.344  
  22332502.656    22332506.488      681894.37209    416632.63309      4792.438  
  20047211.359    20047214.582      146717.68409     90970.43001      1060.469  
  22416330.719    22416334.586     -252621.86409   -160846.79209     -1480.734  
  24407187.148    24407194.406      676385.10509    331959.75009      4739.875  
  24494534.711    24494538.555      364636.08009    163793.66609      2311.219  
 97  6 24 14 51  1.0000000  0  7G01G14G31G15G29G21G02
  22243074.008    22243078.543      449910.69001    282806.77809      2731.828  
  22070092.711    22070097.152     -191875.68901   -122223.13009     -1111.984  
  22333414.633    22333418.594      686686.93309    420367.09709      4792.766  
  20047413.305    20047416.539      147778.38109     91796.94901      1060.984  
  22416048.898    22416052.719     -254102.44409   -162000.48809     -1480.375  
  24408088.813    24408096.023      681125.04809    335653.21109      4740.031  
  24494975.047    24494979.336      366947.56909    165594.82909      2311.813  
 97  6 24 14 51  2.0000000  0  7G01G14G31G15G29G21G02
  22243593.852    22243598.363      452642.93301    284935.79809      2732.547  
  22069881.375    22069885.828     -192987.41701   -123089.41109     -1111.578  
  22334326.922    22334330.824      691479.93309    424101.90009      4793.125  
  20047615.352    20047618.609      148839.68509     92623.94101      1061.516  
  22415767.242    22415770.934     -255582.55609   -163153.82109     -1479.953  
  24408991.422    24408998.574      685865.24409    339346.87209      4740.219  
  24495415.195    24495419.906      369259.72809    167396.50509      2312.406  
 97  6 24 14 51  3.0000000  0  7G01G14G31G15G29G21G02
  22244114.063    22244118.469      455375.78601    287065.29309      2733.250  
  22069669.961    22069674.332     -194098.84401   -123955.45709     -1111.203  
  22335239.008    22335242.957      696273.21909    427836.92709      4793.469  
  20047817.469    20047820.703      149901.42709     93451.27301      1062.031  
  22415485.648    22415489.422     -257062.30809   -164306.87509     -1479.531  
  24409893.039    24409900.426      690605.50009    343040.57709      4740.359  
  24495855.070    24495858.984      371572.39809    169198.58109      2313.016  
 97  6 24 14 51  4.0000000  0  7G01G14G31G15G29G21G02
  22244634.289    22244638.707      458109.27501    289195.28409      2733.813  
  22069458.195    22069462.520     -195209.98101   -124821.27709     -1110.938  
  22336150.852    22336154.824      701066.71809    431572.11909      4793.672  
  20048019.383    20048022.676      150963.60409     94278.94301      1062.438  
  22415204.039    22415207.813     -258541.77309   -165459.70209     -1479.250  
  24410794.852    24410801.473      695345.86709    346734.36509      4740.438  
  24496296.008    24496300.109      373885.58109    171001.05709      2313.453  
 97  6 24 14 51  5.0000000  0  7G01G14G31G15G29G21G02
  22245154.406    22245158.836      460843.44501    291325.80509      2734.500  
  22069246.867    22069251.145     -196320.73301   -125686.79709     -1110.609  
  22337062.938    22337066.910      705860.56009    435307.57909      4793.953  
  20048221.836    20048225.082      152026.29509     95107.01401      1062.922  
  22414922.758    22414926.590     -260020.83009   -166612.21109     -1478.906  
  24411696.680    24411703.043      700086.38809    350428.28709      4740.578  
  24496735.781    24496739.262      376199.34009    172803.99009      2314.047  
 97  6 24 14 51  6.0000000  0  7G01G14G31G15G29G21G02
  22245674.781    22245679.211      463578.30601    293456.86509      2735.188  
  22069035.609    22069039.758     -197431.12601   -126552.03709     -1110.219  
  22337975.336    22337979.309      710654.74909    439043.30809      4794.328  
  20048423.914    20048427.113      153089.49209     95935.48001      1063.453  
  22414641.727    22414645.559     -261499.51709   -167764.43209     -1478.500  
  24412599.859    24412604.840      704827.05509    354122.31109      4740.734  
  24497176.219    24497179.254      378513.70209    174607.39609      2314.641  
 97  6 24 14 51  7.0000000  0  7G01G14G31G15G29G21G02
  22246195.398    22246199.910      466313.82401    295588.43809      2735.875  
  22068824.758    22068828.965     -198541.19001   -127417.02209     -1109.859  
  22338887.688    22338891.543      715449.19109    442779.23809      4794.641  
  20048626.586    20048629.797      154153.16309     96764.31501      1063.938  
  22414360.188    22414364.031     -262977.86709   -168916.39009     -1478.125  
  24413501.047    24413506.250      709567.85709    357816.43709      4740.891  
  24497616.234    24497619.281      380828.59909    176411.20909      2315.219  
 97  6 24 14 51  8.0000000  0  7G01G14G31G15G29G21G02
  22246716.047    22246720.535      469050.07101    297720.58009      2736.563  
  22068613.320    22068617.422     -199650.84001   -128281.68309     -1109.516  
  22339800.148    22339804.168      720244.02009    446515.46609      4794.938  
  20048829.039    20048832.180      155217.38709     97593.57901      1064.438  
  22414078.711    22414082.402     -264455.76909   -170068.00309     -1477.766  
  24414403.727    24414408.086      714308.85409    361510.72409      4741.078  
  24498056.789    24498060.059      383144.12709    178215.51309      2315.781  
 97  6 24 14 51  9.0000000  0  7G01G14G31G15G29G21G02
  22247236.797    22247241.297      471786.90401    299853.17609      2737.188  
  22068402.086    22068406.152     -200760.22501   -129146.13909     -1109.203  
  22340712.844    22340716.840      725039.08009    450251.87609      4795.234  
  20049031.680    20049034.797      156282.01907     98423.16001      1064.891  
  22413797.523    22413801.250     -265933.39009   -171219.39609     -1477.438  
  24415305.609    24415310.449      719049.92509    365205.06409      4741.141  
  24498497.523    24498501.191      385460.13609    180020.18909      2316.297  
 97  6 24 14 51 10.0000000  0  7G01G14G31G15G29G21G02
  22247757.680    22247762.191      474524.40001    301986.29009      2737.844  
  22068191.078    22068195.121     -201869.29101   -130010.34609     -1108.859  
  22341625.336    22341629.320      729834.43109    453988.51309      4795.578  
  20049234.227    20049237.355      157347.12306     99253.11201      1065.375  
  22413516.391    22413520.059     -267410.67409   -172370.52409     -1477.063  
  24416207.258    24416211.770      723791.14109    368899.53309      4741.297  
  24498938.539    24498942.383      387776.68809    181825.29609      2316.859  
 97  6 24 14 51 11.0000000  0  7G01G14G31G15G29G21G02
  22248278.805    22248283.211      477262.58601    304119.94009      2738.406  
  22067980.039    22067984.000     -202977.97801   -130874.25809     -1108.641  
  22342537.750    22342541.594      734630.16609    457725.44909      4795.750  
  20049437.117    20049440.223      158412.73504    100083.45801      1065.734  
  22413235.359    22413238.922     -268887.56709   -173521.34709     -1476.828  
  24417110.383    24417115.855      728532.50309    372594.10609      4741.313  
  24499379.242    24499383.918      390093.80609    183630.83809      2317.297  
 97  6 24 14 51 12.0000000  0  7G01G14G31G15G29G21G02
  22248800.109    22248804.504      480001.35401    306254.04709      2739.141  
  22067769.117    22067773.137     -204086.39501   -131737.95809     -1108.203  
  22343450.398    22343454.219      739426.13309    461462.56509      4796.172  
  20049640.078    20049643.219      159478.75403    100914.12201      1066.313  
  22412954.367    22412957.930     -270364.15809   -174671.93609     -1476.359  
  24418011.922    24418017.980      733273.92509    376288.72209      4741.563  
  24499820.367    24499824.750      392411.44809    185436.79309      2317.953  
 97  6 24 14 51 13.0000000  0  7G01G14G31G15G29G21G02
  22249321.063    22249325.445      482740.91301    308388.76909      2739.891  
  22067558.344    22067562.340     -205194.35709   -132601.30309     -1107.781  
  22344363.117    22344366.961      744222.51609    465200.00409      4796.547  
  20049843.094    20049846.305      160545.37302    101745.25301      1066.859  
  22412673.516    22412677.055     -271840.28109   -175822.16209     -1475.922  
  24418914.047    24418920.574      738015.60109    379983.52909      4741.750  
  24500261.266    24500266.820      394729.75109    187243.25209      2318.594  
 97  6 24 14 51 14.0000000  0  7G01G14G31G15G29G21G02
  22249842.836    22249847.137      485481.13501    310524.00709      2740.578  
  22067347.594    22067351.684     -206301.96801   -133464.37609     -1107.422  
  22345275.969    22345279.824      749019.23009    468937.70409      4796.875  
  20050046.094    20050049.328      161612.48204    102576.76601      1067.391  
  22412392.750    22412396.453     -273316.03609   -176972.10109     -1475.563  
  24419816.930    24419823.387      742757.43309    383678.45709      4741.953  
  24500702.703    24500708.188      397048.63009    189050.16109      2319.172  
 97  6 24 14 51 15.0000000  0  7G01G14G31G15G29G21G02
  22250364.336    22250368.648      488222.12601    312659.84609      2741.344  
  22067136.867    22067140.898     -207409.11701   -134327.09009     -1106.953  
  22346188.719    22346192.574      753816.36209    472675.72809      4797.313  
  20050249.188    20050252.434      162680.19003    103408.74701      1067.969  
  22412112.156    22412115.918     -274791.31509   -178121.67009     -1475.078  
  24420719.273    24420725.367      747499.46109    387373.53409      4742.141  
  24501144.500    24501150.043      399368.17709    190857.60309      2319.828  
 97  6 24 14 51 16.0000000  0  7G01G14G31G15G29G21G02
  22250886.195    22250890.520      490963.70201    314796.14009      2741.844  
  22066926.164    22066930.207     -208516.00301   -135189.59809     -1106.750  
  22347101.578    22347105.457      758613.72309    476413.93009      4797.484  
  20050452.492    20050455.785      163748.29304    104241.03501      1068.297  
  22411831.148    22411834.828     -276266.31309   -179271.01809     -1474.859  
  24421621.836    24421627.320      752241.58009    391068.67609      4742.109  
  24501586.461    24501591.852      401688.18109    192665.39709      2320.250  
 97  6 24 14 51 17.0000000  0  7G01G14G31G15G29G21G02
  22251407.836    22251412.207      493705.89101    316932.91009      2742.547  
  22066715.953    22066719.996     -209622.58001   -136051.86509     -1106.391  
  22348014.609    22348018.430      763411.36809    480152.35409      4797.797  
  20050655.641    20050658.957      164816.84306    105073.67001      1068.797  
  22411550.633    22411554.500     -277740.98309   -180420.10909     -1474.500  
  24422523.719    24422528.758      756983.77909    394763.88209      4742.281  
  24502027.250    24502032.723      404008.69109    194473.58909      2320.813  
 97  6 24 14 51 18.0000000  0  7G01G14G31G15G29G21G02
  22251929.914    22251934.285      496448.75601    319070.21009      2743.234  
  22066505.359    22066509.355     -210728.79901   -136913.85309     -1106.000  
  22348927.648    22348931.504      768209.33309    483891.02609      4798.172  
  20050859.133    20050862.438      165885.88507    105906.69001      1069.344  
  22411270.078    22411273.828     -279215.26509   -181568.89709     -1474.047  
  24423426.766    24423432.355      761726.09509    398459.19109      4742.453  
  24502469.602    24502474.734      406329.80209    196282.25309      2321.438  
 97  6 24 14 51 19.0000000  0  7G01G14G31G15G29G21G02
  22252451.938    22252456.309      499192.31501    321208.04809      2743.844  
  22066294.703    22066298.699     -211834.63401   -137775.54209     -1105.703  
  22349840.836    22349844.703      773007.63709    487629.96509      4798.438  
  20051062.688    20051066.027      166955.45409    106740.11901      1069.766  
  22410989.719    22410993.480     -280689.14809   -182717.37609     -1473.734  
  24424329.320    24424336.859      766468.59509    402154.64109      4742.547  
  24502910.852    24502915.891      408651.49109    198091.35209      2321.938  
 97  6 24 14 51 20.0000000  0  7G01G14G31G15G29G21G02
  22252974.250    22252978.680      501936.61701    323346.46609      2744.703  
  22066084.531    22066088.504     -212940.03101   -138636.89009     -1105.156  
  22350753.945    22350757.719      777806.34309    491369.21209      4798.922  
  20051266.305    20051269.563      168025.58509    107573.98701      1070.438  
  22410709.227    22410713.082     -282162.58609   -183865.50609     -1473.219  
  24425231.211    24425238.434      771211.33009    405850.29509      4742.875  
  24503353.148    24503358.516      410973.84809    199900.96909      2322.688  
 97  6 24 14 51 21.0000000  0  7G01G14G31G15G29G21G02
  22253496.586    22253500.969      504681.53801    325485.36609      2745.219  
  22065874.180    22065878.188     -214045.10901   -139497.99009     -1104.938  
  22351666.953    22351670.633      782605.34909    495108.69509      4799.125  
  20051470.031    20051473.359      169096.16909    108408.20901      1070.781  
  22410428.883    22410432.879     -283635.71509   -185013.39809     -1473.000  
  24426134.148    24426141.160      775954.12309    409545.98409      4742.875  
  24503794.930    24503800.402      413296.72109    201711.00309      2323.125  
 97  6 24 14 51 22.0000000  0  7G01G14G31G15G29G21G02
  22254018.945    22254023.375      507427.19101    327624.83509      2746.031  
  22065663.758    22065667.730     -215149.77801   -140358.77009     -1104.422  
  22352580.586    22352584.383      787404.71309    498848.45809      4799.609  
  20051673.898    20051677.250      170167.31309    109242.86601      1071.438  
  22410148.578    22410152.539     -285108.43209   -186160.96809     -1472.469  
  24427036.656    24427042.492      780697.15309    413241.84309      4743.172  
  24504237.023    24504242.191      415620.20009    203521.50709      2323.797  
 97  6 24 14 51 23.0000000  0  7G01G14G31G15G29G21G02
  22254541.625    22254545.996      510173.62601    329764.91509      2746.641  
  22065453.805    22065457.648     -216253.96901   -141219.17909     -1104.156  
  22353493.906    22353497.668      792204.55009    502588.59009      4799.828  
  20051877.852    20051881.227      171239.06109    110077.99501      1071.859  
  22409868.469    22409872.430     -286580.63909   -187308.14209     -1472.172  
  24427939.430    24427946.016      785440.44609    416937.91209      4743.250  
  24504679.070    24504684.977      417944.36409    205332.54909      2324.313  
 97  6 24 14 51 24.0000000  0  7G01G14G31G15G29G21G02
  22255064.117    22255068.488      512920.61201    331905.42509      2747.375  
  22065243.648    22065247.457     -217357.91101   -142079.39309     -1103.719  
  22354407.203    22354411.105      797004.58409    506328.87309      4800.219  
  20052081.906    20052085.281      172311.19009    110913.42001      1072.422  
  22409588.516    22409592.371     -288052.60309   -188455.12609     -1471.750  
  24428842.188    24428848.773      790183.77709    420634.00709      4743.406  
  24505121.625    24505127.367      420268.98409    207143.93709      2324.938  
 97  6 24 14 51 25.0000000  0  7G01G14G31G15G29G21G02
  22255587.180    22255591.563      515668.35901    334046.52709      2748.109  
  22065033.711    22065037.508     -218461.41701   -142939.26709     -1103.297  
  22355320.852    22355324.777      801804.98209    510069.44109      4800.609  
  20052286.102    20052289.477      173383.89809    111749.29501      1072.984  
  22409308.406    22409312.227     -289524.15109   -189601.78609     -1471.328  
  24429745.234    24429752.984      794927.31109    424330.25709      4743.625  
  24505564.539    24505569.813      422594.24909    208955.82909      2325.578  
 97  6 24 14 51 26.0000000  0  7G01G14G31G15G29G21G02
  22256110.023    22256114.324      518416.83301    336188.19409      2748.797  
  22064823.891    22064827.641     -219564.51309   -143798.82109     -1102.938  
  22356234.336    22356238.438      806605.78009    513810.31909      4800.906  
  20052490.172    20052493.594      174457.15609    112585.60101      1073.484  
  22409028.609    22409032.336     -290995.26909   -190748.11109     -1470.969  
  24430647.445    24430654.230      799671.04809    428026.67209      4743.797  
  24506006.688    24506011.375      424920.11909    210768.19309      2326.109  
 97  6 24 14 51 27.0000000  0  7G01G14G31G15G29G21G02
  22256633.133    22256637.398      521165.88301    338330.31209      2749.406  
  22064614.047    22064617.867     -220667.33409   -144658.16309     -1102.641  
  22357148.000    22357152.172      811406.80309    517551.37709      4801.188  
  20052694.391    20052697.777      175530.81409    113422.21801      1073.906  
  22408748.805    22408752.379     -292466.11109   -191894.22109     -1470.672  
  24431550.414    24431557.590      804414.82509    431723.13509      4743.875  
  24506449.859    24506454.746      427246.47209    212580.92709      2326.609  
 97  6 24 14 51 28.0000000  0  7G01G14G31G15G29G21G02
  22257156.453    22257160.742      523915.67401    340473.00509      2750.047  
  22064404.023    22064407.773     -221769.74309   -145517.18209     -1102.297  
  22358061.648    22358065.996      816208.19409    521292.71909      4801.484  
  20052898.938    20052902.289      176605.02109    114259.26201      1074.391  
  22408468.789    22408472.445     -293936.55009   -193040.02009     -1470.313  
  24432453.484    24432460.754      809158.78209    435419.74109      4743.953  
  24506892.234    24506897.883      429573.42009    214394.13409      2327.141  
 97  6 24 14 51 29.0000000  0  7G01G14G31G15G29G21G02
  22257679.930    22257684.195      526665.96301    342616.08709      2750.641  
  22064194.320    22064198.094     -222871.96909   -146376.06009     -1102.047  
  22358975.250    22358979.352      821009.72109    525034.16709      4801.672  
  20053103.367    20053106.742      177679.54709    115096.55401      1074.766  
  22408189.086    22408192.719     -295406.78409   -194185.65609     -1470.047  
  24433355.672    24433361.625      813902.70309    439116.30809      4743.969  
  24507335.758    24507341.406      431900.75309    216207.63909      2327.594  
 97  6 24 14 51 30.0000000  0  7G01G14G31G15G29G21G02
  22258203.414    22258207.785      529416.93101    344759.69609      2751.250  
  22063984.594    22063988.332     -223973.81109   -147234.63809     -1101.734  
  22359889.273    22359893.340      825811.60509    528775.89409      4801.984  
  20053307.977    20053311.305      178754.57709    115934.24001      1075.203  
  22407909.531    22407913.188     -296876.62409   -195330.98509     -1469.750  
  24434258.602    24434264.332      818646.75109    442812.95509      4744.031  
  24507778.148    24507783.375      434228.67509    218021.60809      2328.125  
 97  6 24 14 51 31.0000000  0  7G01G14G31G15G29G21G02
  22258727.141    22258731.500      532168.52401    346903.79309      2751.984  
  22063775.227    22063778.918     -225075.38009   -148093.00209     -1101.328  
  22360803.094    22360807.289      830613.72009    532517.79709      4802.344  
  20053512.570    20053515.852      179830.01609    116772.24501      1075.750  
  22407629.500    22407633.156     -298346.23409   -196476.13509     -1469.344  
  24435161.047    24435166.332      823390.85309    446509.65509      4744.219  
  24508221.492    24508226.379      436557.07409    219835.94509      2328.750  
 97  6 24 14 51 32.0000000  0  7G01G14G31G15G29G21G02
  22259250.891    22259255.273      534920.88901    349048.49309      2752.641  
  22063565.836    22063569.480     -226176.47409   -148950.99609     -1101.000  
  22361716.969    22361721.176      835416.26409    536260.03809      4802.609  
  20053717.313    20053720.617      180906.05409    117610.71601      1076.203  
  22407350.156    22407353.766     -299815.35509   -197620.90409     -1469.031  
  24436063.633    24436069.316      828135.16109    450206.50709      4744.281  
  24508665.289    24508670.211      438886.13609    221650.80509      2329.266  
 97  6 24 14 51 33.0000000  0  7G01G14G31G15G29G21G02
  22259774.492    22259778.980      537673.78701    351193.61009      2753.250  
  22063355.898    22063359.555     -227277.36209   -149808.83009     -1100.688  
  22362630.672    22362634.785      840219.00409    540002.43109      4802.922  
  20053922.102    20053925.418      181982.43309    118449.45401      1076.641  
  22407070.547    22407074.285     -301284.25609   -198765.50309     -1468.719  
  24436966.273    24436972.391      832879.44509    453903.34909      4744.375  
  24509107.563    24509112.801      441215.61309    223465.98709      2329.766  
 97  6 24 14 51 34.0000000  0  7G01G14G31G15G29G21G02
  22260298.750    22260303.215      540427.46801    353339.33509      2754.094  
  22063146.711    22063150.402     -228377.79409   -150666.31009     -1100.156  
  22363544.844    22363548.957      845022.13909    543745.13109      4803.406  
  20054127.195    20054130.535      183059.41309    119288.66001      1077.313  
  22406791.359    22406795.180     -302752.70209   -199909.74609     -1468.156  
  24437869.234    24437874.297      837623.93509    457600.35709      4744.641  
  24509551.500    24509556.469      443545.73409    225281.67309      2330.484  
 97  6 24 14 51 35.0000000  0  7G01G14G31G15G29G21G02
  22260822.938    22260827.391      543181.84601    355485.60309      2754.641  
  22062937.320    22062940.977     -229477.83409   -151523.48309     -1099.953  
  22364458.805    22364462.871      849825.65109    547488.12609      4803.563  
  20054332.141    20054335.434      184136.90809    120128.26801      1077.641  
  22406511.766    22406515.727     -304220.74209   -201053.67309     -1467.969  
  24438771.945    24438776.352      842368.57609    461297.48009      4744.578  
  24509994.773    24509999.121      445876.43109    227097.79209      2330.859  
 97  6 24 14 51 36.0000000  0  7G01G14G31G15G29G21G02
  22261347.141    22261351.547      545936.83001    357632.34509      2755.328  
  22062728.172    22062731.875     -230577.56809   -152380.41509     -1099.547  
  22365373.141    22365377.184      854629.42909    551231.32909      4803.953  
  20054537.344    20054540.648      185214.83009    120968.20701      1078.188  
  22406232.414    22406236.363     -305688.47909   -202197.36609     -1467.547  
  24439675.094    24439680.508      847113.24909    464994.63109      4744.734  
  24510438.328    24510443.309      448207.60609    228914.29009      2331.453  
 97  6 24 14 51 37.0000000  0  7G01G14G31G15G29G21G02
  22261871.320    22261875.680      548692.46801    359779.59509      2755.906  
  22062518.813    22062522.551     -231676.96701   -153237.08709     -1099.266  
  22366287.273    22366291.352      859433.51609    554974.77509      4804.203  
  20054742.484    20054745.836      186293.22809    121808.51801      1078.578  
  22405953.102    22405956.980     -307155.90509   -203340.81609     -1467.281  
  24440577.961    24440584.723      851858.00909    468691.85009      4744.750  
  24510881.211    24510885.652      450539.29509    230731.19809      2331.922  
 97  6 24 14 51 38.0000000  0  7G01G14G31G15G29G21G02
  22262395.883    22262400.277      551448.65001    361927.26909      2756.516  
  22062309.594    22062313.355     -232776.12601   -154093.57509     -1098.984  
  22367201.375    22367205.324      864237.81909    558718.38709      4804.453  
  20054947.781    20054951.121      187371.99309    122649.11501      1079.000  
  22405674.313    22405678.191     -308623.06609   -204484.05609     -1467.016  
  24441481.375    24441486.520      856602.74909    472389.04309      4744.781  
  24511326.320    24511330.070      452871.43409    232548.45609      2332.391  
 97  6 24 14 51 39.0000000  0  7G01G14G31G15G29G21G02
  22262920.695    22262925.137      554205.59901    364075.54109      2757.313  
  22062100.398    22062104.184     -233874.82201   -154949.70109     -1098.500  
  22368115.656    22368119.500      869042.57109    562462.35109      4804.938  
  20055153.383    20055156.734      188451.35708    123490.17801      1079.625  
  22405394.672    22405398.586     -310089.76709   -205626.94209     -1466.500  
  24442384.148    24442389.926      861347.71009    476086.41009      4745.031  
  24511769.031    24511773.742      455204.19509    234366.20109      2333.063  
 97  6 24 14 51 40.0000000  0  7G01G14G31G15G29G21G02
  22263445.320    22263449.645      556963.19501    366224.31809      2757.984  
  22061891.578    22061895.352     -234973.18201   -155805.56309     -1098.109  
  22369030.008    22369033.887      873847.60309    566206.53009      4805.266  
  20055358.781    20055362.168      189531.17806    124331.59701      1080.125  
  22405115.984    22405119.852     -311556.16009   -206769.58609     -1466.141  
  24443287.383    24443293.137      866092.74009    479783.84709      4745.141  
  24512214.328    24512219.566      457537.46609    236184.32709      2333.625  
 97  6 24 14 51 41.0000000  0  7G01G14G31G15G29G21G02
  22263970.070    22263974.477      559721.48601    368373.63509      2758.563  
  22061682.711    22061686.484     -236071.14801   -156661.12109     -1097.859  
  22369944.508    22369948.305      878653.00709    569950.99809      4805.500  
  20055564.328    20055567.691      190611.51405    125173.42001      1080.531  
  22404836.898    22404840.719     -313022.15309   -207911.91909     -1465.891  
  24444189.711    24444195.371      870837.89009    483481.36309      4745.156  
  24512658.414    24512663.301      459871.31409    238002.90809      2334.031  
 97  6 24 14 51 42.0000000  0  7G01G14G31G15G29G21G02
  22264495.227    22264499.586      562480.36901    370523.41309      2759.203  
  22061473.742    22061477.527     -237168.82201   -157516.45009     -1097.500  
  22370859.055    22370862.840      883458.68309    573695.68109      4805.813  
  20055770.094    20055773.504      191692.28304    126015.57501      1081.000  
  22404558.195    22404561.934     -314487.82309   -209054.00009     -1465.516  
  24445092.445    24445097.766      875583.10509    487178.91809      4745.234  
  24513102.531    24513108.145      462205.64309    239821.85609      2334.578  
 97  6 24 14 51 43.0000000  0  7G01G14G31G15G29G21G02
  22265020.359    22265024.648      565239.90601    372673.70209      2759.828  
  22061265.102    22061268.898     -238266.15401   -158371.51509     -1097.172  
  22371773.711    22371777.508      888264.65709    577440.59709      4806.125  
  20055975.664    20055979.039      192773.51404    126858.09301      1081.453  
  22404278.906    22404282.691     -315953.19309   -210195.84709     -1465.203  
  24445995.328    24446001.703      880328.39209    490876.54809      4745.313  
  24513546.484    24513552.063      464540.48409    241641.21209      2335.094  
 97  6 24 14 51 44.0000000  0  7G01G14G31G15G29G21G02
  22265545.594    22265549.930      568000.10901    374824.51009      2760.594  
  22061055.938    22061059.734     -239363.10701   -159226.28609     -1096.734  
  22372688.227    22372692.012      893070.98109    581185.78409      4806.531  
  20056181.641    20056185.051      193855.24402    127701.00001      1082.016  
  22404000.172    22404003.980     -317418.19609   -211337.40709     -1464.797  
  24446898.469    24446904.891      885073.78309    494574.25109      4745.500  
  24513991.094    24513996.215      466875.88209    243461.00509      2335.688  
 97  6 24 14 51 45.0000000  0  7G01G14G31G15G29G21G02
  22266071.031    22266075.426      570761.07201    376975.91109      2761.344  
  22060847.313    22060851.109     -240459.60709   -160080.70009     -1096.281  
  22373603.039    22373606.824      897877.74409    584931.31109      4806.969  
  20056387.508    20056390.883      194937.55303    128544.35801      1082.594  
  22403721.484    22403725.293     -318882.75609   -212478.62209     -1464.359  
  24447801.789    24447807.168      889819.35109    498272.09409      4745.656  
  24514435.148    24514439.906      469211.90509    245281.27609      2336.328  
 97  6 24 14 51 46.0000000  0  7G01G14G31G15G29G21G02
  22266596.680    22266601.086      573522.76301    379127.87709      2762.125  
  22060638.797    22060642.500     -241555.68409   -160934.78609     -1095.781  
  22374517.500    22374521.297      902684.89009    588677.14009      4807.422  
  20056593.539    20056596.902      196020.40402    129388.13801      1083.203  
  22403442.773    22403446.500     -320346.93009   -213619.53609     -1463.875  
  24448704.750    24448709.672      894565.11009    501970.08509      4745.938  
  24514880.445    24514885.637      471548.51909    247102.01809      2337.016  
 97  6 24 14 51 47.0000000  0  7G01G14G31G15G29G21G02
  22267122.180    22267126.586      576285.19401    381280.42109      2762.688  
  22060430.398    22060434.008     -242651.31009   -161788.52009     -1095.531  
  22375432.633    22375436.465      907492.45709    592423.29609      4807.641  
  20056799.711    20056803.027      197103.82402    130232.36101      1083.578  
  22403164.234    22403167.996     -321810.65509   -214760.09909     -1463.672  
  24449608.141    24449613.613      899311.05909    505668.22509      4745.906  
  24515325.125    24515330.070      473885.78809    248923.28009      2337.422  
 97  6 24 14 51 48.0000000  0  7G01G14G31G15G29G21G02
  22267647.930    22267652.301      579048.19601    383433.41009      2763.297  
  22060221.906    22060225.527     -243746.66109   -162642.03809     -1095.203  
  22376347.359    22376351.215      912300.28809    596169.65909      4807.969  
  20057006.031    20057009.301      198187.64102    131076.89301      1084.031  
  22402885.906    22402889.727     -323274.12709   -215900.46509     -1463.328  
  24450511.406    24450516.820      904057.00409    509366.36709      4745.984  
  24515769.820    24515775.375      476223.48209    250744.86509      2337.922  
 97  6 24 14 51 49.0000000  0  7G01G14G31G15G29G21G02
  22268173.914    22268178.332      581811.81501    385586.88109      2763.938  
  22060013.656    22060017.336     -244841.68909   -163495.30809     -1094.844  
  22377262.086    22377265.977      917108.42009    599916.25609      4808.297  
  20057212.359    20057215.594      199271.89104    131921.76101      1084.484  
  22402607.469    22402611.406     -324737.30809   -217040.60609     -1462.984  
  24451414.805    24451420.371      908803.00309    513064.54309      4746.063  
  24516213.781    24516219.266      478561.67209    252566.83309      2338.453  
 97  6 24 14 51 50.0000000  0  7G01G14G31G15G29G21G02
  22268699.906    22268704.313      584576.14201    387740.90209      2764.625  
  22059805.414    22059809.000     -245936.30201   -164348.25309     -1094.453  
  22378177.180    22378181.094      921916.93309    603663.14809      4808.641  
  20057418.773    20057422.031      200356.67303    132767.04601      1085.000  
  22402329.047    22402333.008     -326200.08109   -218180.42709     -1462.641  
  24452317.852    24452324.734      913549.15409    516762.85409      4746.188  
  24516659.836    24516665.543      480900.44409    254389.24209      2339.016  
 97  6 24 14 51 51.0000000  0  7G01G14G31G15G29G21G02
  22269225.992    22269230.457      587341.16701    389895.46709      2765.313  
  22059597.031    22059600.699     -247030.50301   -165200.87609     -1094.047  
  22379092.531    22379096.457      926725.83909    607410.34509      4809.031  
  20057625.430    20057628.652      201441.98704    133612.74401      1085.516  
  22402051.016    22402054.895     -327662.45009   -219319.93509     -1462.219  
  24453221.531    24453228.766      918295.46109    520461.25909      4746.297  
  24517104.805    24517109.973      483239.81009    256212.12509      2339.609  
 97  6 24 14 51 52.0000000  0  7G01G14G31G15G29G21G02
  22269752.477    22269756.941      590106.78601    392050.49409      2765.953  
  22059389.063    22059392.672     -248124.39709   -166053.25909     -1093.703  
  22380007.359    22380011.391      931535.02209    611157.76009      4809.375  
  20057831.984    20057835.219      202527.71705    134458.76701      1085.984  
  22401772.672    22401776.516     -329124.53209   -220459.21709     -1461.891  
  24454124.523    24454131.992      923041.79509    524159.69209      4746.375  
  24517550.461    24517555.688      485579.64009    258035.36809      2340.109  
 97  6 24 14 51 53.0000000  0  7G01G14G31G15G29G21G02
  22270278.625    22270282.996      592873.06701    394206.03609      2766.625  
  22059180.828    22059184.391     -249217.91409   -166905.34909     -1093.313  
  22380922.594    22380926.625      936344.57309    614905.46209      4809.734  
  20058038.609    20058041.844      203613.94007    135305.17301      1086.484  
  22401494.664    22401498.566     -330586.25209   -221598.21909     -1461.563  
  24455027.547    24455034.828      927788.24309    527858.22109      4746.500  
  24517995.508    24518000.863      487920.04809    259859.06409      2340.672  
 97  6 24 14 51 54.0000000  0  7G01G14G31G15G29G21G02
  22270805.313    22270809.684      595640.01601    396362.10009      2767.359  
  22058972.789    22058976.340     -250311.03809   -167757.13209     -1092.859  
  22381838.008    22381842.086      941154.49509    618653.45409      4810.156  
  20058245.438    20058248.695      204700.67207    136151.97601      1087.047  
  22401216.477    22401220.320     -332047.58809   -222736.91909     -1461.094  
  24455930.750    24455938.254      932534.80609    531556.84109      4746.688  
  24518441.047    24518446.602      490260.98709    261683.17309      2341.297  
 97  6 24 14 51 55.0000000  0  7G01G14G31G15G29G21G02
  22271331.898    22271336.211      598407.82101    398518.82909      2768.000  
  22058764.883    22058768.410     -251403.57909   -168608.46009     -1092.484  
  22382753.305    22382757.488      945964.96109    622401.87009      4810.531  
  20058452.328    20058455.727      205788.09107    136999.31501      1087.547  
  22400938.273    22400942.270     -333508.38409   -223875.19809     -1460.734  
  24456834.156    24456841.566      937281.68709    535255.70109      4746.813  
  24518886.570    24518891.973      492602.68309    263507.87209      2341.844  
 97  6 24 14 51 56.0000000  0  7G01G14G31G15G29G21G02
  22271858.734    22271863.000      601176.01701    400675.86609      2768.453  
  22058557.039    22058560.602     -252495.99809   -169459.69509     -1092.297  
  22383668.609    22383672.746      950775.53809    626150.36909      4810.672  
  20058659.305    20058662.609      206875.75308    137846.84301      1087.844  
  22400660.813    22400664.844     -334969.07909   -225013.39909     -1460.594  
  24457737.664    24457745.367      942028.42809    538954.46309      4746.719  
  24519332.078    24519336.977      494944.65009    265332.77209      2342.188  
 97  6 24 14 51 57.0000000  0  7G01G14G31G15G29G21G02
  22272385.828    22272390.211      603944.74101    402833.31409      2769.000  
  22058349.273    22058352.824     -253588.16609   -170310.73309     -1092.016  
  22384584.078    22384588.180      955586.34809    629899.05009      4810.938  
  20058866.422    20058869.727      207963.78109    138694.65801      1088.219  
  22400382.680    22400386.746     -336429.52509   -226151.40709     -1460.313  
  24458640.563    24458648.289      946775.15609    542653.20709      4746.719  
  24519778.023    24519783.273      497287.08109    267158.04209      2342.625  
 97  6 24 14 51 58.0000000  0  7G01G14G31G15G29G21G02
  22272912.539    22272916.898      606714.00001    404991.17809      2769.547  
  22058141.391    22058144.754     -254680.04509   -171161.54609     -1091.734  
  22385499.586    22385503.863      960397.41109    633647.93009      4811.188  
  20059073.344    20059076.602      209052.20209    139542.77801      1088.625  
  22400104.930    22400108.938     -337889.71109   -227289.21309     -1460.031  
  24459543.992    24459551.789      951521.88809    546351.94909      4746.750  
  24520224.102    24520229.586      499629.91409    268983.62009      2343.063  
 97  6 24 14 51 59.0000000  0  7G01G14G31G15G29G21G02
  22273439.672    22273444.043      609483.84601    407149.49809      2770.297  
  22057933.563    22057937.008     -255771.61709   -172012.12309     -1091.250  
  22386415.258    22386419.582      965208.77009    637397.04009      4811.656  
  20059280.531    20059283.789      210141.05509    140391.23401      1089.234  
  22399827.078    22399830.980     -339349.57309   -228426.76509     -1459.578  
  24460446.930    24460454.199      956268.69709    550050.75909      4746.969  
  24520669.883    24520675.355      501973.24709    270809.58609      2343.719  
 97  6 24 14 52  0.0000000  0  7G01G14G31G15G29G21G02
  22273967.102    22273971.508      612254.45101    409308.41209      2770.891  
  22057726.000    22057729.422     -256862.69001   -172862.30909     -1090.922  
  22387330.898    22387335.188      970020.60009    641146.51709      4811.969  
  20059487.945    20059491.227      211230.52009    141240.16701      1089.672  
  22399549.289    22399553.238     -340808.97509   -229563.95709     -1459.266  
  24461350.602    24461357.340      961015.70009    553749.72209      4747.031  
  24521115.773    24521121.199      504317.25109    272636.08109      2344.234  
 97  6 24 14 52  1.0000000  0  7G01G14G31G15G29G21G02
  22274494.172    22274498.508      615025.63301    411467.77609      2771.500  
  22057518.539    22057521.891     -257953.44601   -173712.24809     -1090.563  
  22388246.695    22388250.949      974832.72209    644896.22109      4812.313  
  20059695.156    20059698.449      212320.40409    142089.42601      1090.125  
  22399271.633    22399275.617     -342268.08609   -230700.92509     -1458.938  
  24462253.539    24462257.301      965762.73409    557448.70809      4747.094  
  24521562.148    24521567.340      506661.74209    274462.94409      2344.766  
 97  6 24 14 52  2.0000000  0  7G01G14G31G15G29G21G02
  22275021.961    22275026.250      617797.52201    413627.68809      2772.297  
  22057310.977    22057314.316     -259043.77701   -174561.85609     -1090.063  
  22389162.602    22389166.855      979645.26309    648646.25209      4812.781  
  20059902.898    20059906.168      213410.83709    142939.11401      1090.766  
  22398994.086    22398997.930     -343726.78809   -231837.57409     -1458.469  
  24463157.117    24463162.262      970509.94709    561147.83209      4747.313  
  24522008.273    24522012.820      509006.83009    276290.28309      2345.438  
 97  6 24 14 52  3.0000000  0  7G01G14G31G15G29G21G02
  22275549.281    22275553.453      620570.07401    415788.11709      2772.813  
  22057103.617    22057106.910     -260133.71109   -175411.15809     -1089.813  
  22390078.828    22390083.035      984458.16209    652396.56109      4813.016  
  20060110.469    20060113.703      214501.77709    143789.19801      1091.125  
  22398716.500    22398720.332     -345185.11609   -232973.93209     -1458.219  
  24464060.820    24464065.824      975257.25909    564847.03709      4747.297  
  24522454.680    24522458.652      511352.49309    278118.07809      2345.875  
 97  6 24 14 52  4.0000000  0  7G01G14G31G15G29G21G02
  22276077.047    22276081.137      623343.24201    417949.02809      2773.531  
  22056896.320    22056899.602     -261223.31409   -176260.19709     -1089.359  
  22390994.656    22390998.898      989271.37809    656147.11609      4813.453  
  20060318.156    20060321.484      215593.16609    144639.62901      1091.688  
  22398439.063    22398442.789     -346643.12709   -234110.04309     -1457.781  
  24464964.172    24464968.824      980004.64309    568546.30009      4747.469  
  24522901.328    24522905.336      513698.65909    279946.25609      2346.500  
 97  6 24 14 52  5.0000000  0  7G01G14G31G15G29G21G02
  22276604.961    22276608.992      626117.14301    420110.51009      2774.297  
  22056688.938    22056692.230     -262312.46009   -177108.88309     -1088.906  
  22391910.656    22391914.852      994085.03109    659898.01309      4813.891  
  20060525.984    20060529.313      216685.13109    145490.51201      1092.266  
  22398161.750    22398165.453     -348100.69609   -235245.80809     -1457.344  
  24465867.063    24465872.219      984752.20409    572245.69809      4747.672  
  24523347.484    24523351.316      516045.45609    281774.92109      2347.125  
 97  6 24 14 52  6.0000000  0  7G01G14G31G15G29G21G02
  22277132.953    22277137.031      628891.75201    422272.54009      2774.922  
  22056481.742    22056485.059     -263401.19209   -177957.24509     -1088.547  
  22392826.758    22392831.023      998899.07709    663649.21509      4814.203  
  20060733.938    20060737.172      217777.62209    146341.80401      1092.719  
  22397884.445    22397888.172     -349557.83609   -236381.24209     -1456.969  
  24466770.867    24466775.824      989499.88809    575945.19809      4747.734  
  24523794.180    24523797.707      518392.84809    283604.05209      2347.656  
 97  6 24 14 52  7.0000000  0  7G01G14G31G15G29G21G02
  22277661.000    22277665.137      631667.02101    424435.08709      2775.578  
  22056274.758    22056277.934     -264489.54809   -178805.31509     -1088.188  
  22393742.852    22393747.117     1003713.46409    667400.68209      4814.547  
  20060941.883    20060945.176      218870.59709    147193.47301      1093.203  
  22397607.188    22397610.949     -351014.62309   -237516.40009     -1456.625  
  24467674.367    24467679.770      994247.70909    579644.79309      4747.859  
  24524240.875    24524244.074      520740.79909    285433.62609      2348.203  
 97  6 24 14 52  8.0000000  0  7G01G14G31G15G29G21G02
  22278189.047    22278193.289      634442.88701    426598.09909      2776.141  
  22056067.555    22056070.801     -265577.59509   -179653.14409     -1087.922  
  22394659.078    22394663.449     1008528.16109    671152.39109      4814.781  
  20061149.719    20061153.000      219964.00109    148045.47601      1093.578  
  22397330.086    22397333.813     -352471.12209   -238651.33409     -1456.406  
  24468577.961    24468584.891      998995.55809    583344.41309      4747.813  
  24524688.078    24524690.598      523089.22009    287263.56409      2348.625  
 97  6 24 14 52  9.0000000  0  7G01G14G31G15G29G21G02
  22278717.586    22278721.781      637219.39101    428761.61009      2776.891  
  22055860.625    22055863.848     -266665.28309   -180500.69209     -1087.453  
  22395575.313    22395579.660     1013343.16409    674904.33909      4815.234  
  20061358.086    20061361.344      221057.86609    148897.83801      1094.156  
  22397052.867    22397056.641     -353927.28209   -239786.00409     -1455.922  
  24469481.516    24469488.914     1003743.47509    587044.09909      4748.047  
  24525134.508    24525137.438      525438.18209    289093.92609      2349.266  
 97  6 24 14 52 10.0000000  0  7G01G14G31G15G29G21G02
  22279245.969    22279250.141      639996.65201    430925.71209      2777.625  
  22055653.781    22055656.957     -267752.51509   -181347.88709     -1087.000  
  22396491.563    22396495.816     1018158.61009    678656.63209      4815.672  
  20061566.367    20061569.613      222152.30909    149750.65001      1094.734  
  22396775.945    22396779.602     -355383.00509   -240920.33509     -1455.484  
  24470385.188    24470392.094     1008491.59109    590743.93709      4748.203  
  24525582.336    24525585.289      527787.77309    290924.77009      2349.891  
 97  6 24 14 52 11.0000000  0  7G01G14G31G15G29G21G02
  22279774.680    22279778.781      642774.72101    433090.44009      2778.375  
  22055446.930    22055450.258     -268839.21109   -182194.66209     -1086.563  
  22397407.875    22397412.094     1022974.55909    682409.31709      4816.078  
  20061774.766    20061777.988      223247.40209    150603.96901      1095.281  
  22396499.109    22396502.695     -356838.21009   -242054.26009     -1455.078  
  24471288.359    24471296.273     1013239.97109    594443.98209      4748.359  
  24526029.172    24526032.301      530138.07509    292756.17909      2350.516  
 97  6 24 14 52 12.0000000  0  7G01G14G31G15G29G21G02
  22280303.367    22280307.387      645553.37301    435255.62409      2778.969  
  22055240.195    22055243.383     -269925.61909   -183041.21409     -1086.250  
  22398324.375    22398328.535     1027790.77909    686162.21509      4816.375  
  20061983.242    20061986.500      224342.90009    151457.60401      1095.719  
  22396222.063    22396225.637     -358293.13209   -243187.96509     -1454.766  
  24472192.797    24472199.832     1017988.35009    598144.02909      4748.406  
  24526476.828    24526480.262      532488.83909    294587.95809      2351.016  
 97  6 24 14 52 13.0000000  0  7G01G14G31G15G29G21G02
  22280832.234    22280836.266      648332.68101    437421.32009      2779.672  
  22055033.453    22055036.652     -271011.67909   -183887.49309     -1085.844  
  22399240.891    22399244.922     1032607.33109    689915.37009      4816.766  
  20062191.719    20062194.941      225438.86209    152311.60101      1096.250  
  22395945.258    22395948.855     -359747.70609   -244321.39909     -1454.359  
  24473095.547    24473102.898     1022736.79409    601844.11209      4748.516  
  24526924.227    24526927.156      534840.12209    296420.13409      2351.609  
 97  6 24 14 52 14.0000000  0  7G01G14G31G15G29G21G02
  22281361.305    22281365.371      651112.63301    439587.51509      2780.359  
  22054826.828    22054830.039     -272097.37409   -184733.48909     -1085.438  
  22400157.680    22400161.770     1037424.23709    693668.80109      4817.141  
  20062400.539    20062403.762      226535.30309    153165.97001      1096.750  
  22395668.609    22395672.242     -361201.90909   -245454.54509     -1453.969  
  24473999.656    24474007.230     1027485.32309    605544.27309      4748.625  
  24527371.461    24527375.164      537191.97709    298252.74209      2352.188  
 97  6 24 14 52 15.0000000  0  7G01G14G31G15G29G21G02
  22281890.516    22281894.512      653893.30301    441754.27309      2780.922  
  22054620.531    22054623.777     -273182.64509   -185579.15509     -1085.172  
  22401074.328    22401078.254     1042241.54709    697422.54909      4817.422  
  20062609.125    20062612.336      227632.28909    154020.76501      1097.156  
  22395392.031    22395395.688     -362655.68409   -246587.35609     -1453.656  
  24474903.500    24474910.297     1032233.98109    609244.51909      4748.641  
  24527818.797    24527822.383      539544.42709    300085.81409      2352.641  
 97  6 24 14 52 16.0000000  0  7G01G14G31G15G29G21G02
  22282419.797    22282423.781      656674.58101    443921.50309      2781.734  
  22054413.961    22054417.113     -274267.60309   -186424.57809     -1084.625  
  22401991.031    22401994.875     1047059.18609    701176.55209      4817.953  
  20062818.000    20062821.246      228729.71209    154875.89901      1097.813  
  22395115.273    22395118.836     -364109.14109   -247719.92109     -1453.125  
  24475806.773    24475811.578     1036982.69709    612944.80209      4748.922  
  24528266.844    24528270.676      541897.39409    301919.30309      2353.375  
 97  6 24 14 52 17.0000000  0  7G01G14G31G15G29G21G02
  22282949.398    22282953.441      659456.57901    446089.29609      2782.297  
  22054207.438    22054210.684     -275352.13209   -187269.66509     -1084.391  
  22402907.758    22402911.578     1051877.24109    704930.87909      4818.203  
  20063026.766    20063030.047      229827.69209    155731.46801      1098.188  
  22394838.797    22394842.465     -365562.16209   -248852.14609     -1452.875  
  24476710.547    24476715.258     1041731.57909    616645.23109      4748.891  
  24528714.531    24528718.164      544250.97609    303753.27509      2353.844  
 97  6 24 14 52 18.0000000  0  7G01G14G31G15G29G21G02
  22283478.922    22283482.930      662239.21401    448257.58209      2782.938  
  22054001.500    22054004.734     -276436.32609   -188114.49109     -1084.047  
  22403824.664    22403828.496     1056695.62209    708685.46009      4818.516  
  20063235.984    20063239.266      230926.13507    156587.39901      1098.656  
  22394562.367    22394566.047     -367014.82009   -249984.08909     -1452.500  
  24477614.258    24477619.297     1046480.53009    620345.70309      4748.953  
  24529162.859    24529167.500      546605.11509    305587.67609      2354.391  
 97  6 24 14 52 19.0000000  0  7G01G14G31G15G29G21G02
  22284008.188    22284012.184      665022.43901    450426.33009      2783.500  
  22053795.008    22053798.219     -277520.24109   -188959.10009     -1083.781  
  22404741.797    22404745.629     1061514.27509    712440.25309      4818.797  
  20063445.109    20063448.391      232024.99608    157443.65501      1099.063  
  22394286.148    22394289.723     -368467.16709   -251115.78909     -1452.203  
  24478517.969    24478522.832     1051229.47909    624046.17209      4748.969  
  24529610.734    24529615.445      548959.74509    307422.46209      2354.844  
 97  6 24 14 52 20.0000000  0  7G01G14G31G15G29G21G02
  22284538.039    22284542.094      667806.30901    452595.57909      2784.250  
  22053588.914    22053592.137     -278603.78709   -189803.42009     -1083.313  
  22405658.922    22405662.719     1066333.28509    716195.32409      4819.234  
  20063654.313    20063657.617      233124.35407    158300.29701      1099.656  
  22394009.766    22394013.305     -369919.14509   -252247.19809     -1451.734  
  24479421.258    24479425.828     1055978.55009    627746.73609      4749.125  
  24530059.430    24530064.797      551314.92109    309257.65509      2355.531  
 97  6 24 14 52 21.0000000  0  7G01G14G31G15G29G21G02
  22285068.070    22285072.195      670590.86601    454765.36309      2784.906  
  22053382.664    22053385.816     -279686.93509   -190647.43309     -1082.953  
  22406575.953    22406579.680     1071152.70309    719950.71609      4819.594  
  20063863.664    20063866.898      234224.23906    159157.35101      1100.141  
  22393733.453    22393736.992     -371370.69309   -253378.27509     -1451.344  
  24480325.734    24480330.938     1060727.73309    631447.39409      4749.250  
  24530507.930    24530512.547      553670.73409    311093.34409      2356.063  
 97  6 24 14 52 22.0000000  0  7G01G14G31G15G29G21G02
  22285597.938    22285602.121      673376.06601    456935.64909      2785.469  
  22053176.523    22053179.699     -280769.75209   -191491.18709     -1082.688  
  22407493.109    22407496.684     1075972.44009    723706.35409      4819.875  
  20064073.172    20064076.383      235324.59506    160014.77201      1100.547  
  22393457.172    22393460.805     -372821.85609   -254509.05009     -1451.016  
  24481229.547    24481234.750     1065476.98709    635148.11009      4749.234  
  24530955.945    24530960.492      556027.06209    312929.44009      2356.578  
 97  6 24 14 52 23.0000000  0  7G01G14G31G15G29G21G02
  22286128.211    22286132.383      676161.85701    459106.39609      2786.172  
  22052970.891    22052974.020     -281852.27509   -192334.71109     -1082.297  
  22408410.242    22408413.863     1080792.47109    727462.22409      4820.281  
  20064282.414    20064285.578      236425.37205    160872.52001      1101.078  
  22393181.133    22393184.742     -374272.71109   -255639.58709     -1450.625  
  24482133.133    24482137.891     1070226.28209    638848.84609      4749.375  
  24531404.180    24531408.762      558383.89609    314765.93309      2357.156  
 97  6 24 14 52 24.0000000  0  7G01G14G31G15G29G21G02
  22286658.406    22286662.637      678948.32001    461277.66409      2786.750  
  22052764.711    22052767.840     -282934.41709   -193177.93709     -1082.000  
  22409327.586    22409331.348     1085612.90809    731218.40809      4820.563  
  20064492.148    20064495.242      237526.66104    161730.66701      1101.484  
  22392905.023    22392908.668     -375723.16809   -256769.81309     -1450.313  
  24483036.594    24483041.211     1074975.67609    642549.66309      4749.391  
  24531853.430    24531857.051      560741.32509    316602.88509      2357.672  
 97  6 24 14 52 25.0000000  0  7G01G14G31G15G29G21G02
  22287188.695    22287192.820      681735.37301    463449.39209      2787.391  
  22052558.859    22052561.988     -284016.26509   -194020.93409     -1081.641  
  22410244.922    22410248.566     1090433.63409    734974.81909      4820.922  
  20064701.781    20064704.828      238628.37202    162589.14101      1101.984  
  22392629.250    22392632.918     -377173.30509   -257899.78709     -1449.938  
  24483940.180    24483944.586     1079725.11409    646250.51709      4749.500  
  24532302.039    24532306.258      563099.26609    318440.23809      2358.219  
 97  6 24 14 52 26.0000000  0  7G01G14G31G15G29G21G02
  22287719.164    22287723.418      684523.12401    465621.66509      2788.109  
  22052353.109    22052356.273     -285097.72609   -194863.63009     -1081.250  
  22411162.172    22411165.840     1095254.77109    738731.54909      4821.359  
  20064911.336    20064914.406      239730.61002    163448.02701      1102.516  
  22392353.430    22392357.098     -378623.02209   -259029.43709     -1449.469  
  24484844.563    24484848.969     1084474.69509    649951.49309      4749.656  
  24532749.930    24532754.078      565457.78609    320278.04509      2358.828  
 97  6 24 14 52 27.0000000  0  7G01G14G31G15G29G21G02
  22288249.805    22288253.941      687311.57101    467794.47909      2788.750  
  22052147.328    22052150.668     -286178.78709   -195706.01509     -1080.906  
  22412079.797    22412083.441     1100076.31209    742488.59409      4821.688  
  20065121.359    20065124.395      240833.38102    164307.32901      1103.000  
  22392077.461    22392081.105     -380072.29109   -260158.73809     -1449.109  
  24485748.586    24485753.273     1089224.41609    653652.57509      4749.750  
  24533199.227    24533203.645      567816.91709    322116.32209      2359.406  
 97  6 24 14 52 28.0000000  0  7G01G14G31G15G29G21G02
  22288780.602    22288784.797      690100.66201    469967.79709      2789.484  
  22051941.766    22051945.129     -287259.50609   -196548.13209     -1080.484  
  22412997.297    22413001.047     1104898.19309    746245.90209      4822.109  
  20065331.320    20065334.227      241936.61902    165166.99401      1103.531  
  22391801.844    22391805.523     -381521.18909   -261287.74809     -1448.656  
  24486652.211    24486656.652     1093974.21809    657353.71609      4749.891  
  24533648.563    24533652.805      570176.61309    323955.04909      2360.031  
 97  6 24 14 52 29.0000000  0  7G01G14G31G15G29G21G02
  22289311.586    22289315.781      692890.44901    472141.65609      2790.203  
  22051736.102    22051739.406     -288339.83009   -197389.94309     -1080.078  
  22413915.008    22413918.723     1109720.46109    750003.51409      4822.547  
  20065541.180    20065544.145      243040.38602    166027.07201      1104.078  
  22391525.977    22391529.691     -382969.66509   -262416.43109     -1448.219  
  24487555.953    24487560.371     1098724.14709    661054.96009      4750.047  
  24534097.867    24534102.613      572536.91009    325794.24109      2360.656  
 97  6 24 14 52 30.0000000  0  7G01G14G31G15G29G21G02
  22289842.695    22289846.891      695681.00201    474316.11409      2790.828  
  22051530.859    22051534.223     -289419.68409   -198231.38409     -1079.734  
  22414832.750    22414836.383     1114543.21909    753761.50709      4822.891  
  20065751.563    20065754.527      244144.74904    166887.61501      1104.547  
  22391250.570    22391254.449     -384417.64709   -263544.72609     -1447.828  
  24488459.867    24488463.816     1103474.29909    664756.38009      4750.141  
  24534546.813    24534552.086      574897.86209    327633.94509      2361.188  
 97  6 24 14 52 31.0000000  0  7G01G14G31G15G29G21G02
  22290373.539    22290377.617      698472.18401    476491.06209      2791.516  
  22051325.250    22051328.590     -290499.21709   -199072.57609     -1079.344  
  22415750.742    22415754.434     1119366.31309    757519.76309      4823.281  
  20065961.688    20065964.594      245249.56305    167748.50801      1105.078  
  22390975.500    22390979.379     -385865.26009   -264672.73509     -1447.406  
  24489363.789    24489367.492     1108224.49509    668457.83409      4750.250  
  24534996.195    24535000.695      577259.35609    329474.07309      2361.781  
 97  6 24 14 52 32.0000000  0  7G01G14G31G15G29G21G02
  22290904.914    22290908.969      701264.05401    478666.54509      2792.219  
  22051119.883    22051123.141     -291578.35609   -199913.46209     -1078.938  
  22416668.305    22416672.102     1124189.79309    761278.31909      4823.672  
  20066172.008    20066174.961      246354.89804    168609.80701      1105.594  
  22390700.055    22390703.840     -387312.45409   -265800.41809     -1446.984  
  24490267.711    24490271.355     1112974.82909    672159.39109      4750.375  
  24535445.773    24535449.805      579621.44409    331314.66309      2362.391  
 97  6 24 14 52 33.0000000  0  7G01G14G31G15G29G21G02
  22291436.273    22291440.293      704056.61301    480842.56709      2792.953  
  22050914.719    22050917.941     -292657.09809   -200754.03709     -1078.484  
  22417586.352    22417590.137     1129013.66909    765037.18409      4824.125  
  20066382.250    20066385.262      247460.75606    169471.51401      1106.172  
  22390424.539    22390428.289     -388759.22509   -266927.77009     -1446.500  
  24491171.516    24491175.418     1117725.27709    675861.03509      4750.578  
  24535895.422    24535899.664      581984.13309    333155.71709      2363.047  
 97  6 24 14 52 34.0000000  0  7G01G14G31G15G29G21G02
  22291967.672    22291971.609      706849.89601    483019.15109      2793.719  
  22050709.523    22050712.781     -293735.42209   -201594.28609     -1078.031  
  22418504.555    22418508.422     1133837.96709    768796.37709      4824.609  
  20066593.070    20066596.023      248567.16107    170333.64901      1106.766  
  22390149.344    22390153.059     -390205.55009   -268054.77609     -1446.031  
  24492074.992    24492079.551     1122475.88309    679562.80409      4750.781  
  24536345.281    24536349.383      584347.43909    334997.25209      2363.703  
 97  6 24 14 52 35.0000000  0  7G01G14G31G15G29G21G02
  22292499.492    22292503.441      709643.94501    485196.33309      2794.281  
  22050504.406    22050507.641     -294813.25601   -202434.15809     -1077.750  
  22419422.586    22419426.559     1138662.74109    772555.94109      4824.844  
  20066803.641    20066806.605      249674.17809    171196.25901      1107.156  
  22389874.008    22389877.910     -391651.38009   -269181.39409     -1445.734  
  24492979.227    24492983.926     1127226.69809    683264.73909      4750.750  
  24536795.070    24536798.586      586711.42909    336839.32609      2364.156  
 97  6 24 14 52 36.0000000  0  7G01G14G31G15G29G21G02
  22293031.281    22293035.242      712438.59401    487373.98209      2794.938  
  22050299.453    22050302.746     -295890.78601   -203273.79109     -1077.391  
  22420340.586    22420344.641     1143487.80309    776315.72809      4825.203  
  20067014.320    20067017.215      250781.62409    172059.20401      1107.656  
  22389599.148    22389603.203     -393096.87409   -270307.75209     -1445.344  
  24493884.266    24493888.859     1131977.54009    686966.68309      4750.828  
  24537244.938    24537248.430      589075.91809    338681.78709      2364.703  
 97  6 24 14 52 37.0000000  0  7G01G14G31G15G29G21G02
  22293563.219    22293567.191      715233.91801    489552.15609      2795.719  
  22050094.414    22050097.742     -296967.93701   -204113.12909     -1076.891  
  22421259.000    22421263.066     1148313.25809    780075.82209      4825.703  
  20067225.172    20067228.078      251889.58209    172922.54701      1108.266  
  22389323.945    22389328.035     -394541.96709   -271433.79609     -1444.813  
  24494787.766    24494792.711     1136728.48909    690668.72609      4751.094  
  24537694.813    24537698.035      591440.98809    340524.69509      2365.422  
 97  6 24 14 52 38.0000000  0  7G01G14G31G15G29G21G02
  22294095.461    22294099.363      718029.93701    491730.87309      2796.344  
  22049889.508    22049892.883     -298044.67101   -204952.14209     -1076.563  
  22422177.344    22422181.387     1153139.12909    783836.24009      4826.063  
  20067436.063    20067439.016      252998.07609    173786.30801      1108.734  
  22389049.258    22389053.242     -395986.60409   -272559.48709     -1444.453  
  24495691.852    24495696.902     1141479.60009    694370.89709      4751.141  
  24538144.414    24538147.859      593806.63909    342368.06309      2365.922  
 97  6 24 14 52 39.0000000  0  7G01G14G31G15G29G21G02
  22294627.516    22294631.395      720826.56001    493910.05909      2796.953  
  22049684.680    22049687.984     -299121.08901   -205790.91009     -1076.234  
  22423095.703    22423099.594     1157965.31509    787596.90309      4826.359  
  20067647.109    20067650.121      254107.01809    174650.41901      1109.188  
  22388774.195    22388778.180     -397430.91009   -273684.91809     -1444.109  
  24496595.445    24496599.793     1146230.76309    698073.10509      4751.219  
  24538595.242    24538599.344      596172.81709    344211.83409      2366.469  
 97  6 24 14 52 40.0000000  0  7G01G14G31G15G29G21G02
  22295159.680    22295163.559      723623.84301    496089.76009      2797.578  
  22049479.906    22049483.188     -300197.13401   -206629.38709     -1075.875  
  22424014.195    22424017.934     1162791.87109    791357.85209      4826.719  
  20067858.227    20067861.238      255216.46409    175514.92201      1109.672  
  22388499.352    22388503.277     -398874.78609   -274810.01309     -1443.703  
  24497500.000    24497504.477     1150982.01909    701775.36809      4751.281  
  24539046.063    24539050.633      598539.58209    346056.06609      2367.000  
 97  6 24 14 52 41.0000000  0  7G01G14G31G15G29G21G02
  22295692.180    22295696.035      726421.66501    498269.88109      2798.125  
  22049275.172    22049278.430     -301272.92001   -207467.66009     -1075.641  
  22424932.453    22424936.086     1167618.68009    795119.00009      4827.000  
  20068069.305    20068072.328      256326.29509    176379.72501      1110.063  
  22388224.719    22388228.750     -400318.37409   -275934.88509     -1443.406  
  24498403.789    24498407.750     1155733.28409    705477.66309      4751.250  
  24539495.984    24539499.945      600906.80509    347900.65609      2367.484  
 97  6 24 14 52 42.0000000  0  7G01G14G31G15G29G21G02
  22296224.883    22296228.727      729220.12501    500450.49909      2798.734  
  22049070.617    22049073.922     -302348.34501   -208305.65609     -1075.313  
  22425851.297    22425855.035     1172445.86209    798880.43909      4827.313  
  20068280.609    20068283.574      257436.61809    177244.91301      1110.500  
  22387950.109    22387954.105     -401761.57409   -277059.45409     -1443.047  
  24499308.422    24499312.066     1160484.62709    709180.00709      4751.328  
  24539946.828    24539951.398      603274.59909    349745.69009      2368.016  
 97  6 24 14 52 43.0000000  0  7G01G14G31G15G29G21G02
  22296757.430    22296761.215      732019.15601    502631.56109      2799.438  
  22048865.906    22048869.164     -303423.51001   -209143.44609     -1074.906  
  22426770.063    22426773.977     1177273.33609    802642.10709      4827.734  
  20068492.031    20068494.996      258547.34909    178110.41901      1111.063  
  22387675.609    22387679.629     -403204.45309   -278183.77509     -1442.594  
  24500212.430    24500215.898     1165235.96609    712882.34609      4751.469  
  24540397.422    24540402.250      605642.86309    351591.09109      2368.656  
 97  6 24 14 52 44.0000000  0  7G01G14G31G15G29G21G02
  22297290.227    22297294.094      734819.00001    504813.25609      2800.250  
  22048661.375    22048664.598     -304498.14601   -209980.82409     -1074.406  
  22427688.781    22427692.625     1182101.35309    806404.19709      4828.281  
  20068703.633    20068706.633      259658.75209    178976.44801      1111.719  
  22387401.164    22387405.266     -404646.76209   -279307.65309     -1442.031  
  24501116.453    24501120.801     1169987.57709    716584.89709      4751.703  
  24540848.367    24540853.031      608011.88109    353437.07109      2369.375  
 97  6 24 14 52 45.0000000  0  7G01G14G31G15G29G21G02
  22297823.031    22297826.945      737619.50501    506995.47009      2800.875  
  22048457.125    22048460.383     -305572.41601   -210817.91809     -1074.047  
  22428607.438    22428611.246     1186929.74909    810166.58509      4828.625  
  20068915.258    20068918.305      260770.66109    179842.87101      1112.188  
  22387126.859    22387130.961     -406088.67109   -280431.21509     -1441.672  
  24502020.922    24502025.270     1174739.26309    720287.50509      4751.766  
  24541298.828    24541303.527      610381.47209    355283.50909      2369.922  
 97  6 24 14 52 46.0000000  0  7G01G14G31G15G29G21G02
  22298356.086    22298360.023      740420.70501    509178.22509      2801.469  
  22048252.422    22048255.727     -306646.28701   -211654.70209     -1073.750  
  22429526.570    22429530.391     1191758.57309    813929.30709      4828.953  
  20069126.836    20069129.871      261883.10909    180709.71401      1112.625  
  22386852.656    22386856.770     -407530.13709   -281554.43209     -1441.328  
  24502925.891    24502929.547     1179491.08209    723990.22309      4751.797  
  24541749.477    24541754.398      612751.67009    357130.41509      2370.438  
 97  6 24 14 52 47.0000000  0  7G01G14G31G15G29G21G02
  22298889.328    22298893.348      743222.52001    511361.45709      2802.188  
  22048048.109    22048051.496     -307719.83709   -212491.23609     -1073.328  
  22430445.469    22430449.324     1196587.73209    817692.28709      4829.406  
  20069338.703    20069341.820      262996.01809    181576.91701      1113.203  
  22386578.281    22386582.465     -408971.25109   -282677.37509     -1440.875  
  24503829.109    24503832.777     1184242.94909    727692.97209      4751.922  
  24542200.758    24542206.195      615122.41709    358977.74309      2371.094  
 97  6 24 14 52 48.0000000  0  7G01G14G31G15G29G21G02
  22299422.594    22299426.637      746025.03301    513545.23609      2802.828  
  22047843.797    22047847.289     -308792.97201   -213327.44609     -1072.969  
  22431364.359    22431368.227     1201417.33409    821455.61109      4829.766  
  20069550.555    20069553.613      264109.47209    182444.54501      1113.688  
  22386304.211    22386308.383     -410411.89309   -283799.94909     -1440.469  
  24504733.297    24504737.715     1188994.94709    731395.82009      4752.031  
  24542652.836    24542658.227      617493.79409    360825.56209      2371.641  
 97  6 24 14 52 49.0000000  0  7G01G14G31G15G29G21G02
  22299955.945    22299959.941      748828.22601    515729.54309      2803.516  
  22047639.766    22047643.246     -309865.72701   -214163.35809     -1072.578  
  22432283.453    22432287.438     1206247.35509    825219.26309      4830.203  
  20069762.531    20069765.578      265223.46209    183312.58901      1114.234  
  22386030.117    22386034.207     -411852.11409   -284922.19809     -1440.016  
  24505638.453    24505643.375     1193747.04509    735098.76109      4752.125  
  24543103.969    24543109.488      619865.76709    362673.85109      2372.266  
 97  6 24 14 52 50.0000000  0  7G01G14G31G15G29G21G02
  22300489.609    22300493.699      751632.09301    517914.37409      2804.141  
  22047435.719    22047439.188     -310938.08509   -214998.96009     -1072.234  
  22433202.492    22433206.535     1211077.80309    828983.24609      4830.609  
  20069974.805    20069977.852      266337.97908    184181.04501      1114.719  
  22385756.094    22385760.207     -413291.90209   -286044.10509     -1439.625  
  24506542.453    24506546.930     1198499.27509    738801.81009      4752.219  
  24543555.875    24543561.453      622238.34609    364522.61309      2372.828  
 97  6 24 14 52 51.0000000  0  7G01G14G31G15G29G21G02
  22301023.313    22301027.320      754436.51701    520099.64009      2804.844  
  22047231.641    22047235.074     -312010.17701   -215834.35609     -1071.813  
  22434122.039    22434126.070     1215908.53709    832747.45409      4831.031  
  20070186.836    20070189.836      267452.90107    185049.81601      1115.266  
  22385482.141    22385486.184     -414731.36609   -287165.76109     -1439.156  
  24507447.219    24507451.555     1203251.50509    742504.84509      4752.344  
  24544006.867    24544011.730      624611.39409    366371.74409      2373.438  
 97  6 24 14 52 52.0000000  0  7G01G14G31G15G29G21G02
  22301556.930    22301560.855      757241.54901    522285.37909      2805.422  
  22047027.609    22047031.090     -313081.94001   -216669.49509     -1071.516  
  22435040.891    22435044.852     1220739.63909    836511.94809      4831.359  
  20070399.000    20070402.035      268568.28905    185918.95101      1115.703  
  22385208.320    22385212.305     -416170.45309   -288287.12609     -1438.813  
  24508350.797    24508354.207     1208003.74009    746207.88309      4752.375  
  24544458.820    24544463.707      626984.98809    368221.29809      2373.953  
 97  6 24 14 52 53.0000000  0  7G01G14G31G15G29G21G02
  22302091.023    22302094.961      760047.39001    524471.75009      2806.047  
  22046823.844    22046827.348     -314153.17801   -217504.22609     -1071.172  
  22435960.742    22435964.633     1225571.30509    840276.87909      4831.766  
  20070611.508    20070614.613      269684.33704    186788.59901      1116.188  
  22384934.313    22384938.238     -417608.95409   -289408.03309     -1438.406  
  24509255.602    24509259.211     1212756.24109    749911.13209      4752.422  
  24544910.422    24544915.156      629359.34309    370071.45309      2374.531  
 97  6 24 14 52 54.0000000  0  7G01G14G31G15G29G21G02
  22302624.969    22302628.953      762853.81201    526658.57209      2806.828  
  22046620.180    22046623.766     -315224.11501   -218338.72109     -1070.672  
  22436880.266    22436884.227     1230403.28909    844042.05909      4832.266  
  20070823.859    20070827.000      270800.83202    187658.59501      1116.844  
  22384660.531    22384664.539     -419047.10209   -290528.66709     -1437.844  
  24510159.680    24510162.832     1217508.76409    753614.39309      4752.641  
  24545362.555    24545367.980      631734.20209    371921.99109      2375.234  
 97  6 24 14 52 55.0000000  0  7G01G14G31G15G29G21G02
  22303159.320    22303163.352      765660.94001    528845.94309      2807.375  
  22046416.578    22046420.234     -316294.62701   -219172.88609     -1070.406  
  22437799.773    22437803.781     1235235.74309    847807.60609      4832.563  
  20071036.633    20071039.727      271917.89501    188529.03501      1117.234  
  22384387.047    22384391.090     -420484.75609   -291648.91709     -1437.531  
  24511064.844    24511068.184     1222261.44109    757317.76909      4752.625  
  24545814.297    24545819.172      634109.69409    373773.02809      2375.719  
 97  6 24 14 52 56.0000000  0  7G01G14G31G15G29G21G02
  22303693.656    22303697.688      768468.59701    531033.72809      2808.016  
  22046212.992    22046216.684     -317364.88301   -220006.85009     -1070.031  
  22438719.578    22438723.750     1240068.47609    851573.36909      4833.000  
  20071249.172    20071252.254      273035.34301    189399.77301      1117.750  
  22384113.539    22384117.453     -421922.08309   -292768.91109     -1437.031  
  24511969.141    24511972.633     1227014.08309    761021.12309      4752.734  
  24546266.594    24546271.363      636485.66409    375624.43009      2376.313  
 97  6 24 14 52 57.0000000  0  6G01G14G31G15G29G02
  22304227.898    22304232.070      771276.93801    533222.04409      2808.594  
  22046009.180    22046012.871     -318434.73201   -220840.49709     -1069.734  
  22439639.289    22439643.508     1244901.64109    855339.46909      4833.297  
  20071461.953    20071464.977      274153.33901    190270.93901      1118.188  
  22383840.250    22383844.094     -423358.94609   -293888.54509     -1436.734  
  24546719.320    24546724.008      638862.23609    377476.29609      2376.797  
 97  6 24 14 52 58.0000000  0  6G01G14G31G15G29G02
  22304762.414    22304766.480      774085.77901    535410.75009      2809.219  
  22045805.734    22045809.391     -319504.33501   -221673.95409     -1069.375  
  22440559.289    22440563.344     1249735.08209    859105.78609      4833.672  
  20071674.766    20071677.824      275271.70301    191142.39201      1118.656  
  22383566.945    22383570.824     -424795.50709   -295007.94209     -1436.313  
  24547171.531    24547177.250      641239.24809    379328.50509      2377.344  
 97  6 24 14 52 59.0000000  0  6G01G14G31G15G29G02
  22305297.125    22305301.191      776895.34601    537600.02309      2809.828  
  22045602.055    22045605.863     -320573.49001   -222507.06009     -1069.047  
  22441479.180    22441483.164     1254568.99009    862872.46409      4834.047  
  20071887.781    20071890.805      276390.65101    192014.30001      1119.125  
  22383293.945    22383297.730     -426231.58909   -296126.96609     -1435.938  
  24547623.898    24547628.984      643616.90009    381181.22609      2377.875  
 97  6 24 14 53  0.0000000  0  6G01G14G31G15G29G02
  22305831.898    22305835.965      779705.47501    539789.73209      2810.422  
  22045398.828    22045402.602     -321642.35301   -223339.93909     -1068.703  
  22442398.867    22442402.828     1259403.19409    866639.37309      4834.391  
  20072100.891    20072103.961      277510.01601    192886.53101      1119.594  
  22383020.313    22383024.121     -427667.33009   -297245.72709     -1435.547  
  24548076.422    24548081.297      645995.05409    383034.33809      2378.422  
 97  6 24 14 53  1.0000000  0  6G01G14G31G15G29G02
  22306366.711    22306370.637      782516.28601    541979.97109      2811.188  
  22045195.367    22045199.094     -322710.82001   -224172.50909     -1068.219  
  22443319.313    22443323.273     1264237.83709    870406.62509      4834.875  
  20072313.797    20072316.961      278629.92001    193759.18301      1120.203  
  22382747.391    22382751.316     -429102.60509   -298364.12309     -1435.016  
  24548529.313    24548534.211      648373.80709    384887.91009      2379.094  
 97  6 24 14 53  2.0000000  0  6G01G14G31G15G29G02
  22306901.570    22306905.484      785327.75701    544170.72809      2811.797  
  22044992.492    22044996.254     -323778.89701   -225004.77609     -1067.891  
  22444238.797    22444242.734     1269072.88009    874174.18809      4835.250  
  20072527.078    20072530.230      279750.35501    194632.24901      1120.688  
  22382474.219    22382478.168     -430537.43509   -299482.17209     -1434.625  
  24548981.789    24548986.594      650753.15409    386741.94309      2379.641  
 97  6 24 14 53  3.0000000  0  6G01G14G31G15G29G02
  22307436.852    22307440.766      788139.88101    546361.99309      2812.422  
  22044789.109    22044792.895     -324846.59501   -225836.74709     -1067.547  
  22445159.289    22445163.156     1273908.32209    877942.06709      4835.609  
  20072740.313    20072743.465      280871.29801    195505.71101      1121.172  
  22382201.164    22382205.078     -431971.83509   -300599.88509     -1434.219  
  24549434.828    24549439.855      653133.07309    388596.43109      2380.188  
 97  6 24 14 53  4.0000000  0  6G01G14G31G15G29G02
  22307971.805    22307975.813      790952.55601    548553.68809      2813.031  
  22044585.844    22044589.617     -325914.01901   -226668.50609     -1067.203  
  22446079.352    22446083.125     1278744.07809    881710.18609      4835.984  
  20072953.891    20072957.031      281992.66201    196379.50001      1121.641  
  22381928.328    22381932.430     -433405.88809   -301717.33009     -1433.813  
  24549888.063    24549892.820      655513.51909    390451.32609      2380.750  
 97  6 24 14 53  5.0000000  0  6G01G14G31G15G29G02
  22308507.438    22308511.387      793765.96201    550745.95409      2813.672  
  22044382.609    22044386.453     -326980.98609   -227499.90709     -1066.828  
  22446999.422    22447003.125     1283580.29709    885478.66909      4836.375  
  20073167.289    20073170.430      283114.60901    197253.74501      1122.156  
  22381655.352    22381659.535     -434839.43009   -302834.37809     -1433.359  
  24550340.563    24550345.051      657894.60409    392306.71209      2381.344  
 97  6 24 14 53  6.0000000  0  6G01G14G31G15G29G02
  22309043.008    22309046.887      796579.93801    552938.66309      2814.281  
  22044179.930    22044183.867     -328047.65909   -228331.08109     -1066.516  
  22447920.250    22447923.930     1288416.82409    889247.38909      4836.703  
  20073380.766    20073383.895      284236.98501    198128.32401      1122.625  
  22381382.758    22381386.895     -436272.61509   -303951.14609     -1432.984  
  24550793.875    24550798.668      660276.16909    394162.47109      2381.844  
 97  6 24 14 53  7.0000000  0  6G01G14G31G15G29G02
  22309578.438    22309582.223      799394.58401    555131.89509      2814.828  
  22043976.906    22043980.879     -329113.92609   -229161.93909     -1066.219  
  22448840.516    22448844.207     1293253.78709    893016.44809      4837.000  
  20073594.633    20073597.727      285359.90701    199003.32701      1123.016  
  22381110.172    22381114.508     -437705.33109   -305067.54709     -1432.641  
  24551246.719    24551251.676      662658.38909    396018.74609      2382.344  
 97  6 24 14 53  8.0000000  0  6G01G14G31G15G29G02
  22310114.203    22310117.906      802209.66801    557325.46709      2815.359  
  22043773.859    22043777.820     -330180.03109   -229992.66909     -1065.969  
  22449760.492    22449764.242     1298090.91009    896785.63509      4837.297  
  20073808.461    20073811.555      286483.11801    199878.55601      1123.422  
  22380837.656    22380842.098     -439137.83209   -306183.78009     -1432.313  
  24551700.344    24551705.359      665040.93709    397875.28209      2382.813  
 97  6 24 14 53  9.0000000  0  6G01G14G31G15G29G02
  22310649.906    22310653.586      805025.34401    559519.50009      2816.000  
  22043571.375    22043575.383     -331245.82501   -230823.15709     -1065.609  
  22450681.242    22450684.969     1302928.38609    900555.09609      4837.672  
  20074022.055    20074025.160      287606.78401    200754.13901      1123.922  
  22380565.055    22380569.355     -440569.96709   -307299.73009     -1431.906  
  24552154.047    24552159.168      667424.02409    399732.23909      2383.375  
 97  6 24 14 53 10.0000000  0  6G01G14G31G15G29G02
  22311185.852    22311189.578      807841.65001    561714.02509      2816.672  
  22043368.461    22043372.410     -332311.27101   -231653.37509     -1065.219  
  22451601.813    22451605.410     1307766.23209    904324.84509      4838.063  
  20074236.156    20074239.262      288730.93501    201630.10101      1124.438  
  22380292.617    22380296.824     -442001.69109   -308415.35709     -1431.484  
  24552607.055    24552612.563      669807.65009    401589.60109      2383.969  
 97  6 24 14 53 11.0000000  0  6G01G14G31G15G29G02
  22311721.953    22311725.809      810658.77001    563909.18409      2817.453  
  22043165.891    22043169.840     -333376.18701   -232483.18009     -1064.719  
  22452522.789    22452526.563     1312604.62309    908095.01709      4838.609  
  20074449.945    20074453.004      289855.76001    202506.58701      1125.094  
  22380020.313    22380024.602     -443432.82109   -309530.52409     -1430.906  
  24553062.031    24553067.551      672192.01409    403447.54709      2384.641  
 97  6 24 14 53 12.0000000  0  6G01G14G31G15G29G02
  22312258.016    22312261.824      813476.48001    566104.80109      2818.094  
  22042963.422    22042967.430     -334440.79701   -233312.74609     -1064.359  
  22453443.500    22453447.367     1317443.36109    911865.45909      4839.000  
  20074663.969    20074666.992      290981.03201    203383.42301      1125.578  
  22379747.719    22379751.996     -444863.59009   -310645.41009     -1430.484  
  24553515.094    24553520.402      674576.87509    405305.88409      2385.203  
 97  6 24 14 53 13.0000000  0  6G01G14G31G15G29G02
  22312794.516    22312798.254      816294.87001    568300.95009      2818.656  
  22042760.711    22042764.684     -335504.98601   -234141.98309     -1064.063  
  22454364.523    22454368.355     1322282.53809    915636.24809      4839.297  
  20074878.336    20074881.371      292106.85501    204260.68601      1126.016  
  22379475.688    22379479.988     -446293.87009   -311759.91209     -1430.125  
  24553969.008    24553974.539      676962.35109    407164.69609      2385.703  
 97  6 24 14 53 14.0000000  0  6G01G14G31G15G29G02
  22313331.102    22313334.852      819113.77401    570497.49809      2819.234  
  22042558.484    22042562.516     -336568.93501   -234971.03409     -1063.750  
  22455285.383    22455289.262     1327121.98309    919407.24209      4839.656  
  20075092.711    20075095.746      293233.05401    205138.24201      1126.469  
  22379203.805    22379208.117     -447723.85309   -312874.18409     -1429.750  
  24554422.609    24554427.941      679348.26309    409023.84209      2386.188  
 97  6 24 14 53 15.0000000  0  6G01G14G31G15G29G02
  22313867.258    22313871.008      821933.43401    572694.63509      2820.031  
  22042356.086    22042360.164     -337632.39601   -235799.70109     -1063.234  
  22456206.398    22456210.172     1331961.94509    923178.64009      4840.219  
  20075307.078    20075310.090      294359.88301    206016.29001      1127.125  
  22378931.828    22378936.176     -449153.28909   -313988.02809     -1429.172  
  24554877.336    24554882.656      681734.85009    410883.52309      2386.922  
 97  6 24 14 53 16.0000000  0  6G01G14G31G15G29G02
  22314403.906    22314407.680      824753.66501    574892.21709      2820.578  
  22042153.883    22042158.066     -338695.55401   -236628.13509     -1062.953  
  22457127.484    22457131.223     1336802.26209    926950.31509      4840.531  
  20075521.727    20075524.750      295487.15001    206894.67901      1127.547  
  22378659.836    22378664.172     -450582.35509   -315101.58209     -1428.828  
  24555331.594    24555336.891      684121.94709    412743.59709      2387.406  
 97  6 24 14 53 17.0000000  0  6G01G14G31G15G29G02
  22314940.742    22314944.609      827574.65401    577090.39109      2821.328  
  22041951.695    22041955.891     -339758.22501   -237456.18709     -1062.469  
  22458048.641    22458052.438     1341643.07709    930722.37809      4841.031  
  20075736.133    20075739.191      296615.02902    207773.54601      1128.141  
  22378387.773    22378392.098     -452010.89209   -316214.72609     -1428.313  
  24555785.609    24555790.824      686509.69309    414604.17409      2388.047  
 97  6 24 14 53 18.0000000  0  6G01G14G31G15G29G02
  22315477.781    22315481.695      830396.26001    579289.04609      2821.953  
  22041749.297    22041753.527     -340820.54801   -238283.97109     -1062.109  
  22458970.039    22458973.801     1346484.25109    934494.72109      4841.391  
  20075950.961    20075953.973      297743.38604    208652.78501      1128.625  
  22378115.789    22378120.137     -453439.04109   -317327.56709     -1427.906  
  24556240.008    24556244.801      688897.99709    416465.18309      2388.578  
 97  6 24 14 53 19.0000000  0  6G01G14G31G15G29G02
  22316015.109    22316018.965      833218.54801    581488.23109      2822.609  
  22041547.563    22041551.840     -341882.45101   -239111.42609     -1061.719  
  22459891.445    22459895.160     1351325.89809    938267.43409      4841.813  
  20076165.695    20076168.730      298872.28604    209532.44701      1129.141  
  22377844.477    22377848.859     -454866.70209   -318440.03109     -1427.469  
  24556694.578    24556699.277      691286.89309    418326.65409      2389.172  
 97  6 24 14 53 20.0000000  0  6G01G14G31G15G29G02
  22316552.203    22316556.164      836041.47201    583687.91009      2823.297  
  22041345.359    22041349.648     -342943.98801   -239938.59609     -1061.281  
  22460812.789    22460816.445     1356167.91009    942040.43009      4842.281  
  20076380.586    20076383.609      300001.67104    210412.48801      1129.703  
  22377572.891    22377577.238     -456293.95609   -319552.17609     -1426.969  
  24557149.367    24557153.996      693676.33809    420188.56209      2389.781  
 97  6 24 14 53 21.0000000  0  6G01G14G31G15G29G02
  22317089.484    22317093.469      838865.04801    585888.10009      2823.828  
  22041143.250    22041147.586     -344005.12201   -240765.45309     -1061.016  
  22461734.234    22461737.773     1361010.34009    945813.75109      4842.563  
  20076595.547    20076598.535      301131.58005    211292.93602      1130.094  
  22377301.547    22377305.941     -457720.75609   -320663.96709     -1426.641  
  24557604.234    24557609.168      696066.36509    422050.92309      2390.219  
 97  6 24 14 53 22.0000000  0  6G01G14G31G15G29G02
  22317626.867    22317630.828      841689.17001    588088.71309      2824.438  
  22040941.555    22040945.914     -345065.96501   -241592.08309     -1060.656  
  22462655.820    22462659.488     1365853.08609    949587.31909      4842.922  
  20076810.938    20076813.938      302261.90204    212173.70702      1130.563  
  22377030.086    22377034.410     -459147.20409   -321775.48309     -1426.234  
  24558059.070    24558063.875      698456.84409    423913.62209      2390.750  
 97  6 24 14 53 23.0000000  0  6G01G14G31G15G29G02
  22318164.422    22318168.336      844513.91801    590289.81509      2825.125  
  22040739.539    22040743.922     -346126.44101   -242418.42709     -1060.203  
  22463577.430    22463581.168     1370696.21209    953361.18409      4843.406  
  20077025.930    20077028.977      303392.70602    213054.85402      1131.125  
  22376758.703    22376763.051     -460573.23109   -322886.67409     -1425.719  
  24558513.742    24558518.195      700847.85709    425776.74109      2391.359  
 97  6 24 14 53 24.0000000  0  6G01G14G31G15G29G02
  22318701.992    22318706.023      847339.40401    592491.49109      2825.797  
  22040537.891    22040542.355     -347186.42801   -243244.39109     -1059.797  
  22464498.977    22464502.773     1375539.83909    957135.44209      4843.828  
  20077241.305    20077244.387      304524.10703    213936.46702      1131.641  
  22376487.492    22376491.816     -461998.73509   -323997.45609     -1425.297  
  24558969.125    24558974.363      703239.54109    427640.39309      2391.938  
 97  6 24 14 53 25.0000000  0  6G01G14G31G15G29G02
  22319240.031    22319244.016      850165.44701    594693.60309      2826.344  
  22040336.359    22040340.859     -348246.08401   -244070.09609     -1059.484  
  22465420.813    22465424.398     1380383.80909    960909.96409      4844.125  
  20077456.617    20077459.676      305655.94702    214818.42202      1132.063  
  22376216.063    22376220.445     -463423.87709   -325107.95309     -1424.938  
  24559424.055    24559429.492      705631.71309    429504.41709      2392.438  
 97  6 24 14 53 26.0000000  0  6G01G14G31G15G29G02
  22319777.883    22319781.891      852992.07501    596896.17009      2826.969  
  22040134.734    22040139.164     -349305.40701   -244895.53909     -1059.094  
  22466342.680    22466346.266     1385228.09809    964684.73509      4844.563  
  20077672.180    20077675.309      306788.24002    215700.72803      1132.578  
  22375944.781    22375949.211     -464848.61009   -326218.13309     -1424.469  
  24559879.508    24559884.629      708024.40009    431368.85609      2393.000  
 97  6 24 14 53 27.0000000  0  6G01G14G31G15G29G02
  22320315.953    22320319.973      855819.37201    599099.25809      2827.578  
  22039933.180    22039937.715     -350364.31001   -245720.65909     -1058.734  
  22467264.328    22467267.938     1390072.85509    968459.86909      4844.922  
  20077887.703    20077890.902      307921.06501    216583.45103      1133.047  
  22375674.031    22375678.461     -466272.86909   -327327.94409     -1424.094  
  24560335.117    24560340.496      710417.68609    433233.76109      2393.547  
 97  6 24 14 53 28.0000000  0  6G01G14G31G15G29G02
  22320853.992    22320857.988      858647.21701    601302.77209      2828.141  
  22039731.719    22039736.277     -351422.87701   -246545.51509     -1058.406  
  22468186.391    22468189.965     1394917.97509    972235.28809      4845.281  
  20078103.477    20078106.641      309054.32301    217466.50903      1133.484  
  22375402.875    22375407.363     -467696.78609   -328437.48909     -1423.734  
  24560790.945    24560796.383      712811.47409    435099.05409      2394.047  
 97  6 24 14 53 29.0000000  0  6G01G14G31G15G29G02
  22321392.086    22321396.129      861475.72101    603506.80109      2828.844  
  22039530.359    22039534.977     -352481.04501   -247370.06109     -1057.922  
  22469108.398    22469111.996     1399763.51309    976011.03209      4845.797  
  20078319.016    20078322.133      310188.11201    218349.98303      1134.078  
  22375132.195    22375136.590     -469120.24309   -329546.67409     -1423.188  
  24561246.023    24561251.027      715205.83809    436964.79009      2394.672  
 97  6 24 14 53 30.0000000  0  6G01G14G31G15G29G02
  22321930.563    22321934.441      864304.88501    605711.34609      2829.500  
  22039329.039    22039333.691     -353538.78301   -248194.27209     -1057.516  
  22470030.672    22470034.316     1404609.47509    979787.10509      4846.203  
  20078535.117    20078538.281      311322.43701    219233.87203      1134.594  
  22374861.305    22374865.828     -470543.23309   -330655.49509     -1422.750  
  24561702.297    24561707.313      717600.80809    438831.00309      2395.266  
 97  6 24 14 53 31.0000000  0  6G01G14G31G15G29G02
  22322469.000    22322472.891      867134.86701    607916.52509      2830.281  
  22039128.047    22039132.699     -354595.92801   -249018.02209     -1056.984  
  22470953.008    22470956.512     1409456.06509    983563.66809      4846.719  
  20078751.164    20078754.270      312457.46301    220118.30801      1135.250  
  22374590.820    22374595.508     -471965.57009   -331763.80809     -1422.156  
  24562158.320    24562163.137      719996.50309    440697.77709      2395.969  
 97  6 24 14 53 32.0000000  0  6G01G14G31G15G29G02
  22323007.633    22323011.512      869965.41401    610122.14609      2830.891  
  22038926.836    22038931.500     -355652.75701   -249841.52409     -1056.609  
  22471875.289    22471878.957     1414302.95609    987340.46409      4847.141  
  20078967.023    20078970.082      313592.92101    221003.08101      1135.734  
  22374320.180    22374324.809     -473387.53709   -332871.83109     -1421.703  
  24562613.992    24562618.398      722392.70709    442564.94709      2396.484  
 97  6 24 14 53 33.0000000  0  6G01G14G31G15G29G02
  22323546.398    22323550.242      872796.59801    612328.26309      2831.500  
  22038725.984    22038730.672     -356709.20401   -250664.72609     -1056.250  
  22472797.492    22472801.090     1419150.25409    991117.57709      4847.500  
  20079183.414    20079186.391      314728.88101    221888.24501      1136.203  
  22374049.563    22374054.074     -474809.06709   -333979.51409     -1421.297  
  24563070.063    24563074.574      724789.45209    444432.53809      2397.016  
 97  6 24 14 53 34.0000000  0  6G01G14G31G15G29G02
  22324085.414    22324089.176      875628.52301    614534.95709      2832.203  
  22038525.016    22038529.750     -357765.13901   -251487.53109     -1055.781  
  22473720.352    22473724.008     1423998.08009    994895.10309      4847.969  
  20079399.766    20079402.824      315865.46001    222773.88901      1136.797  
  22373779.031    22373783.484     -476230.01709   -335086.74609     -1420.797  
  24563526.320    24563530.551      727186.86109    446300.65109      2397.656  
 97  6 24 14 53 35.0000000  0  6G01G14G31G15G29G02
  22324624.344    22324628.152      878460.91101    616742.01309      2832.688  
  22038323.953    22038328.746     -358820.86501   -252310.17409     -1055.547  
  22474642.797    22474646.523     1428846.11509    998672.79009      4848.250  
  20079616.008    20079619.055      317002.36701    223659.79001      1137.156  
  22373508.594    22373513.035     -477650.70309   -336193.77209     -1420.453  
  24563982.867    24563988.797      729584.66809    448169.06209      2398.078  
 97  6 24 14 53 36.0000000  0  6G01G14G31G15G29G02
  22325163.391    22325167.176      881293.97401    618949.59409      2833.484  
  22038123.188    22038127.980     -359876.16201   -253132.48209     -1055.000  
  22475565.484    22475569.082     1433694.60609   1002450.83509      4848.797  
  20079832.445    20079835.480      318139.83001    224546.12401      1137.813  
  22373238.352    22373242.887     -479070.89909   -337300.41709     -1419.891  
  24564439.141    24564444.426      731983.08009    450037.96109      2398.797  
 97  6 24 14 53 37.0000000  0  6G01G14G31G15G29G02
  22325702.836    22325706.586      884127.72001    621157.70809      2834.016  
  22037922.367    22037927.219     -360931.01301   -253954.44309     -1054.703  
  22476488.297    22476491.941     1438543.56409   1006229.24209      4849.094  
  20080049.141    20080052.211      319277.86301    225432.90301      1138.234  
  22372968.289    22372972.883     -480490.62409   -338406.69309     -1419.578  
  24564896.016    24564901.453      734382.11209    451907.34409      2399.281  
 97  6 24 14 53 38.0000000  0  6G01G14G31G15G29G02
  22326241.898    22326245.660      886962.12001    623366.33409      2834.734  
  22037721.742    22037726.676     -361985.46201   -254776.09109     -1054.234  
  22477411.094    22477414.691     1443392.92009   1010007.96009      4849.594  
  20080265.641    20080268.676      320416.41301    226320.08501      1138.828  
  22372698.195    22372702.766     -481909.90209   -339512.62209     -1419.031  
  24565352.039    24565357.523      736781.73209    453777.17309      2399.906  
 97  6 24 14 53 39.0000000  0  6G01G14G31G15G29G02
  22326781.563    22326785.266      889797.13301    625575.43509      2835.359  
  22037520.945    22037525.832     -363039.56209   -255597.46809     -1053.906  
  22478333.695    22478337.305     1448242.65409   1013786.97209      4849.953  
  20080482.211    20080485.211      321555.44702    227207.64401      1139.297  
  22372428.039    22372432.586     -483328.76009   -340618.22409     -1418.609  
  24565808.766    24565813.840      739181.86809    455647.40909      2400.453  
 97  6 24 14 53 40.0000000  0  6G01G14G31G15G29G02
  22327321.016    22327324.719      892632.74401    627785.00209      2835.953  
  22037320.766    22037325.723     -364093.31809   -256418.57509     -1053.531  
  22479256.883    22479260.480     1453092.77709   1017566.28909      4850.344  
  20080699.227    20080702.227      322694.96402    228095.57801      1139.797  
  22372158.320    22372162.820     -484747.17409   -341723.48109     -1418.172  
  24566265.852    24566270.398      741582.55309    457518.07909      2400.984  
 97  6 24 14 53 41.0000000  0  6G01G14G31G15G29G02
  22327860.930    22327864.586      895469.05301    629995.11209      2836.734  
  22037120.273    22037125.324     -365146.62809   -257239.33609     -1053.016  
  22480179.773    22480183.406     1457943.36709   1021345.96709      4850.922  
  20080916.188    20080919.141      323835.04702    228983.95501      1140.438  
  22371888.406    22371892.906     -486165.09309   -342828.35109     -1417.594  
  24566722.766    24566727.359      743983.85609    459389.23209      2401.672  
 97  6 24 14 53 42.0000000  0  6G01G14G31G15G29G02
  22328400.742    22328404.363      898306.03201    632205.74609      2837.313  
  22036919.867    22036924.988     -366199.52209   -258059.77309     -1052.672  
  22481102.984    22481106.582     1462794.38709   1025125.98009      4851.250  
  20081133.266    20081136.230      324975.66802    229872.75001      1140.906  
  22371618.648    22371623.184     -487582.54209   -343932.85509     -1417.203  
  24567179.695    24567184.160      746385.75609    461260.84309      2402.219  
 97  6 24 14 53 43.0000000  0  6G01G14G31G15G29G02
  22328940.734    22328944.414      901143.63001    634416.86209      2837.813  
  22036719.398    22036724.449     -367252.03909   -258879.91309     -1052.438  
  22482026.234    22482029.727     1467645.81709   1028906.31209      4851.516  
  20081350.430    20081353.324      326116.79401    230761.93801      1141.266  
  22371349.000    22371353.500     -488999.53209   -345037.00209     -1416.906  
  24567637.133    24567641.809      748788.19809    463132.87109      2402.625  
 97  6 24 14 53 44.0000000  0  6G01G14G31G15G29G02
  22329480.758    22329484.461      903981.75201    636628.38509      2838.453  
  22036519.422    22036524.402     -368304.30209   -259699.85709     -1052.031  
  22482949.398    22482953.043     1472497.52509   1032686.86109      4851.938  
  20081567.688    20081570.594      327258.29801    231651.42201      1141.797  
  22371079.578    22371083.949     -490416.22209   -346140.91509     -1416.422  
  24568094.266    24568098.648      751191.08409    465005.24509      2403.188  
 97  6 24 14 53 45.0000000  0  6G01G14G31G15G29G02
  22330021.094    22330024.797      906820.50801    638840.40309      2839.125  
  22036319.094    22036324.051     -369356.17609   -260519.49709     -1051.641  
  22483872.727    22483876.477     1477349.60909   1036467.70309      4852.328  
  20081784.914    20081787.797      328400.30701    232541.29901      1142.297  
  22370810.156    22370814.492     -491832.48209   -347244.49209     -1415.984  
  24568552.148    24568556.438      753594.51609    466878.05109      2403.781  
 97  6 24 14 53 46.0000000  0  6G01G14G31G15G29G02
  22330561.281    22330565.078      909659.93001    641052.93909      2839.766  
  22036119.109    22036124.043     -370407.64909   -261338.82609     -1051.266  
  22484796.086    22484799.883     1482202.12309   1040248.88009      4852.734  
  20082002.320    20082005.086      329542.84901    233431.59101      1142.813  
  22370540.609    22370544.875     -493248.24709   -348347.68509     -1415.547  
  24569008.898    24569013.047      755998.54009    468751.32209      2404.328  
 97  6 24 14 53 47.0000000  0  6G01G14G31G15G29G02
  22331101.766    22331105.586      912500.05501    643266.02509      2840.328  
  22035918.977    22035923.945     -371458.67409   -262157.80609     -1050.953  
  22485719.813    22485723.586     1487055.11009   1044030.42709      4853.094  
  20082219.922    20082222.781      330685.95901    234322.32501      1143.250  
  22370271.320    22370275.668     -494663.51009   -349450.48509     -1415.141  
  24569466.680    24569469.949      758403.18109    470625.06409      2404.813  
 97  6 24 14 53 48.0000000  0  6G01G14G31G15G29G02
  22331642.281    22331645.996      915340.68401    645479.50209      2840.906  
  22035718.922    22035723.891     -372509.45609   -262976.59609     -1050.609  
  22486643.281    22486646.938     1491908.35109   1047812.17309      4853.422  
  20082437.586    20082440.445      331829.42901    235213.34001      1143.688  
  22370002.219    22370006.566     -496078.46809   -350553.04909     -1414.750  
  24569923.820    24569927.207      760808.25909    472499.14709      2405.328  
 97  6 24 14 53 49.0000000  0  6G01G14G31G15G29G02
  22332182.969    22332186.766      918181.90501    647693.44209      2841.594  
  22035519.258    22035524.250     -373559.88009   -263795.10809     -1050.188  
  22487566.555    22487570.176     1496761.98009   1051594.21709      4853.859  
  20082655.195    20082658.055      332973.37201    236104.72201      1144.234  
  22369733.125    22369737.414     -497492.98309   -351655.26809     -1414.266  
  24570382.109    24570384.957      763213.87309    474373.64709      2405.922  
 97  6 24 14 53 50.0000000  0  6G01G14G31G15G29G02
  22332723.734    22332727.484      921023.81601    649907.91709      2842.156  
  22035319.195    22035324.164     -374609.85609   -264613.27009     -1049.844  
  22488490.469    22488494.113     1501616.05109   1055376.61009      4854.250  
  20082873.008    20082875.867      334117.88501    236996.55101      1144.703  
  22369463.867    22369468.074     -498906.99609   -352757.09709     -1413.844  
  24570839.797    24570842.281      765620.10509    476248.64209      2406.453  
 97  6 24 14 53 51.0000000  0  6G01G14G31G15G29G02
  22333264.773    22333268.594      923866.23201    652122.78609      2842.656  
  22035119.734    22035124.750     -375659.57309   -265431.23009     -1049.594  
  22489414.141    22489417.785     1506470.39409   1059159.21309      4854.469  
  20083090.719    20083093.602      335262.77401    237888.67301      1145.063  
  22369195.031    22369199.156     -500320.69909   -353858.68509     -1413.547  
  24571297.813    24571300.602      768026.77709    478123.98209      2406.875  
 97  6 24 14 53 52.0000000  0  6G01G14G31G15G29G02
  22333805.734    22333809.555      926709.24201    654338.11909      2843.406  
  22034919.883    22034924.898     -376708.92809   -266248.90909     -1049.094  
  22490337.984    22490341.559     1511325.11409   1062942.11109      4854.953  
  20083308.680    20083311.539      336408.13101    238781.15901      1145.688  
  22368926.195    22368930.203     -501733.96909   -354959.93509     -1412.984  
  24571756.359    24571759.805      770433.97609    479999.72609      2407.578  
 97  6 24 14 53 53.0000000  0  6G01G14G31G15G29G02
  22334346.828    22334350.707      929552.91801    656553.97109      2843.969  
  22034720.242    22034725.246     -377757.85909   -267066.25709     -1048.750  
  22491261.992    22491265.578     1516180.24609   1066725.33009      4855.313  
  20083526.656    20083529.504      337554.03601    239674.07201      1146.141  
  22368656.938    22368661.004     -503146.75209   -356060.80209     -1412.578  
  24572214.570    24572218.063      772841.79509    481875.94809      2408.078  
 97  6 24 14 53 54.0000000  0  6G01G14G31G15G29G02
  22334888.086    22334891.941      932397.25401    658770.33709      2844.672  
  22034520.867    22034525.859     -378806.36909   -267883.27509     -1048.297  
  22492185.984    22492189.688     1521035.80109   1070508.87809      4855.781  
  20083744.961    20083747.855      338700.47101    240567.39901      1146.719  
  22368388.586    22368392.723     -504559.07209   -357161.31209     -1412.094  
  24572672.359    24572676.402      775250.18809    483752.61509      2408.703  
 97  6 24 14 53 55.0000000  0  6G01G14G31G15G29G02
  22335429.523    22335433.320      935242.23701    660987.20609      2845.281  
  22034321.422    22034326.414     -379854.46209   -268699.97009     -1047.922  
  22493109.984    22493113.664     1525891.80509   1074292.77709      4856.172  
  20083963.070    20083965.918      339847.44401    241461.14401      1147.203  
  22368119.688    22368123.859     -505970.93209   -358261.46209     -1411.656  
  24573131.305    24573135.453      777659.19009    485629.75809      2409.250  
 97  6 24 14 53 56.0000000  0  6G01G14G31G15G29G02
  22335971.000    22335974.703      938087.76301    663204.49909      2845.828  
  22034122.023    22034127.063     -380902.27109   -269516.44409     -1047.609  
  22494033.984    22494037.688     1530748.08009   1078076.88609      4856.469  
  20084181.563    20084184.422      340994.82901    242355.21102      1147.625  
  22367850.945    22367855.105     -507382.43009   -359361.33109     -1411.281  
  24573589.609    24573594.051      780068.65709    487507.26009      2409.734  
 97  6 24 14 53 57.0000000  0  6G01G14G31G15G29G02
  22336512.445    22336516.254      940933.95401    665422.31009      2846.500  
  22033922.820    22033927.848     -381949.65809   -270332.59009     -1047.203  
  22494958.422    22494962.090     1535604.77609   1081861.32209      4856.875  
  20084399.742    20084402.660      342142.74701    243249.69203      1148.172  
  22367582.680    22367586.910     -508793.44709   -360460.82609     -1410.813  
  24574048.359    24574052.871      782478.71609    489385.22509      2410.359  
 97  6 24 14 53 58.0000000  0  6G01G14G31G15G29G02
  22337054.305    22337058.172      943780.73001    667640.57509      2847.063  
  22033723.484    22033728.547     -382996.68809   -271148.45609     -1046.875  
  22495882.586    22495886.137     1540461.83209   1085646.04109      4857.188  
  20084618.273    20084621.250      343291.12701    244144.53403      1148.594  
  22367314.242    22367318.414     -510204.07109   -361560.01409     -1410.422  
  24574507.023    24574511.102      784889.32609    491263.61809      2410.828  
 97  6 24 14 53 59.0000000  0  6G01G14G31G15G29G02
  22337596.063    22337599.953      946628.12301    669859.32209      2847.766  
  22033524.445    22033529.449     -384043.35109   -271964.03709     -1046.422  
  22496807.367    22496811.000     1545319.22609   1089431.02309      4857.641  
  20084837.195    20084840.172      344439.98501    245039.74803      1149.156  
  22367046.070    22367050.148     -511614.27009   -362658.87109     -1409.906  
  24574966.148    24574969.852      787300.48009    493142.43709      2411.484  
 97  6 24 14 54  0.0000000  0  6G01G14G31G15G29G02
  22338138.125    22338142.027      949476.25101    672078.64209      2848.406  
  22033325.398    22033330.379     -385089.54209   -272779.25009     -1046.031  
  22497731.750    22497735.289     1550177.09409   1093216.37309      4858.016  
  20085055.711    20085058.629      345589.43901    245935.42603      1149.656  
  22366777.445    22366781.523     -513023.94609   -363757.32009     -1409.500  
  24575424.203    24575428.059      789712.29709    495021.77109      2412.063  
 97  6 24 14 54  1.0000000  0  6G01G14G31G15G29G02
  22338679.969    22338683.930      952324.93101    674298.39209      2848.953  
  22033126.148    22033131.176     -386135.42109   -273594.22109     -1045.750  
  22498655.852    22498659.391     1555035.27209   1097001.96309      4858.297  
  20085274.484    20085277.438      346739.30901    246831.43002      1150.047  
  22366509.422    22366513.547     -514433.26309   -364855.49009     -1409.188  
  24575883.680    24575887.383      792124.61409    496901.50109      2412.531  
 97  6 24 14 54  2.0000000  0  6G01G14G31G15G29G02
  22339222.281    22339226.195      955174.20001    676518.60009      2849.641  
  22032927.227    22032932.313     -387180.97909   -274408.94109     -1045.297  
  22499580.664    22499584.215     1559893.77009   1100787.80409      4858.750  
  20085493.578    20085496.566      347889.61501    247727.77203      1150.609  
  22366241.422    22366245.512     -515842.20909   -365953.37009     -1408.672  
  24576342.883    24576346.363      794537.42209    498781.60309      2413.156  
 97  6 24 14 54  3.0000000  0  6G01G14G31G15G29G02
  22339764.563    22339768.430      958024.19701    678739.37509      2850.344  
  22032728.406    22032733.598     -388226.05909   -275223.28709     -1044.859  
  22500505.164    22500508.750     1564752.74309   1104574.01509      4859.188  
  20085712.617    20085715.582      349040.51701    248624.57903      1151.188  
  22365973.320    22365977.328     -517250.64009   -367050.84809     -1408.172  
  24576802.031    24576805.887      796950.91609    500662.23609      2413.797  
 97  6 24 14 54  4.0000000  0  6G01G14G31G15G29G02
  22340306.992    22340310.906      960874.83901    680960.65309      2850.969  
  22032529.547    22032534.762     -389270.74909   -276037.33109     -1044.484  
  22501429.859    22501433.410     1569612.07709   1108360.50909      4859.547  
  20085931.547    20085934.523      350191.91401    249521.77201      1151.656  
  22365705.547    22365709.660     -518658.61309   -368147.97009     -1407.750  
  24577261.383    24577265.133      799364.95609    502543.30409      2414.328  
 97  6 24 14 54  5.0000000  0  6G01G14G31G15G29G02
  22340849.523    22340853.402      963726.12001    683182.43009      2851.578  
  22032330.867    22032336.082     -390315.06009   -276851.07909     -1044.156  
  22502354.594    22502358.215     1574471.79409   1112147.29709      4859.859  
  20086150.914    20086153.891      351343.80501    250419.35101      1152.109  
  22365437.617    22365441.625     -520066.16409   -369244.76109     -1407.344  
  24577720.961    24577724.805      801779.57409    504424.82309      2414.859  
 97  6 24 14 54  6.0000000  0  6G01G14G31G15G29G02
  22341392.188    22341396.078      966577.98701    685404.66309      2852.250  
  22032132.164    22032137.414     -391359.04809   -277664.57309     -1043.734  
  22503279.258    22503282.938     1579331.79509   1115934.31109      4860.281  
  20086370.039    20086373.004      352496.13301    251317.27101      1152.641  
  22365169.875    22365173.836     -521473.32309   -370341.24609     -1406.859  
  24578180.727    24578184.430      804194.70109    506306.74409      2415.453  
 97  6 24 14 54  7.0000000  0  6G01G14G31G15G29G02
  22341935.180    22341939.164      969430.59401    687627.47109      2852.906  
  22031933.586    22031938.789     -392402.54709   -278477.68909     -1043.328  
  22504204.328    22504208.008     1584192.29009   1119721.70809      4860.641  
  20086589.492    20086592.480      353649.06301    252215.65802      1153.156  
  22364901.867    22364905.863     -522879.94509   -371437.31609     -1406.422  
  24578641.070    24578645.113      806610.47409    508189.16409      2416.047  
 97  6 24 14 54  8.0000000  0  6G01G14G31G15G29G02
  22342478.180    22342482.070      972283.81401    689850.75909      2853.531  
  22031734.977    22031740.250     -393445.69409   -279290.52909     -1042.953  
  22505129.219    22505132.992     1589053.10209   1123509.35309      4861.000  
  20086808.961    20086811.902      354802.46101    253114.40802      1153.656  
  22364634.531    22364638.516     -524286.15309   -372533.06109     -1405.953  
  24579100.984    24579104.594      809026.79309    510072.00109      2416.609  
 97  6 24 14 54  9.0000000  0  6G01G14G31G15G29G02
  22343021.156    22343025.000      975137.69901    692074.56509      2854.313  
  22031536.602    22031541.863     -394488.44709   -280103.06309     -1042.453  
  22506054.227    22506058.070     1593914.30909   1127297.30609      4861.500  
  20087028.586    20087031.563      355956.37901    254013.56602      1154.266  
  22364366.797    22364370.746     -525691.90009   -373628.44509     -1405.406  
  24579560.367    24579564.527      811443.71209    511955.31109      2417.297  
 97  6 24 14 54 10.0000000  0  6G01G14G31G15G29G02
  22343564.320    22343568.211      977992.33901    694298.96009      2854.969  
  22031338.188    22031343.543     -395530.69109   -280915.19809     -1042.063  
  22506979.242    22506983.156     1598776.02409   1131085.65309      4861.891  
  20087248.219    20087251.207      357110.91901    254913.20601      1154.797  
  22364099.711    22364103.695     -527097.04009   -374723.35709     -1404.922  
  24580020.336    24580024.367      813861.31109    513839.16409      2417.891  
 97  6 24 14 54 11.0000000  0  6G01G14G31G15G29G02
  22344107.859    22344111.750      980847.63301    696523.86509      2855.484  
  22031139.945    22031145.277     -396572.54809   -281727.03209     -1041.797  
  22507904.555    22507908.574     1603638.12209   1134874.29809      4862.141  
  20087468.133    20087471.109      358265.97001    255813.24601      1155.172  
  22363832.484    22363836.445     -528501.73409   -375817.92409     -1404.594  
  24580480.492    24580484.172      816279.47809    515723.45209      2418.328  
 97  6 24 14 54 12.0000000  0  6G01G14G31G15G29G02
  22344651.328    22344655.230      983703.44701    698749.17509      2856.172  
  22030941.563    22030946.965     -397614.15009   -282538.66909     -1041.391  
  22508829.711    22508833.848     1608500.45309   1138663.12809      4862.531  
  20087687.922    20087690.922      359421.39601    256713.57801      1155.703  
  22363565.063    22363569.000     -529906.12209   -376912.25009     -1404.125  
  24580940.313    24580944.320      818698.10309    517608.10209      2418.922  
 97  6 24 14 54 13.0000000  0  6G01G14G31G15G29G02
  22345194.859    22345198.645      986559.97101    700975.03809      2856.891  
  22030743.648    22030749.039     -398655.30609   -283349.95909     -1040.922  
  22509755.266    22509759.355     1613363.20709   1142452.28609      4862.984  
  20087907.898    20087910.934      360577.39001    257614.35201      1156.281  
  22363297.820    22363301.676     -531309.98209   -378006.16609     -1403.625  
  24581401.383    24581405.426      821117.36209    519493.24109      2419.594  
 97  6 24 14 54 14.0000000  0  6G01G14G31G15G29G02
  22345738.422    22345742.313      989417.21401    703201.46209      2857.484  
  22030545.570    22030550.938     -399696.00409   -284160.89209     -1040.563  
  22510680.570    22510684.555     1618226.39009   1146241.77809      4863.313  
  20088127.977    20088131.000      361733.96401    258515.57901      1156.766  
  22363030.789    22363034.645     -532713.34009   -379099.69009     -1403.188  
  24581861.328    24581865.125      823537.27309    521378.88909      2420.125  
 97  6 24 14 54 15.0000000  0  6G01G14G31G15G29G02
  22346282.453    22346286.355      992275.01001    705428.31709      2858.094  
  22030347.547    22030352.891     -400736.40109   -284971.59009     -1040.234  
  22511606.242    22511610.215     1623089.86509   1150031.49909      4863.609  
  20088348.227    20088351.238      362890.95901    259417.13301      1157.203  
  22362763.813    22362767.703     -534116.35009   -380192.94409     -1402.813  
  24582322.398    24582325.785      825957.67309    523264.91309      2420.641  
 97  6 24 14 54 16.0000000  0  6G01G14G31G15G29G02
  22346826.234    22346830.090      995133.39701    707655.63309      2858.781  
  22030149.727    22030155.035     -401776.47309   -285782.03409     -1039.813  
  22512531.680    22512535.723     1627953.63209   1153821.44409      4864.016  
  20088568.367    20088571.461      364048.39401    260319.03001      1157.750  
  22362496.820    22362500.629     -535518.95909   -381285.88509     -1402.328  
  24582783.688    24582787.414      828378.56609    525151.31609      2421.234  
 97  6 24 14 54 17.0000000  0  6G01G14G31G15G29G02
  22347370.438    22347374.281      997992.50101    709883.50409      2859.375  
  22029951.695    22029956.945     -402816.10609   -286592.13609     -1039.484  
  22513457.367    22513461.551     1632817.81909   1157611.71909      4864.313  
  20088788.805    20088791.887      365206.39201    261221.36501      1158.203  
  22362229.938    22362233.664     -536921.06109   -382378.43209     -1401.922  
  24583243.680    24583247.254      830800.10209    527038.22309      2421.797  
 97  6 24 14 54 18.0000000  0  6G01G14G31G15G29G02
  22347914.766    22347918.668     1000852.20901    712111.85009      2860.109  
  22029753.898    22029759.078     -403855.40009   -287401.97509     -1039.031  
  22514383.164    22514387.418     1637682.32109   1161402.24009      4864.734  
  20089009.289    20089012.441      366364.85701    262124.06601      1158.781  
  22361963.539    22361967.137     -538322.75709   -383470.66209     -1401.391  
  24583704.398    24583707.926      833222.17409    528925.55009      2422.406  
 97  6 24 14 54 19.0000000  0  6G01G14G31G15G29G02
  22348458.961    22348462.898     1003712.68801    714340.79409      2860.766  
  22029556.688    22029561.914     -404894.20609   -288211.43409     -1038.656  
  22515308.820    22515312.969     1642547.28709   1165193.12009      4865.078  
  20089229.836    20089233.023      367523.92801    263027.23801      1159.281  
  22361697.008    22361700.570     -539723.88909   -384562.44909     -1400.969  
  24584165.117    24584169.570      835644.90909    530813.38009      2423.000  
 97  6 24 14 54 20.0000000  0  6G01G14G31G15G29G02
  22349003.336    22349007.297     1006573.78101    716570.21709      2861.422  
  22029358.703    22029363.977     -405932.67309   -289020.62709     -1038.297  
  22516234.500    22516238.660     1647412.58409   1168984.26009      4865.422  
  20089450.375    20089453.598      368683.46301    263930.77301      1159.750  
  22361430.398    22361433.973     -541124.62409   -385653.92709     -1400.531  
  24584627.039    24584630.871      838068.19809    532701.65809      2423.531  
 97  6 24 14 54 21.0000000  0  6G01G14G31G15G29G02
  22349547.781    22349551.813     1009435.54901    718800.16509      2862.234  
  22029161.414    22029166.711     -406970.75209   -289829.51809     -1037.750  
  22517160.383    22517164.496     1652278.22209   1172775.66609      4865.984  
  20089671.289    20089674.535      369843.50601    264834.70201      1160.438  
  22361163.922    22361167.508     -542524.89909   -386745.04909     -1399.906  
  24585088.000    24585092.313      840492.05809    534590.38209      2424.281  
 97  6 24 14 54 22.0000000  0  6G01G14G31G15G29G02
  22350092.641    22350096.672     1012298.12601    721030.74609      2862.844  
  22028963.719    22028969.133     -408008.29109   -290637.99109     -1037.406  
  22518086.406    22518090.426     1657144.39209   1176567.48509      4866.297  
  20089892.141    20089895.410      371004.20301    265739.14201      1160.891  
  22360897.289    22360900.887     -543924.54709   -387835.68409     -1399.500  
  24585548.492    24585553.156      842916.64009    536479.66909      2424.828  
 97  6 24 14 54 23.0000000  0  6G01G14G31G15G29G02
  22350637.352    22350641.465     1015161.29901    723261.78809      2863.500  
  22028766.383    22028771.773     -409045.51009   -291446.21309     -1037.063  
  22519012.734    22519016.730     1662010.88409   1180359.55409      4866.641  
  20090113.000    20090116.293      372165.34401    266643.92701      1161.359  
  22360631.242    22360634.770     -545323.81609   -388926.02309     -1399.063  
  24586010.492    24586014.652      845341.74109    538369.36009      2425.359  
 97  6 24 14 54 24.0000000  0  6G01G14G31G15G29G02
  22351182.078    22351186.238     1018025.12901    725493.34509      2864.172  
  22028569.094    22028574.543     -410082.37909   -292254.16209     -1036.656  
  22519938.680    22519942.652     1666877.68109   1184151.86309      4867.016  
  20090334.188    20090337.445      373326.95201    267549.07601      1161.891  
  22360365.023    22360368.527     -546722.68509   -390016.05209     -1398.609  
  24586471.258    24586475.406      847767.37909    540259.46409      2425.938  
 97  6 24 14 54 25.0000000  0  6G01G14G31G15G29G02
  22351727.289    22351731.508     1020889.68501    727725.46609      2864.953  
  22028371.875    22028377.254     -411118.77709   -293061.74409     -1036.156  
  22520864.820    22520868.711     1671744.94709   1187944.53709      4867.484  
  20090555.133    20090558.402      374489.14601    268454.68201      1162.500  
  22360099.117    22360102.691     -548121.00809   -391105.65409     -1398.063  
  24586933.945    24586938.551      850193.67809    542150.08609      2426.609  
 97  6 24 14 54 26.0000000  0  6G01G14G31G15G29G02
  22352272.641    22352276.836     1023754.82501    729958.04309      2865.359  
  22028174.703    22028180.047     -412154.88809   -293869.10209     -1036.000  
  22521791.203    22521795.047     1676612.47409   1191737.41409      4867.594  
  20090776.414    20090779.719      375651.74701    269360.60501      1162.750  
  22359832.789    22359836.469     -549518.97409   -392194.97809     -1397.828  
  24587395.500    24587400.516      852620.43909    544041.06009      2426.953  
 97  6 24 14 54 27.0000000  0  6G01G14G31G15G29G02
  22352818.109    22352822.258     1026620.57901    732191.09709      2866.203  
  22027977.688    22027983.078     -413190.63209   -294676.17409     -1035.453  
  22522717.578    22522721.516     1681480.32709   1195530.54509      4868.125  
  20090997.711    20091000.969      376814.81901    270266.89501      1163.422  
  22359566.992    22359570.742     -550916.53209   -393283.98309     -1397.234  
  24587857.047    24587862.121      855047.73809    545932.46509      2427.688  
 97  6 24 14 54 28.0000000  0  6G01G14G31G15G29G02
  22353363.328    22353367.500     1029487.02409    734424.69009      2866.797  
  22027780.648    22027785.980     -414225.97909   -295482.93601     -1035.109  
  22523643.984    22523647.816     1686348.55109   1199323.96609      4868.453  
  20091219.289    20091222.582      377978.40601    271173.58502      1163.875  
  22359300.969    22359304.707     -552313.62909   -394372.62809     -1396.844  
  24588319.305    24588323.711      857475.60909    547824.31509      2428.203  
 97  6 24 14 54 29.0000000  0  6G01G14G31G15G29G02
  22353909.242    22353913.344     1032354.15401    736658.81709      2867.438  
  22027583.977    22027589.344     -415260.88509   -296289.35501     -1034.719  
  22524570.172    22524574.145     1691217.19509   1203117.71209      4868.813  
  20091440.703    20091443.996      379142.53801    272080.69902      1164.359  
  22359035.367    22359039.070     -553710.25809   -395460.91009     -1396.406  
  24588781.984    24588786.332      859904.10009    549716.64509      2428.750  
 97  6 24 14 54 30.0000000  0  6G01G14G31G15G29G02
  22354454.727    22354458.910     1035221.94701    738893.45709      2868.219  
  22027386.734    22027392.125     -416295.37509   -297095.45009     -1034.203  
  22525497.102    22525501.086     1696086.22209   1206911.75709      4869.297  
  20091662.320    20091665.625      380307.18901    272988.22001      1165.000  
  22358769.633    22358773.359     -555106.41409   -396548.82309     -1395.828  
  24589243.406    24589248.234      862333.15909    551609.41509      2429.438  
 97  6 24 14 54 31.0000000  0  6G01G14G31G15G29G02
  22355000.750    22355004.957     1038090.41501    741128.62809      2868.703  
  22027189.984    22027195.445     -417329.45209   -297901.22209     -1033.969  
  22526423.594    22526427.613     1700955.62609   1210706.09609      4869.500  
  20091884.063    20091887.367      381472.36301    273896.14701      1165.344  
  22358503.977    22358507.680     -556502.08609   -397636.35909     -1395.531  
  24589706.453    24589711.516      864762.81809    553502.66409      2429.859  
 97  6 24 14 54 32.0000000  0  6G01G14G31G15G29G02
  22355546.563    22355550.852     1040959.53601    743364.30709      2869.453  
  22026993.398    22026998.707     -418363.14709   -298706.69809     -1033.484  
  22527350.391    22527354.516     1705825.37809   1214500.70509      4869.969  
  20092105.930    20092109.176      382638.04701    274804.47301      1165.953  
  22358238.641    22358242.309     -557897.29909   -398723.53709     -1394.953  
  24590167.852    24590173.008      867193.00309    555396.31209      2430.516  
 97  6 24 14 54 33.0000000  0  6G01G14G31G15G29G02
  22356092.672    22356096.949     1043829.31301    745600.49809      2870.125  
  22026796.883    22026802.227     -419396.43709   -299511.85709     -1033.078  
  22528277.016    22528281.082     1710695.50609   1218295.61109      4870.328  
  20092327.820    20092331.043      383804.24602    275713.19901      1166.484  
  22357973.258    22357976.902     -559292.04409   -399810.34909     -1394.500  
  24590631.617    24590636.609      869623.80709    557290.44309      2431.094  
 97  6 24 14 54 34.0000000  0  6G01G14G31G15G29G02
  22356639.016    22356643.223     1046699.78101    747837.22609      2870.688  
  22026600.102    22026605.469     -420429.29809   -300316.68309     -1032.766  
  22529203.773    22529207.898     1715566.05209   1222090.83809      4870.625  
  20092549.711    20092552.898      384970.99401    276622.35301      1166.891  
  22357707.664    22357711.191     -560686.27709   -400896.76409     -1394.109  
  24591094.008    24591099.070      872055.20009    559185.03509      2431.609  
 97  6 24 14 54 35.0000000  0  6G01G14G31G15G29G02
  22357185.438    22357189.680     1049570.92801    750074.48309      2871.469  
  22026403.695    22026409.074     -421461.73509   -301121.17909     -1032.234  
  22530130.672    22530134.809     1720436.98109   1225886.36509      4871.125  
  20092771.930    20092775.105      386138.27804    277531.92601      1167.547  
  22357442.406    22357446.016     -562080.02109   -401982.79809     -1393.500  
  24591556.141    24591562.082      874487.21009    561080.10809      2432.297  
 97  6 24 14 54 36.0000000  0  6G01G14G31G15G29G02
  22357731.734    22357736.035     1052442.76001    752312.27409      2872.219  
  22026207.508    22026212.863     -422493.73609   -301925.33509     -1031.750  
  22531057.688    22531061.965     1725308.32609   1229682.21709      4871.609  
  20092994.133    20092997.250      387306.10605    278441.92301      1168.156  
  22357177.453    22357181.074     -563473.29909   -403068.47009     -1392.984  
  24592019.922    24592025.207      876919.82809    562975.64909      2432.953  
 97  6 24 14 54 37.0000000  0  6G01G14G31G15G29G02
  22358278.539    22358282.852     1055315.25701    754550.58509      2872.750  
  22026011.117    22026016.473     -423525.34109   -302729.18009     -1031.484  
  22531984.680    22531989.063     1730180.05809   1233478.37109      4871.828  
  20093216.391    20093219.508      388474.46104    279352.32901      1168.531  
  22356912.469    22356916.102     -564866.08009   -404153.75409     -1392.625  
  24592482.914    24592487.660      879353.01009    564871.63209      2433.406  
 97  6 24 14 54 38.0000000  0  6G01G14G31G15G29G02
  22358825.227    22358829.457     1058188.29701    756789.31809      2873.484  
  22025814.805    22025820.125     -424556.65409   -303532.80109     -1030.984  
  22532911.898    22532916.469     1735052.04409   1237274.72409      4872.313  
  20093438.875    20093442.074      389643.22305    280263.05401      1169.141  
  22356647.352    22356651.137     -566258.50109   -405238.75509     -1392.063  
  24592945.703    24592950.449      881786.64909    566767.97809      2434.047  
 97  6 24 14 54 39.0000000  0  6G01G14G31G15G29G02
  22359372.039    22359376.141     1061062.17801    759028.70609      2874.125  
  22025618.539    22025623.836     -425587.37709   -304335.96009     -1030.625  
  22533839.070    22533843.582     1739924.61009   1241071.52909      4872.656  
  20093661.484    20093664.637      390812.68704    281174.32301      1169.625  
  22356382.547    22356386.285     -567650.28409   -406323.26009     -1391.672  
  24593409.406    24593413.613      884221.04109    568664.90409      2434.578  
 97  6 24 14 54 40.0000000  0  6G01G14G31G15G29G02
  22359919.008    22359923.051     1063936.65901    761268.56209      2874.797  
  22025422.602    22025427.957     -426617.76709   -305138.86009     -1030.188  
  22534766.359    22534770.895     1744797.47509   1244868.56509      4873.063  
  20093884.109    20093887.273      391982.59404    282085.94001      1170.172  
  22356117.617    22356121.273     -569041.69909   -407407.47909     -1391.203  
  24593872.336    24593876.813      886655.94109    570562.23709      2435.172  
 97  6 24 14 54 41.0000000  0  6G01G14G31G15G29G02
  22360466.094    22360470.230     1066811.67301    763508.83409      2875.313  
  22025226.742    22025232.051     -427647.87309   -305941.53909     -1029.922  
  22535693.633    22535698.238     1749670.60909   1248665.81109      4873.313  
  20094106.758    20094109.898      393152.88903    282997.85801      1170.531  
  22355853.195    22355856.945     -570432.78609   -408491.44309     -1390.859  
  24594335.844    24594340.180      889091.26209    572459.88509      2435.609  
 97  6 24 14 54 42.0000000  0  6G01G14G31G15G29G02
  22361013.305    22361017.535     1069687.21401    765749.51709      2875.766  
  22025030.695    22025035.992     -428677.68709   -306743.99109     -1029.719  
  22536621.164    22536625.723     1754544.01309   1252463.26709      4873.500  
  20094329.555    20094332.672      394323.58303    283910.08701      1170.844  
  22355588.398    22355592.078     -571823.52109   -409575.13109     -1390.594  
  24594800.180    24594804.727      891527.04709    574357.90209      2435.938  
 97  6 24 14 54 43.0000000  0  6G01G14G31G15G29G02
  22361560.648    22361564.855     1072563.26901    767990.59709      2876.406  
  22024835.016    22024840.336     -429707.23409   -307546.23309     -1029.328  
  22537548.414    22537552.961     1759417.66009   1256260.91309      4873.844  
  20094552.383    20094555.477      395494.63102    284822.59201      1171.328  
  22355323.984    22355327.547     -573213.94509   -410658.58109     -1390.188  
  24595263.219    24595267.332      893963.20809    576256.21309      2436.469  
 97  6 24 14 54 44.0000000  0  6G01G14G31G15G29G02
  22362108.078    22362112.250     1075440.03501    770232.23509      2877.094  
  22024639.016    22024644.324     -430736.32409   -308348.11909     -1028.891  
  22538475.938    22538480.496     1764291.71809   1260058.87909      4874.250  
  20094775.305    20094778.434      396666.25002    285735.54301      1171.875  
  22355059.359    22355063.004     -574603.87809   -411741.64609     -1389.703  
  24595726.727    24595730.805      896399.98909    578154.99709      2437.031  
 97  6 24 14 54 45.0000000  0  6G01G14G31G15G29G02
  22362655.578    22362659.844     1078317.43101    772474.36209      2877.641  
  22024443.250    22024448.547     -431765.03809   -309149.71409     -1028.594  
  22539403.625    22539408.160     1769166.13509   1263857.12409      4874.500  
  20094998.422    20095001.551      397838.34701    286648.86501      1172.250  
  22354795.023    22354798.715     -575993.39009   -412824.38309     -1389.375  
  24596190.656    24596194.793      898837.28409    580054.18209      2437.469  
 97  6 24 14 54 46.0000000  0  6G01G14G31G15G29G02
  22363203.313    22363207.648     1081195.38501    774716.92209      2878.375  
  22024247.477    22024252.762     -432793.43909   -309951.06409     -1028.125  
  22540331.305    22540335.711     1774040.83309   1267655.59009      4874.938  
  20095221.672    20095224.777      399010.85801    287562.51001      1172.844  
  22354530.523    22354534.215     -577382.54209   -413906.84009     -1388.859  
  24596654.906    24596658.422      901275.02709    581953.71909      2438.109  
 97  6 24 14 54 47.0000000  0  6G01G14G31G15G29G02
  22363751.180    22363755.516     1084074.05401    776960.04009      2879.078  
  22024052.000    22024057.332     -433821.37309   -310752.05009     -1027.641  
  22541258.922    22541263.246     1778915.97109   1271454.39609      4875.422  
  20095444.828    20095447.945      400183.94401    288476.60301      1173.422  
  22354266.344    22354269.965     -578771.18709   -414988.89909     -1388.328  
  24597118.617    24597122.473      903713.39309    583853.75309      2438.703  
 97  6 24 14 54 48.0000000  0  6G01G14G31G15G29G02
  22364299.266    22364303.555     1086953.54701    779203.80109      2879.859  
  22023856.469    22023861.813     -434848.74109   -311552.59409     -1027.125  
  22542186.625    22542190.949     1783791.66109   1275253.63209      4875.922  
  20095668.211    20095671.352      401357.71001    289391.22801      1174.063  
  22354002.117    22354005.703     -580159.22009   -416070.48409     -1387.766  
  24597582.609    24597586.945      906152.48809    585754.35409      2439.406  
 97  6 24 14 54 49.0000000  0  6G01G14G31G15G29G02
  22364847.406    22364851.695     1089833.84701    781448.18909      2880.672  
  22023661.047    22023666.402     -435875.53309   -312352.69109     -1026.547  
  22543114.656    22543118.945     1788667.86509   1279053.26809      4876.438  
  20095891.555    20095894.707      402532.13901    290306.36601      1174.719  
  22353738.195    22353741.641     -581546.63109   -417151.58309     -1387.141  
  24598047.367    24598051.855      908592.27709    587655.48809      2440.109  
 97  6 24 14 54 50.0000000  0  6G01G14G31G15G29G02
  22365395.469    22365399.699     1092714.85001    783693.12609      2881.359  
  22023465.563    22023470.906     -436901.85909   -313152.42409     -1026.078  
  22544042.727    22544047.016     1793544.50609   1282853.24709      4876.891  
  20096115.305    20096118.527      403707.13901    291221.95001      1175.297  
  22353474.133    22353477.648     -582933.51909   -418232.27809     -1386.609  
  24598511.953    24598515.480      911032.67909    589557.10909      2440.734  
 97  6 24 14 54 51.0000000  0  6G01G14G31G15G29G02
  22365943.734    22365947.953     1095596.65201    785938.68509      2882.000  
  22023270.641    22023275.996     -437927.63509   -313951.72809     -1025.688  
  22544970.836    22544975.125     1798421.65309   1286653.62109      4877.203  
  20096338.961    20096342.090      404882.79401    292138.04501      1175.781  
  22353210.117    22353213.609     -584319.82309   -419312.51309     -1386.203  
  24598975.969    24598979.180      913473.78409    591459.27709      2441.266  
 97  6 24 14 54 52.0000000  0  6G01G14G31G15G29G02
  22366492.336    22366496.625     1098479.01901    788184.68409      2882.703  
  22023075.156    22023080.418     -438953.06609   -314750.76409     -1025.219  
  22545898.750    22545903.027     1803299.13009   1290454.25009      4877.641  
  20096562.789    20096565.871      406058.88101    293054.47701      1176.344  
  22352946.586    22352949.938     -585705.73309   -420392.44209     -1385.672  
  24599440.125    24599443.219      915915.37609    593361.81109      2441.891  
 97  6 24 14 54 53.0000000  0  6G01G14G31G15G29G02
  22367040.781    22367045.059     1101361.97301    790431.14109      2883.344  
  22022880.297    22022885.605     -439978.15609   -315549.53609     -1024.813  
  22546827.086    22546831.457     1808176.88109   1294255.09309      4878.000  
  20096786.773    20096789.855      407235.41501    293971.25501      1176.859  
  22352682.672    22352686.129     -587091.25609   -421472.07209     -1385.234  
  24599904.664    24599908.648      918357.45309    595264.71809      2442.438  
 97  6 24 14 54 54.0000000  0  6G01G14G31G15G29G02
  22367589.516    22367593.758     1104245.67201    792678.17909      2884.125  
  22022685.352    22022690.578     -441002.73809   -316347.91109     -1024.266  
  22547755.055    22547759.566     1813055.09309   1298056.29809      4878.500  
  20097010.813    20097013.883      408412.55401    294888.50601      1177.500  
  22352419.422    22352422.996     -588476.24409   -422551.28309     -1384.656  
  24600370.078    24600373.395      920800.19309    597168.14109      2443.109  
 97  6 24 14 54 55.0000000  0  6G01G14G31G15G29G02
  22368138.508    22368142.727     1107130.05701    794925.75209      2884.516  
  22022490.664    22022495.914     -442026.86109   -317145.92909     -1024.125  
  22548683.570    22548687.965     1817933.72209   1301857.82809      4878.609  
  20097234.852    20097238.016      409590.24901    295806.19001      1177.750  
  22352155.836    22352159.375     -589860.71509   -423630.09109     -1384.438  
  24600835.094    24600838.855      923243.52109    599072.03509      2443.438  
 97  6 24 14 54 56.0000000  0  6G01G14G31G15G29G02
  22368687.344    22368691.539     1110014.88001    797173.66709      2885.188  
  22022295.750    22022301.059     -443050.79309   -317943.79709     -1023.672  
  22549611.742    22549616.160     1822812.50509   1305659.47509      4879.000  
  20097458.828    20097461.980      410768.23301    296724.10101      1178.281  
  22351892.445    22351895.949     -591244.94209   -424708.70909     -1383.953  
  24601299.992    24601303.730      925687.21609    600976.20909      2444.000  
 97  6 24 14 54 57.0000000  0  6G01G14G31G15G29G02
  22369236.398    22369240.652     1112900.50301    799422.20309      2885.969  
  22022100.766    22022106.016     -444074.17909   -318741.24009     -1023.141  
  22550540.742    22550545.277     1827691.79209   1309461.51709      4879.531  
  20097683.258    20097686.434      411946.87701    297642.52601      1178.938  
  22351629.344    22351632.719     -592628.58709   -425786.87409     -1383.391  
  24601764.813    24601768.305      928131.61209    602880.93409      2444.734  
 97  6 24 14 54 58.0000000  0  6G01G14G31G15G29G02
  22369785.805    22369790.082     1115786.92601    801671.36409      2886.781  
  22021906.125    22021911.375     -445096.97809   -319538.22609     -1022.563  
  22551469.117    22551473.582     1832571.62809   1313263.98509      4880.047  
  20097907.531    20097910.660      413126.19001    298561.47201      1179.609  
  22351366.133    22351369.473     -594011.61409   -426864.55409     -1382.781  
  24602230.828    24602234.355      930576.73209    604786.22809      2445.453  
 97  6 24 14 54 59.0000000  0  6G01G14G31G15G29G02
  22370335.336    22370339.637     1118674.03401    803921.05709      2887.469  
  22021711.766    22021716.980     -446119.32209   -320334.85801     -1022.078  
  22552398.117    22552402.664     1837451.87209   1317066.77209      4880.500  
  20098132.297    20098135.461      414306.06201    299480.85301      1180.188  
  22351102.945    22351106.402     -595394.15409   -427941.85809     -1382.250  
  24602696.391    24602700.012      933022.48209    606692.00009      2446.078  
 97  6 24 14 55  0.0000000  0  6G01G14G31G15G29G02
  22370884.633    22370888.922     1121561.96301    806171.39009      2888.281  
  22021517.055    22021522.340     -447141.09909   -321131.04801     -1021.531  
  22553326.641    22553331.211     1842332.63509   1320869.96409      4881.000  
  20098356.922    20098360.121      415486.60001    300400.75002      1180.828  
  22350840.203    22350843.672     -596776.08209   -429018.68409     -1381.672  
  24603161.617    24603165.156      935468.96009    608598.34009      2446.813  
 97  6 24 14 55  1.0000000  0  6G01G14G31G15G29G02
  22371434.438    22371438.703     1124450.62101    808422.29209      2889.047  
  22021322.820    22021328.082     -448162.35609   -321926.83301     -1021.000  
  22554255.539    22554259.992     1847213.87409   1324673.52509      4881.469  
  20098581.641    20098584.816      416667.74101    301321.12002      1181.453  
  22350577.328    22350580.867     -598157.45909   -430095.08009     -1381.109  
  24603626.969    24603630.531      937916.10309    610505.20909      2447.500  
 97  6 24 14 55  2.0000000  0  6G01G14G31G15G29G02
  22371984.125    22371988.379     1127339.95909    810673.72509      2889.625  
  22021128.453    22021133.691     -449183.17009   -322722.27101     -1020.625  
  22555184.336    22555188.813     1852095.50909   1328477.39509      4881.797  
  20098806.563    20098809.727      417849.42301    302241.91103      1181.906  
  22350314.484    22350318.105     -599538.34909   -431171.09609     -1380.688  
  24604092.633    24604096.008      940363.85209    612412.55709      2448.031  
 97  6 24 14 55  3.0000000  0  6G01G14G31G15G29G02
  22372534.203    22372538.504     1130229.93209    812925.65209      2890.297  
  22020934.477    22020939.762     -450203.58709   -323517.39901     -1020.188  
  22556113.578    22556118.020     1856977.49909   1332281.53909      4882.172  
  20099031.453    20099034.594      419031.60501    303163.09003      1182.438  
  22350051.633    22350055.383     -600918.79609   -432246.76709     -1380.203  
  24604559.383    24604562.336      942812.17609    614320.34609      2448.625  
 97  6 24 14 55  4.0000000  0  6G01G14G31G15G29G02
  22373084.438    22373088.797     1133120.57901    815178.10409      2891.000  
  22020740.266    22020745.563     -451223.53509   -324312.16101     -1019.734  
  22557042.703    22557047.074     1861859.88609   1336085.99209      4882.578  
  20099256.547    20099259.641      420214.31901    304084.68703      1183.000  
  22349789.227    22349792.965     -602298.75709   -433322.06009     -1379.734  
  24605024.547    24605027.453      945261.09409    616228.58809      2449.234  
 97  6 24 14 55  5.0000000  0  6G01G14G31G15G29G02
  22373634.383    22373638.789     1136011.91501    817431.09209      2891.719  
  22020546.523    22020551.879     -452243.04009   -325106.57801     -1019.219  
  22557971.789    22557976.195     1866742.66309   1339890.75009      4883.031  
  20099481.789    20099484.848      421397.58001    305006.70803      1183.578  
  22349526.813    22349530.492     -603678.24409   -434396.98209     -1379.188  
  24605490.609    24605494.078      947710.61309    618137.30109      2449.875  
 97  6 24 14 55  6.0000000  0  6G01G14G31G15G29G02
  22374185.273    22374189.727     1138903.99901    819684.66609      2892.422  
  22020352.461    22020357.746     -453262.02109   -325900.58801     -1018.766  
  22558900.961    22558905.402     1871625.91709   1343695.88209      4883.438  
  20099706.992    20099710.039      422581.45701    305929.20903      1184.141  
  22349264.367    22349268.070     -605057.16509   -435471.46409     -1378.688  
  24605957.023    24605960.598      950160.80809    620046.54509      2450.469  
 97  6 24 14 55  7.0000000  0  6G01G14G31G15G29G02
  22374735.539    22374739.922     1141796.71201    821938.72509      2893.047  
  22020158.695    22020163.969     -454280.58109   -326694.26901     -1018.344  
  22559830.195    22559834.602     1876509.51709   1347501.28209      4883.797  
  20099932.445    20099935.527      423765.81701    306852.08703      1184.641  
  22349001.805    22349005.508     -606435.65609   -436545.61009     -1378.250  
  24606423.523    24606427.438      952611.54509    621956.20709      2451.047  
 97  6 24 14 55  8.0000000  0  6G01G14G31G15G29G02
  22375285.992    22375290.375     1144690.12401    824193.33109      2893.828  
  22019964.953    22019970.191     -455298.66709   -327487.58209     -1017.766  
  22560759.867    22560764.086     1881393.53509   1351307.00809      4884.266  
  20100157.891    20100161.043      424950.73401    307775.39901      1185.250  
  22348739.727    22348743.523     -607813.62709   -437619.35109     -1377.641  
  24606890.586    24606894.148      955062.90409    623866.35209      2451.734  
 97  6 24 14 55  9.0000000  0  6G01G14G31G15G29G02
  22375836.648    22375841.031     1147584.23301    826448.48309      2894.359  
  22019771.383    22019776.598     -456316.27701   -328280.52309     -1017.469  
  22561689.430    22561693.730     1886277.96009   1355113.05309      4884.531  
  20100383.313    20100386.418      426136.21601    308699.15101      1185.656  
  22348477.570    22348481.414     -609191.09709   -438692.70409     -1377.313  
  24607357.016    24607360.719      957514.87509    625776.98209      2452.188  
 97  6 24 14 55 10.0000000  0  6G01G14G31G15G29G02
  22376387.461    22376391.902     1150478.83301    828704.01809      2894.875  
  22019577.711    22019582.902     -457333.60001   -329073.24209     -1017.172  
  22562618.703    22562623.098     1891162.58809   1358919.25609      4884.766  
  20100609.188    20100612.293      427322.04301    309623.17301      1186.031  
  22348215.414    22348219.188     -610568.24209   -439765.80209     -1376.984  
  24607823.484    24607827.199      959967.25609    627687.93509      2452.625  
 97  6 24 14 55 11.0000000  0  6G01G14G31G15G29G02
  22376938.406    22376942.895     1153373.97901    830959.97709      2895.500  
  22019384.195    22019389.434     -458350.60901   -329865.71509     -1016.750  
  22563548.078    22563552.426     1896047.48209   1362725.66609      4885.078  
  20100834.789    20100837.871      428508.28501    310547.51701      1186.516  
  22347953.563    22347957.430     -611945.03909   -440838.63009     -1376.531  
  24608290.492    24608294.160      962420.11509    629599.26109      2453.141  
 97  6 24 14 55 12.0000000  0  6G01G14G31G15G29G02
  22377489.484    22377494.055     1156269.74501    833216.41709      2896.047  
  22019190.828    22019195.949     -459367.22401   -330657.88209     -1016.438  
  22564478.094    22564482.453     1900932.70109   1366532.32709      4885.359  
  20101060.586    20101063.715      429695.00601    311472.23401      1186.922  
  22347691.688    22347695.484     -613321.41409   -441911.12909     -1376.188  
  24608756.992    24608760.203      964873.48809    631510.97709      2453.625  
 97  6 24 14 55 13.0000000  0  6G01G14G31G15G29G02
  22378040.500    22378045.105     1159166.10101    835473.31809      2896.641  
  22018997.406    22019002.504     -460383.46201   -331449.75601     -1016.078  
  22565407.711    22565411.988     1905818.21109   1370339.21609      4885.641  
  20101286.547    20101289.664      430882.17301    312397.29801      1187.375  
  22347429.859    22347433.668     -614697.39509   -442983.32109     -1375.813  
  24609224.188    24609227.492      967327.38409    633423.10309      2454.125  
 97  6 24 14 55 14.0000000  0  6G01G14G31G15G29G02
  22378591.813    22378596.418     1162063.01801    837730.65609      2897.219  
  22018804.063    22018809.195     -461399.36301   -332241.36601     -1015.703  
  22566337.289    22566341.543     1910703.98509   1374146.31109      4885.938  
  20101512.508    20101515.543      432069.76601    313322.69502      1187.828  
  22347167.984    22347171.840     -616073.02009   -444055.23609     -1375.438  
  24609691.758    24609695.367      969781.73909    635335.57909      2454.641  
 97  6 24 14 55 15.0000000  0  6G01G14G31G15G29G02
  22379143.266    22379147.766     1164960.61709    839988.52609      2898.031  
  22018610.758    22018615.820     -462414.82001   -333032.63001     -1015.125  
  22567266.922    22567271.070     1915590.16009   1377953.71709      4886.453  
  20101738.703    20101741.715      433257.89401    314248.50901      1188.484  
  22346905.961    22346909.828     -617448.19409   -445126.80109     -1374.828  
  24610158.539    24610162.898      972236.70609    637248.52809      2455.344  
 97  6 24 14 55 16.0000000  0  6G01G14G31G15G29G02
  22379694.938    22379699.520     1167858.92809    842246.95009      2898.625  
  22018417.563    22018422.578     -463429.77001   -333823.49909     -1014.766  
  22568196.891    22568200.969     1920476.75509   1381761.45109      4886.766  
  20101964.945    20101967.969      434446.59101    315174.76701      1188.938  
  22346644.578    22346648.563     -618822.82009   -446197.93509     -1374.438  
  24610625.859    24610630.289      974692.28409    639161.95309      2455.859  
 97  6 24 14 55 17.0000000  0  6G01G14G31G15G29G02
  22380246.570    22380251.258     1170757.95801    844505.93509      2899.250  
  22018224.648    22018229.652     -464444.23501   -334613.99009     -1014.344  
  22569126.961    22569131.004     1925363.77609   1385569.51709      4887.094  
  20102191.094    20102194.117      435635.86301    316101.47201      1189.422  
  22346383.000    22346386.914     -620196.96009   -447268.69109     -1374.000  
  24611093.164    24611097.465      977148.49509    641075.88209      2456.391  
 97  6 24 14 55 18.0000000  0  6G01G14G31G15G29G02
  22380798.297    22380802.809     1173657.49701    846765.31509      2899.813  
  22018031.617    22018036.621     -465458.42401   -335404.26609     -1014.031  
  22570056.984    22570061.004     1930251.02109   1389377.75809      4887.359  
  20102417.602    20102420.613      436825.50701    317028.46801      1189.844  
  22346121.711    22346125.730     -621570.79909   -448339.21309     -1373.672  
  24611560.320    24611564.328      979605.11409    642990.12309      2456.844  
 97  6 24 14 55 19.0000000  0  6G01G14G31G15G29G02
  22381350.359    22381355.012     1176557.58301    849025.12309      2900.375  
  22017838.531    22017843.512     -466472.28401   -336194.28809     -1013.703  
  22570987.000    22570990.973     1935138.53009   1393186.20709      4887.625  
  20102644.047    20102647.070      438015.54601    317955.77101      1190.250  
  22345860.492    22345864.605     -622944.30309   -449409.47209     -1373.344  
  24612027.820    24612031.734      982062.18709    644904.72609      2457.328  
 97  6 24 14 55 20.0000000  0  6G01G14G31G15G29G02
  22381902.180    22381906.820     1179458.24601    851285.37809      2900.969  
  22017645.844    22017650.777     -467485.81401   -336984.04909     -1013.328  
  22571916.781    22571920.613     1940026.29609   1396994.85409      4887.922  
  20102870.477    20102873.488      439206.00801    318883.40401      1190.703  
  22345598.945    22345603.117     -624317.47609   -450479.47609     -1372.969  
  24612495.219    24612498.688      984519.73409    646819.69209      2457.828  
 97  6 24 14 55 21.0000000  0  6G01G14G31G15G29G02
  22382454.359    22382458.977     1182359.53901    853546.12609      2901.547  
  22017453.000    22017457.945     -468498.94009   -337773.49801     -1012.984  
  22572847.461    22572851.270     1944914.41209   1400803.77409      4888.234  
  20103097.180    20103100.227      440396.96901    319811.42501      1191.141  
  22345337.742    22345341.832     -625690.22509   -451549.14809     -1372.594  
  24612962.961    24612965.984      986977.84609    648735.10509      2458.344  
 97  6 24 14 55 22.0000000  0  6G01G14G31G15G29G02
  22383006.484    22383011.219     1185261.36401    855807.28809      2902.156  
  22017260.219    22017265.188     -469511.74509   -338562.69601     -1012.609  
  22573777.328    22573781.195     1949802.77209   1404612.88609      4888.578  
  20103323.844    20103326.879      441588.32101    320739.75001      1191.609  
  22345076.773    22345080.852     -627062.63609   -452618.55909     -1372.188  
  24613431.086    24613434.473      989436.40909    650650.86209      2458.859  
 97  6 24 14 55 23.0000000  0  6G01G14G31G15G29G02
  22383559.031    22383563.754     1188163.82801    858068.94909      2902.672  
  22017067.578    22017072.547     -470524.14909   -339351.58201     -1012.297  
  22574707.906    22574711.902     1954691.50709   1408422.28909      4888.797  
  20103550.773    20103553.820      442780.16901    321668.46401      1191.969  
  22344815.484    22344819.516     -628434.62009   -453687.63709     -1371.891  
  24613898.867    24613902.594      991895.54009    652567.06809      2459.297  
 97  6 24 14 55 24.0000000  0  6G01G14G31G15G29G02
  22384111.195    22384115.824     1191066.89201    860331.07609      2903.438  
  22016875.055    22016880.059     -471536.18009   -340140.17701     -1011.766  
  22575638.352    22575642.324     1959580.53809   1412231.92409      4889.250  
  20103777.531    20103780.555      443972.47901    322597.53501      1192.609  
  22344554.570    22344558.602     -629806.22009   -454756.41709     -1371.328  
  24614366.742    24614370.527      994355.20009    654483.68809      2459.984  
 97  6 24 14 55 25.0000000  0  6G01G14G31G15G29G02
  22384663.586    22384668.180     1193970.64001    862593.73709      2904.094  
  22016682.516    22016687.555     -472547.71509   -340928.38601     -1011.328  
  22576568.656    22576572.641     1964469.96809   1416041.86709      4889.625  
  20104004.609    20104007.633      445165.33201    323527.03102      1193.125  
  22344293.211    22344297.195     -631177.33009   -455824.81409     -1370.875  
  24614835.797    24614839.652      996815.45609    656400.77709      2460.563  
 97  6 24 14 55 26.0000000  0  6G01G14G31G15G29G02
  22385216.469    22385221.027     1196874.96401    864856.84509      2904.609  
  22016490.086    22016495.113     -473558.91209   -341716.33101     -1010.984  
  22577499.266    22577503.227     1969359.71509   1419852.05709      4889.891  
  20104231.883    20104234.895      446358.62001    324456.86603      1193.516  
  22344032.805    22344036.719     -632548.07509   -456892.92709     -1370.563  
  24615303.336    24615307.309      999276.20509    658318.24209      2461.000  
 97  6 24 14 55 27.0000000  0  6G01G14G31G15G29G02
  22385769.172    22385773.648     1199779.90501    867120.43509      2905.250  
  22016297.555    22016302.652     -474569.70401   -342503.95901     -1010.578  
  22578429.711    22578433.813     1974249.80109   1423662.51209      4890.250  
  20104458.859    20104461.824      447552.38101    325387.06903      1194.000  
  22343771.977    22343775.820     -633918.42409   -457960.73109     -1370.141  
  24615771.695    24615775.035     1001737.48909    660236.13109      2461.563  
 97  6 24 14 55 28.0000000  0  6G01G14G31G15G29G02
  22386322.305    22386326.570     1202685.47501    869384.51409      2905.969  
  22016105.414    22016110.523     -475580.07101   -343291.25701     -1010.078  
  22579360.602    22579364.680     1979140.21609   1427473.22309      4890.688  
  20104686.117    20104689.047      448746.62801    326317.65104      1194.578  
  22343511.297    22343515.094     -635288.36009   -459028.21309     -1369.625  
  24616240.164    24616243.211     1004199.33409    662154.45309      2462.188  
 97  6 24 14 55 29.0000000  0  6G01G14G31G15G29G02
  22386875.250    22386879.457     1205591.77701    871649.16309      2906.594  
  22015913.313    22015918.375     -476589.92801   -344078.15801     -1009.672  
  22580291.031    22580295.051     1984031.09709   1431284.29609      4891.016  
  20104913.461    20104916.426      449941.47001    327248.69604      1195.047  
  22343251.000    22343254.750     -636657.75809   -460095.27509     -1369.234  
  24616709.398    24616712.715     1006661.82109    664073.27509      2462.719  
 97  6 24 14 55 30.0000000  0  6G01G14G31G15G29G02
  22387428.227    22387432.363     1208498.64201    873914.25209      2907.219  
  22015721.047    22015726.051     -477599.45201   -344864.79801     -1009.266  
  22581221.898    22581226.012     1988922.24609   1435095.57909      4891.344  
  20105141.016    20105144.039      451136.72801    328180.06704      1195.531  
  22342990.203    22342993.977     -638026.83409   -461162.08909     -1368.813  
  24617177.539    24617181.172     1009124.79409    665992.47309      2463.297  
 97  6 24 14 55 31.0000000  0  6G01G14G31G15G29G02
  22387981.742    22387985.844     1211406.21401    876179.89309      2907.891  
  22015529.039    22015534.066     -478608.46301   -345651.04101     -1008.813  
  22582152.781    22582156.754     1993813.83409   1438907.20409      4891.781  
  20105368.484    20105371.543      452332.55301    329111.87903      1196.078  
  22342730.102    22342733.887     -639395.40609   -462228.50909     -1368.344  
  24617645.633    24617649.313     1011588.41209    667912.17609      2463.891  
 97  6 24 14 55 32.0000000  0  6G01G14G31G15G29G02
  22388535.141    22388539.301     1214314.36409    878445.98409      2908.531  
  22015337.461    22015342.477     -479617.11701   -346437.00301     -1008.344  
  22583083.578    22583087.738     1998705.72309   1442719.06309      4892.141  
  20105596.078    20105599.125      453528.82001    330044.03503      1196.594  
  22342469.531    22342473.305     -640763.58609   -463294.62509     -1367.891  
  24618115.172    24618119.801     1014052.53809    669832.27909      2464.484  
 97  6 24 14 55 33.0000000  0  6G01G14G31G15G29G02
  22389088.617    22389092.660     1217223.18209    880712.59409      2909.063  
  22015145.281    22015150.250     -480625.31401   -347222.61101     -1008.047  
  22584014.438    22584018.680     2003597.99909   1446531.22609      4892.391  
  20105823.844    20105826.867      454725.62801    330976.61303      1196.984  
  22342209.109    22342212.777     -642131.30809   -464360.38009     -1367.563  
  24618584.086    24618588.492     1016517.25709    671752.84109      2464.938  
 97  6 24 14 55 34.0000000  0  6G01G14G31G15G29G02
  22389642.242    22389646.227     1220132.51809    882979.60809      2909.625  
  22014953.719    22014958.652     -481633.16801   -348007.95101     -1007.688  
  22584945.438    22584949.598     2008490.53909   1450343.59309      4892.688  
  20106051.672    20106054.719      455922.82701    331909.49403      1197.422  
  22341949.102    22341952.781     -643498.68909   -465425.87309     -1367.203  
  24619054.000    24619058.160     1018982.46609    673673.79009      2465.469  
 97  6 24 14 55 35.0000000  0  6G01G14G31G15G29G02
  22390195.789    22390199.844     1223042.52209    885247.14309      2910.359  
  22014761.625    22014766.500     -482640.56401   -348792.93401     -1007.141  
  22585876.602    22585880.750     2013383.47209   1454156.26709      4893.156  
  20106279.609    20106282.656      457120.57401    332842.80304      1198.031  
  22341688.844    22341692.500     -644865.58809   -466490.99109     -1366.641  
  24619523.352    24619527.383     1021448.28709    675595.19909      2466.172  
 97  6 24 14 55 36.0000000  0  6G01G14G31G15G29G02
  22390749.820    22390753.898     1225953.14409    887515.15809      2910.875  
  22014570.344    22014575.230     -483647.55401   -349577.60101     -1006.844  
  22586807.813    22586812.078     2018276.73509   1457969.20009      4893.375  
  20106507.563    20106510.621      458318.80201    333776.48803      1198.406  
  22341428.984    22341432.641     -646232.07809   -467555.79109     -1366.328  
  24619992.141    24619996.582     1023914.66409    677517.05209      2466.625  
 97  6 24 14 55 37.0000000  0  6G01G14G31G15G29G02
  22391303.766    22391307.902     1228864.31009    889783.60009      2911.500  
  22014378.734    22014383.609     -484654.19501   -350361.99701     -1006.438  
  22587738.789    22587742.938     2023170.27309   1461782.34609      4893.734  
  20106735.617    20106738.664      459517.44901    334710.49804      1198.906  
  22341168.641    22341172.297     -647598.19909   -468620.30009     -1365.891  
  24620461.023    24620465.559     1026381.55009    679439.30909      2467.188  
 97  6 24 14 55 38.0000000  0  6G01G14G31G15G29G02
  22391858.063    22391862.188     1231776.19409    892052.60109      2912.313  
  22014186.953    22014191.852     -485660.34701   -351146.01001     -1005.813  
  22588670.242    22588674.520     2028064.25109   1465595.83509      4894.250  
  20106964.031    20106967.055      460716.67301    335644.95804      1199.578  
  22340909.258    22340912.949     -648963.79209   -469684.39909     -1365.281  
  24620931.359    24620935.332     1028849.08609    681362.07309      2467.938  
 97  6 24 14 55 39.0000000  0  6G01G14G31G15G29G02
  22392412.172    22392416.309     1234688.83801    894322.19309      2913.000  
  22013995.641    22014000.563     -486665.96301   -351929.60601     -1005.359  
  22589601.727    22589605.875     2032958.68309   1469409.67809      4894.656  
  20107192.289    20107195.324      461916.51801    336579.90105      1200.141  
  22340649.109    22340652.754     -650328.84409   -470748.07409     -1364.797  
  24621400.898    24621405.000     1031317.31309    683285.36209      2468.563  
 97  6 24 14 55 40.0000000  0  6G01G14G31G15G29G02
  22392966.617    22392970.766     1237602.27401    896592.40309      2913.813  
  22013804.656    22013809.566     -487670.98301   -352712.73701     -1004.766  
  22590533.227    22590537.105     2037853.61109   1473223.90709      4895.156  
  20107420.695    20107423.684      463117.02201    337515.35902      1200.813  
  22340389.508    22340393.152     -651693.30209   -471811.28809     -1364.188  
  24621870.367    24621874.750     1033786.27709    685209.23709      2469.297  
 97  6 24 14 55 41.0000000  0  6G01G14G31G15G29G02
  22393521.234    22393525.477     1240516.46201    898863.20009      2914.578  
  22013613.523    22013618.375     -488675.47201   -353495.45509     -1004.203  
  22591464.688    22591468.484     2042749.00109   1477038.49309      4895.625  
  20107649.156    20107652.074      464318.14901    338451.30301      1201.453  
  22340130.102    22340133.875     -653057.21409   -472874.07409     -1363.625  
  24622340.477    24622345.445     1036255.94409    687133.65109      2470.047  
 97  6 24 14 55 42.0000000  0  6G01G14G31G15G29G02
  22394075.961    22394080.168     1243431.39101    901134.57409      2915.156  
  22013422.266    22013427.059     -489679.45001   -354277.77409     -1003.859  
  22592396.414    22592400.117     2047644.82809   1480853.42409      4895.906  
  20107877.883    20107880.836      465519.88601    339387.72201      1201.891  
  22339870.523    22339874.391     -654420.58309   -473936.44009     -1363.234  
  24622810.617    24622816.090     1038726.28509    689058.58709      2470.547  
 97  6 24 14 55 43.0000000  0  6G01G14G31G15G29G02
  22394630.430    22394634.578     1246346.89409    903406.39609      2915.875  
  22013231.313    22013236.082     -490683.05301   -355059.80209     -1003.344  
  22593328.117    22593331.797     2052540.94409   1484668.57809      4896.344  
  20108106.703    20108109.703      466722.07202    340324.48901      1202.500  
  22339611.078    22339615.016     -655783.56509   -474998.50309     -1362.719  
  24623280.414    24623286.262     1041197.18409    690983.95609      2471.234  
 97  6 24 14 55 44.0000000  0  6G01G14G31G15G29G02
  22395185.688    22395189.789     1249263.06409    905678.73909      2916.500  
  22013040.563    22013045.332     -491686.20401   -355841.47909     -1002.922  
  22594259.680    22594263.277     2057437.47309   1488484.05109      4896.719  
  20108335.633    20108338.586      467924.80202    341261.68101      1203.000  
  22339351.867    22339355.828     -657146.09409   -476060.21309     -1362.297  
  24623751.063    24623757.566     1043668.69609    692909.81209      2471.844  
 97  6 24 14 55 45.0000000  0  6G01G14G31G15G29G02
  22395740.617    22395744.707     1252179.90409    907951.59909      2917.234  
  22012849.914    22012854.660     -492688.92601   -356622.82009     -1002.438  
  22595191.742    22595195.398     2062334.36209   1492299.80709      4897.141  
  20108564.586    20108567.516      469128.06201    342199.28501      1203.594  
  22339092.906    22339096.902     -658508.16109   -477121.56209     -1361.781  
  24624222.000    24624228.941     1046140.81609    694836.13909      2472.500  
 97  6 24 14 55 46.0000000  0  6G01G14G31G15G29G02
  22396295.969    22396300.094     1255097.38009    910224.95709      2917.750  
  22012659.086    22012663.855     -493691.22301   -357403.82909     -1002.156  
  22596123.781    22596127.414     2067231.59809   1496115.83309      4897.359  
  20108793.758    20108796.699      470331.83901    343137.29401      1203.969  
  22338833.695    22338837.715     -659869.78109   -478182.56209     -1361.453  
  24624692.141    24624698.891     1048613.54709    696762.94309      2472.953  
 97  6 24 14 55 47.0000000  0  6G01G14G31G15G29G02
  22396851.203    22396855.375     1258015.38509    912498.72809      2918.328  
  22012468.359    22012473.129     -494693.22801   -358184.61009     -1001.781  
  22597055.797    22597059.289     2072129.07709   1499932.04709      4897.656  
  20109022.797    20109025.727      471536.01201    344075.61001      1204.438  
  22338574.727    22338578.711     -661231.07409   -479243.30609     -1361.063  
  24625162.398    24625168.961     1051086.77309    698690.12709      2473.516  
 97  6 24 14 55 48.0000000  0  6G01G14G31G15G29G02
  22397406.328    22397410.500     1260933.98601    914772.96309      2918.969  
  22012277.844    22012282.531     -495694.87501   -358965.11209     -1001.391  
  22597987.766    22597991.152     2077026.84009   1503748.48709      4897.953  
  20109252.086    20109255.063      472740.65201    345014.29001      1204.938  
  22338315.797    22338319.887     -662591.95509   -480303.72909     -1360.641  
  24625633.992    24625639.477     1053560.52109    700617.72009      2474.078  
 97  6 24 14 55 49.0000000  0  6G01G14G31G15G29G02
  22397962.289    22397966.367     1263853.21401    917047.68409      2919.453  
  22012087.070    22012091.734     -496696.11801   -359745.30201     -1001.141  
  22598919.836    22598923.328     2081924.90109   1507565.15509      4898.156  
  20109481.398    20109484.398      473945.78301    345953.35302      1205.297  
  22338057.023    22338061.195     -663952.44009   -481363.84509     -1360.359  
  24626104.250    24626109.488     1056034.85909    702545.77209      2474.531  
 97  6 24 14 55 50.0000000  0  6G01G14G31G15G29G02
  22398517.594    22398521.613     1266772.93801    919322.79309      2920.109  
  22011896.813    22011901.523     -497697.10601   -360525.29001     -1000.719  
  22599851.641    22599855.227     2086823.18909   1511382.00209      4898.516  
  20109710.688    20109713.699      475151.27901    346892.70003      1205.813  
  22337797.977    22337802.207     -665312.62409   -482423.72609     -1359.906  
  24626575.289    24626580.668     1058509.63409    704474.16409      2475.125  
 97  6 24 14 55 51.0000000  0  6G01G14G31G15G29G02
  22399073.250    22399077.234     1269693.41001    921598.48809      2920.781  
  22011706.211    22011710.969     -498697.59401   -361304.88901     -1000.297  
  22600784.063    22600787.648     2091721.91409   1515199.18909      4898.875  
  20109940.406    20109943.395      476357.38501    347832.52403      1206.344  
  22337539.336    22337543.555     -666672.27509   -483483.19309     -1359.422  
  24627046.469    24627051.344     1060985.08709    706403.08909      2475.734  
 97  6 24 14 55 52.0000000  0  6G01G14G31G15G29G02
  22399629.211    22399633.266     1272614.56901    923874.71509      2921.469  
  22011515.883    22011520.676     -499697.63301   -362084.13901      -999.859  
  22601716.289    22601719.805     2096620.98909   1519016.64909      4899.234  
  20110169.836    20110172.789      477564.02901    348772.76604      1206.891  
  22337280.703    22337284.934     -668031.44909   -484542.28809     -1358.969  
  24627517.172    24627522.715     1063461.17309    708332.49709      2476.375  
 97  6 24 14 55 53.0000000  0  6G01G14G31G15G29G02
  22400185.148    22400189.215     1275536.28101    926151.37309      2922.016  
  22011325.680    22011330.414     -500697.37909   -362863.16201      -999.563  
  22602648.609    22602652.113     2101520.30209   1522834.29409      4899.469  
  20110399.492    20110402.434      478771.08901    349713.33105      1207.297  
  22337022.039    22337026.363     -669390.28009   -485601.11609     -1358.625  
  24627987.813    24627993.262     1065937.74309    710262.29009      2476.844  
 97  6 24 14 55 54.0000000  0  6G01G14G31G15G29G02
  22400741.336    22400745.367     1278458.63601    928428.53209      2922.641  
  22011135.539    22011140.273     -501696.73109   -363641.87601      -999.188  
  22603581.156    22603584.613     2106419.94609   1526652.20109      4899.781  
  20110629.273    20110632.227      479978.64901    350654.28805      1207.781  
  22336763.344    22336767.762     -670748.66109   -486659.59209     -1358.188  
  24628460.258    24628465.367     1068414.88709    712192.53009      2477.438  
 97  6 24 14 55 55.0000000  0  6G01G14G31G15G29G02
  22401297.625    22401301.773     1281381.72601    930706.26609      2923.422  
  22010945.484    22010950.266     -502695.57809   -364420.19901      -998.656  
  22604513.313    22604516.676     2111320.02909   1530470.44909      4900.250  
  20110859.250    20110862.180      481186.79401    351595.70103      1208.406  
  22336505.211    22336509.652     -672106.51909   -487717.66109     -1357.641  
  24628931.570    24628936.422     1070892.74009    714123.32409      2478.141  
 97  6 24 14 55 56.0000000  0  6G01G14G31G15G29G02
  22401853.984    22401858.074     1284305.42601    932984.47209      2924.016  
  22010755.359    22010760.117     -503694.06009   -365198.23501      -998.266  
  22605445.977    22605449.410     2116220.40709   1534288.92409      4900.531  
  20111089.109    20111092.004      482395.41501    352537.48403      1208.875  
  22336246.742    22336251.184     -673463.98609   -488775.42409     -1357.250  
  24629403.102    24629408.164     1073371.13809    716054.54109      2478.734  
 97  6 24 14 55 57.0000000  0  6G01G14G31G15G29G02
  22402410.406    22402414.508     1287229.73001    935263.15009      2924.609  
  22010565.266    22010570.023     -504692.17909   -365975.99101      -997.922  
  22606378.648    22606382.082     2121121.08009   1538107.62909      4900.844  
  20111319.383    20111322.266      483604.49601    353479.62504      1209.313  
  22335988.680    22335993.191     -674821.06009   -489832.88209     -1356.859  
  24629875.055    24629880.504     1075850.10109    717986.19909      2479.250  
 97  6 24 14 55 58.0000000  0  6G01G14G31G15G29G02
  22402966.930    22402970.996     1290154.60101    937542.27109      2925.109  
  22010375.727    22010380.496     -505689.95409   -366753.47501      -997.656  
  22607311.133    22607314.660     2126022.02809   1541926.55009      4901.031  
  20111549.375    20111552.246      484814.00601    354422.10104      1209.688  
  22335730.242    22335734.742     -676177.77509   -490890.06109     -1356.563  
  24630347.172    24630352.598     1078329.58009    719918.26209      2479.688  
 97  6 24 14 55 59.0000000  0  6G01G14G31G15G29G02
  22403523.547    22403527.578     1293080.05401    939821.84509      2925.797  
  22010185.930    22010190.723     -506687.37009   -367530.68301      -997.188  
  22608243.789    22608247.293     2130923.25009   1545745.68509      4901.406  
  20111779.625    20111782.461      486023.97001    355364.93004      1210.219  
  22335472.211    22335476.734     -677534.10709   -491946.94209     -1356.094  
  24630818.750    24630824.188     1080809.59009    721850.73409      2480.344  
 97  6 24 14 56  0.0000000  0  6G01G14G31G15G29G02
  22404080.461    22404084.563     1296006.14001    942101.91309      2926.359  
  22009996.250    22010001.125     -507684.39601   -368307.58601      -996.859  
  22609176.156    22609179.613     2135824.79909   1549565.07309      4901.688  
  20112010.055    20112012.902      487234.41801    356308.13804      1210.656  
  22335214.031    22335218.449     -678890.03109   -493003.50609     -1355.734  
  24631290.258    24631295.027     1083290.19109    723783.66709      2480.859  
 97  6 24 14 56  1.0000000  0  6G01G14G31G15G29G02
  22404637.352    22404641.430     1298932.69801    944382.34709      2926.875  
  22009806.477    22009811.410     -508681.17001   -369084.29301      -996.578  
  22610109.531    22610112.930     2140726.51909   1553384.59409      4901.922  
  20112240.406    20112243.254      488445.20001    357251.60404      1211.031  
  22334956.055    22334960.414     -680245.68909   -494059.86109     -1355.453  
  24631763.117    24631767.441     1085771.21709    725716.93109      2481.313  
 97  6 24 14 56  2.0000000  0  6G01G14G31G15G29G02
  22405194.477    22405198.590     1301859.90401    946663.28709      2927.547  
  22009616.969    22009621.914     -509677.53001   -369860.67501      -996.125  
  22611042.148    22611045.746     2145628.59909   1557204.39509      4902.266  
  20112470.977    20112473.871      489656.49201    358195.46804      1211.563  
  22334698.133    22334702.492     -681600.91909   -495115.88409     -1354.984  
  24632235.391    24632240.277     1088252.84509    727650.67009      2481.938  
 97  6 24 14 56  3.0000000  0  6G01G14G31G15G29G02
  22405751.703    22405755.805     1304787.79701    948944.76209      2928.297  
  22009427.586    22009432.496     -510673.44001   -370636.70801      -995.609  
  22611975.039    22611978.730     2150531.05809   1561024.49309      4902.734  
  20112701.563    20112704.410      490868.33301    359139.76205      1212.172  
  22334440.328    22334444.699     -682955.68709   -496171.54809     -1354.469  
  24632707.617    24632711.977     1090735.08409    729584.89109      2482.641  
 97  6 24 14 56  4.0000000  0  6G01G14G31G15G29G02
  22406308.969    22406313.105     1307716.55009    951226.90709      2929.094  
  22009238.094    22009242.992     -511668.69301   -371412.22901      -995.047  
  22612907.922    22612911.578     2155434.07009   1564845.01909      4903.203  
  20112932.367    20112935.168      492080.90101    360084.61905      1212.844  
  22334182.617    22334187.117     -684309.80309   -497226.70209     -1353.891  
  24633180.398    24633184.863     1093218.17109    731519.76909      2483.375  
 97  6 24 14 56  5.0000000  0  6G01G14G31G15G29G02
  22406866.359    22406870.461     1310645.94409    953509.54909      2929.750  
  22009048.625    22009053.523     -512663.54701   -372187.44001      -994.609  
  22613841.281    22613844.926     2160337.41609   1568665.80409      4903.547  
  20113162.977    20113165.813      493293.96901    361029.86605      1213.359  
  22333925.211    22333929.699     -685663.47209   -498281.50809     -1353.406  
  24633652.859    24633657.359     1095701.83009    733455.08809      2484.000  
 97  6 24 14 56  6.0000000  0  6G01G14G31G15G29G02
  22407423.938    22407428.016     1313575.99309    955792.70309      2930.266  
  22008859.406    22008864.223     -513657.97301   -372962.31301      -994.328  
  22614774.352    22614777.996     2165241.12109   1572486.87109      4903.734  
  20113394.070    20113396.918      494507.55201    361975.51605      1213.734  
  22333668.000    22333672.477     -687016.69209   -499335.96209     -1353.125  
  24634125.734    24634130.398     1098186.10009    735390.88409      2484.469  
 97  6 24 14 56  7.0000000  0  6G01G14G31G15G29G02
  22407981.695    22407985.773     1316506.59309    958076.28609      2930.984  
  22008670.242    22008675.070     -514652.07601   -373736.93801      -993.844  
  22615707.375    22615710.984     2170145.04509   1576308.11109      4904.172  
  20113625.070    20113627.848      495721.55701    362921.49305      1214.313  
  22333410.508    22333414.855     -688369.56709   -500390.14709     -1352.594  
  24634598.328    24634603.531     1100670.89309    737327.08109      2485.141  
 97  6 24 14 56  8.0000000  0  6G01G14G31G15G29G02
  22408539.203    22408543.258     1319437.94909    960360.45809      2931.813  
  22008481.195    22008485.965     -515645.65701   -374511.15501      -993.234  
  22616640.891    22616644.559     2175049.42009   1580129.70009      4904.656  
  20113856.320    20113859.156      496936.18101    363867.95405      1215.016  
  22333153.047    22333157.406     -689721.89909   -501443.91109     -1352.000  
  24635071.227    24635076.406     1103156.39009    739263.82709      2485.938  
 97  6 24 14 56  9.0000000  0  6G01G14G31G15G29G02
  22409097.375    22409101.441     1322370.04509    962645.20709      2932.438  
  22008292.039    22008296.832     -516638.71601   -375284.96701      -992.828  
  22617574.055    22617577.758     2179954.23809   1583951.63509      4905.016  
  20114087.672    20114090.520      498151.41101    364814.88505      1215.516  
  22332895.859    22332900.254     -691073.69709   -502497.25909     -1351.547  
  24635544.563    24635549.648     1105642.58609    741201.12309      2486.531  
 97  6 24 14 56 10.0000000  0  6G01G14G31G15G29G02
  22409655.523    22409659.578     1325302.65109    964930.35309      2932.844  
  22008103.172    22008107.965     -517631.47701   -376058.54701      -992.641  
  22618507.523    22618511.133     2184859.27609   1587773.74509      4905.125  
  20114318.875    20114321.746      499367.03101    365762.12205      1215.797  
  22332638.734    22332643.141     -692425.17709   -503550.35809     -1351.344  
  24636017.031    24636022.211     1108129.27309    743138.80009      2486.906  
 97  6 24 14 56 11.0000000  0  6G01G14G31G15G29G02
  22410213.539    22410217.535     1328235.83409    967215.95109      2933.516  
  22007914.438    22007919.230     -518623.89501   -376831.85901      -992.203  
  22619440.898    22619444.332     2189764.58409   1591596.06309      4905.484  
  20114550.414    20114553.273      500583.09401    366709.70404      1216.313  
  22332381.445    22332385.852     -693776.29409   -504603.17409     -1350.906  
  24636490.719    24636495.570     1110616.46709    745076.87509      2487.500  
 97  6 24 14 56 12.0000000  0  6G01G14G31G15G29G02
  22410772.055    22410776.133     1331169.68709    969502.07009      2934.234  
  22007725.469    22007730.238     -519615.87801   -377604.83209      -991.719  
  22620374.289    22620377.652     2194670.27109   1595418.67609      4905.922  
  20114781.773    20114784.645      501799.69101    367657.70202      1216.922  
  22332124.656    22332129.004     -695126.95109   -505655.63209     -1350.391  
  24636964.594    24636969.316     1113104.29109    747015.43909      2488.156  
 97  6 24 14 56 13.0000000  0  6G01G14G31G15G29G02
  22411330.258    22411334.230     1334104.15709    971788.67009      2934.688  
  22007536.984    22007541.742     -520607.48001   -378377.50809      -991.500  
  22621308.000    22621311.445     2199576.28709   1599241.54509      4906.109  
  20115013.539    20115016.434      503016.77901    368606.08201      1217.250  
  22331867.711    22331871.906     -696477.21009   -506707.78109     -1350.125  
  24637437.727    24637443.082     1115592.68409    748954.45309      2488.563  
 97  6 24 14 56 14.0000000  0  6G01G14G31G15G29G02
  22411888.828    22411892.859     1337039.14909    974075.67509      2935.281  
  22007348.148    22007352.789     -521598.79701   -379149.96209      -991.156  
  22622241.516    22622244.973     2204482.52609   1603064.58909      4906.344  
  20115245.133    20115248.074      504234.25301    369554.76201      1217.688  
  22331610.617    22331614.777     -697827.12809   -507759.66409     -1349.766  
  24637911.781    24637917.453     1118081.52809    750893.81109      2489.109  
 97  6 24 14 56 15.0000000  0  6G01G14G31G15G29G02
  22412447.469    22412451.488     1339974.87909    976363.25509      2936.078  
  22007159.664    22007164.352     -522589.63401   -379922.04009      -990.594  
  22623175.039    22623178.438     2209389.15509   1606887.93609      4906.844  
  20115476.820    20115479.773      505452.31401    370503.90001      1218.359  
  22331353.945    22331358.070     -699176.56209   -508811.17009     -1349.172  
  24638385.086    24638390.523     1120571.06409    752833.71209      2489.859  
 97  6 24 14 56 16.0000000  0  6G01G14G31G15G29G02
  22413006.367    22413010.387     1342911.22009    978651.31109      2936.703  
  22006971.156    22006975.844     -523580.08901   -380693.82509      -990.219  
  22624109.094    22624112.398     2214296.09609   1610711.52709      4907.172  
  20115708.734    20115711.723      506670.85501    371453.41202      1218.844  
  22331097.305    22331101.523     -700525.60909   -509862.37509     -1348.797  
  24638858.891    24638864.223     1123061.15009    754774.03609      2490.422  
 97  6 24 14 56 17.0000000  0  6G01G14G31G15G29G02
  22413564.898    22413568.953     1345848.29909    980939.94309      2937.344  
  22006782.922    22006787.633     -524570.05901   -381465.22909      -989.828  
  22625042.859    22625046.035     2219203.50409   1614535.48109      4907.500  
  20115940.711    20115943.688      507890.00502    372403.39902      1219.344  
  22330840.461    22330844.691     -701874.12009   -510913.16509     -1348.359  
  24639332.859    24639337.605     1125551.90809    756714.88009      2491.000  
 97  6 24 14 56 18.0000000  0  6G01G14G31G15G29G02
  22414124.117    22414128.195     1348785.94209    983229.01609      2938.047  
  22006594.500    22006599.211     -525559.71201   -382236.38609      -989.359  
  22625976.594    22625979.676     2224111.15609   1618359.62309      4907.922  
  20116172.836    20116175.824      509109.57901    373353.71703      1219.922  
  22330583.914    22330588.051     -703222.27109   -511963.67109     -1347.844  
  24639807.070    24639811.594     1128043.17909    758656.12809      2491.641  
 97  6 24 14 56 19.0000000  0  6G01G14G31G15G29G02
  22414683.406    22414687.449     1351724.38501    985518.71209      2938.938  
  22006406.414    22006411.195     -526548.79801   -383007.10209      -988.719  
  22626910.852    22626913.945     2229019.33709   1622184.17909      4908.516  
  20116405.172    20116408.043      510329.82701    374304.55904      1220.672  
  22330327.602    22330331.691     -704569.83009   -513013.71709     -1347.188  
  24640281.633    24640286.121     1130535.20509    760597.96609      2492.469  
 97  6 24 14 56 20.0000000  0  6G01G14G31G15G29G02
  22415242.563    22415246.641     1354663.66009    987809.05609      2939.547  
  22006218.117    22006222.887     -527537.29301   -383777.35709      -988.344  
  22627845.016    22627848.191     2233928.06209   1626009.15609      4908.828  
  20116637.352    20116640.199      511550.77901    375255.94904      1221.156  
  22330071.242    22330075.238     -705916.76809   -514063.27809     -1346.766  
  24640755.586    24640759.746     1133028.00309    762540.40509      2493.031  
 97  6 24 14 56 21.0000000  0  6G01G14G31G15G29G02
  22415802.141    22415806.195     1357603.51209    990099.84909      2940.313  
  22006030.211    22006035.051     -528525.45501   -384547.35409      -987.813  
  22628779.234    22628782.340     2238837.04709   1629834.34009      4909.297  
  20116869.859    20116872.660      512772.16701    376207.67902      1221.797  
  22329814.961    22329818.910     -707263.33409   -515112.55109     -1346.219  
  24641230.055    24641234.133     1135521.31609    764483.24009      2493.734  
 97  6 24 14 56 22.0000000  0  6G01G14G31G15G29G02
  22416361.594    22416365.555     1360544.13309    992391.24209      2940.766  
  22005842.281    22005847.051     -529513.06301   -385316.91809      -987.594  
  22629713.188    22629716.492     2243746.51909   1633659.90309      4909.469  
  20117102.391    20117105.168      513994.20501    377159.91501      1222.109  
  22329558.813    22329562.738     -708609.33309   -516161.38009     -1345.953  
  24641704.305    24641707.902     1138015.34209    766426.63809      2494.141  
 97  6 24 14 56 23.0000000  0  6G01G14G31G15G29G02
  22416921.164    22416925.148     1363485.18009    994682.96609      2941.359  
  22005654.477    22005659.211     -530500.49201   -386086.34009      -987.219  
  22630647.430    22630650.828     2248656.12209   1637485.56809      4909.781  
  20117335.031    20117337.855      515216.53201    378112.37702      1222.563  
  22329302.922    22329306.918     -709955.09909   -517210.02909     -1345.563  
  24642179.016    24642183.059     1140509.72209    768370.30709      2494.672  
 97  6 24 14 56 24.0000000  0  6G01G14G31G15G29G02
  22417481.336    22417485.273     1366426.97301    996975.27309      2942.156  
  22005466.578    22005471.383     -531487.40901   -386855.36509      -986.656  
  22631581.867    22631585.230     2253566.19909   1641311.60009      4910.281  
  20117567.750    20117570.633      516439.47801    379065.32301      1223.250  
  22329046.758    22329050.730     -711300.32609   -518258.25809     -1344.953  
  24642653.453    24642657.449     1143004.77109    770314.49709      2495.391  
 97  6 24 14 56 25.0000000  0  6G01G14G31G15G29G02
  22418041.063    22418045.035     1369369.42601    999268.09309      2942.828  
  22005278.953    22005283.711     -532473.88701   -387624.04909      -986.234  
  22632516.172    22632519.500     2258476.65209   1645137.92809      4910.688  
  20117800.578    20117803.484      517662.96601    380018.68902      1223.781  
  22328790.711    22328794.684     -712645.07809   -519306.11909     -1344.469  
  24643128.914    24643132.875     1145500.46209    772259.19209      2496.016  
 97  6 24 14 56 26.0000000  0  6G01G14G31G15G29G02
  22418601.180    22418605.223     1372312.55001   1001561.43809      2943.438  
  22005090.992    22005095.797     -533459.91701   -388392.38309      -985.813  
  22633450.750    22633454.020     2263387.49309   1648964.55509      4911.016  
  20118033.461    20118036.332      518887.00701    380972.48703      1224.313  
  22328535.000    22328538.961     -713989.33409   -520353.59109     -1344.031  
  24643604.453    24643608.414     1147996.75209    774204.35209      2496.594  
 97  6 24 14 56 27.0000000  0  6G01G14G31G15G29G02
  22419161.242    22419165.227     1375256.32909   1003855.29109      2944.063  
  22004903.516    22004908.238     -534445.53301   -389160.39309      -985.453  
  22634385.500    22634388.816     2268298.70209   1652791.47109      4911.344  
  20118266.477    20118269.289      520111.57201    381926.69402      1224.781  
  22328279.156    22328283.199     -715333.15209   -521400.72309     -1343.656  
  24644079.414    24644083.434     1150493.65409    776149.98709      2497.141  
 97  6 24 14 56 28.0000000  0  6G01G14G31G15G29G02
  22419721.484    22419725.434     1378200.70009   1006149.60509      2944.594  
  22004716.148    22004720.906     -535430.76701   -389928.10609      -985.125  
  22635319.945    22635323.262     2273210.23209   1656618.63409      4911.625  
  20118499.531    20118502.355      521336.61801    382881.27503      1225.219  
  22328023.656    22328027.605     -716676.57009   -522447.54209     -1343.281  
  24644554.305    24644558.828     1152991.08909    778096.03309      2497.656  
 97  6 24 14 56 29.0000000  0  6G01G14G31G15G29G02
  22420282.211    22420286.160     1381145.53301   1008444.28009      2945.156  
  22004528.563    22004533.297     -536415.77909   -390695.64709      -984.781  
  22636254.484    22636257.801     2278121.95209   1660445.94709      4911.906  
  20118732.781    20118735.605      522562.00601    383836.12103      1225.656  
  22327768.109    22327772.023     -718019.70709   -523494.14309     -1342.891  
  24645029.500    24645033.930     1155488.94709    780042.42109      2498.172  
 97  6 24 14 56 30.0000000  0  6G01G14G31G15G29G02
  22420842.531    22420846.469     1384091.11101   1010739.53709      2945.906  
  22004341.453    22004346.188     -537400.26801   -391462.78209      -984.281  
  22637189.570    22637192.793     2283034.12909   1664273.61809      4912.359  
  20118966.070    20118968.918      523788.01601    384791.45404      1226.281  
  22327512.602    22327516.563     -719362.28109   -524540.30209     -1342.344  
  24645505.492    24645509.711     1157987.48809    781989.33609      2498.844  
 97  6 24 14 56 31.0000000  0  6G01G14G31G15G29G02
  22421403.078    22421406.875     1387037.35009   1013035.30709      2946.656  
  22004154.031    22004158.730     -538384.32309   -392229.57709      -983.766  
  22638124.313    22638127.547     2287946.67009   1668101.57209      4912.813  
  20119199.570    20119202.395      525014.57101    385747.21004      1226.906  
  22327257.094    22327261.090     -720704.37909   -525586.09209     -1341.797  
  24645980.813    24645985.324     1160486.62509    783936.71409      2499.516  
 97  6 24 14 56 32.0000000  0  6G01G14G31G15G29G02
  22421963.938    22421967.652     1389984.37109   1015331.68809      2947.297  
  22003967.031    22003971.707     -539367.84309   -392995.95809      -983.344  
  22639059.148    22639062.430     2292859.72509   1671929.92409      4913.203  
  20119432.977    20119435.789      526241.77701    386703.47304      1227.438  
  22327001.883    22327005.902     -722045.90409   -526631.43409     -1341.344  
  24646456.000    24646460.711     1162986.49009    785884.66009      2500.125  
 97  6 24 14 56 33.0000000  0  6G01G14G31G15G29G02
  22422525.000    22422528.691     1392931.94709   1017628.50009      2947.875  
  22003779.883    22003784.594     -540351.02801   -393762.07509      -983.000  
  22639994.414    22639997.637     2297773.06409   1675758.49909      4913.516  
  20119666.492    20119669.340      527469.42901    387660.08504      1227.891  
  22326746.859    22326750.949     -723387.07609   -527676.50109     -1340.969  
  24646931.977    24646936.090     1165486.85109    787832.99409      2500.641  
 97  6 24 14 56 34.0000000  0  6G01G14G31G15G29G02
  22423085.836    22423089.621     1395880.12009   1019925.77709      2948.469  
  22003593.055    22003597.684     -541333.84501   -394527.90609      -982.656  
  22640929.492    22640932.574     2302686.73709   1679587.33509      4913.828  
  20119900.234    20119903.059      528697.55901    388617.07005      1228.359  
  22326491.391    22326495.492     -724727.84809   -528721.25709     -1340.578  
  24647408.305    24647412.488     1167987.75809    789781.75809      2501.156  
 97  6 24 14 56 35.0000000  0  6G01G14G31G15G29G02
  22423647.172    22423650.969     1398828.85609   1022223.49409      2949.063  
  22003405.984    22003410.520     -542316.33901   -395293.48509      -982.281  
  22641864.289    22641867.254     2307600.68709   1683416.38709      4914.141  
  20120133.961    20120136.762      529926.13101    389574.40105      1228.844  
  22326236.352    22326240.512     -726068.25809   -529765.73109     -1340.188  
  24647884.406    24647888.145     1170489.16109    791730.90609      2501.703  
 97  6 24 14 56 36.0000000  0  6G01G14G31G15G29G02
  22424208.414    22424212.199     1401778.27109   1024521.73809      2949.781  
  22003218.906    22003223.430     -543298.38901   -396058.71909      -981.781  
  22642799.406    22642802.453     2312515.05509   1687245.76309      4914.625  
  20120367.961    20120370.762      531155.26301    390532.16503      1229.453  
  22325981.469    22325985.570     -727408.19309   -530809.83409     -1339.625  
  24648360.156    24648363.578     1172991.18809    793680.54009      2502.359  
 97  6 24 14 56 37.0000000  0  6G01G14G31G15G29G02
  22424769.664    22424773.613     1404728.38309   1026820.52409      2950.375  
  22003032.242    22003036.730     -544279.95401   -396823.57509      -981.438  
  22643734.781    22643737.699     2317429.87109   1691075.49009      4914.922  
  20120601.844    20120604.551      532384.99601    391490.39902      1229.938  
  22325726.641    22325730.578     -728747.56809   -531853.50109     -1339.234  
  24648836.547    24648839.840     1175493.85509    795630.67009      2502.891  
 97  6 24 14 56 38.0000000  0  6G01G14G31G15G29G02
  22425330.969    22425334.859     1407679.15209   1029119.82409      2951.078  
  22002845.516    22002850.016     -545261.11601   -397588.11609      -980.969  
  22644670.094    22644672.977     2322345.04209   1694905.49209      4915.359  
  20120836.078    20120838.785      533615.25901    392449.04501      1230.516  
  22325471.852    22325475.707     -730086.49809   -532896.82209     -1338.719  
  24649313.563    24649317.148     1177997.11009    797581.25309      2503.516  
 97  6 24 14 56 39.0000000  0  6G01G14G31G15G29G02
  22425892.641    22425896.602     1410630.49409   1031419.57109      2951.734  
  22002658.945    22002663.375     -546241.94601   -398352.39809      -980.563  
  22645605.445    22645608.434     2327260.52909   1698735.73909      4915.750  
  20121070.211    20121072.941      534845.97301    393408.04202      1231.031  
  22325217.102    22325221.016     -731425.06109   -533939.85809     -1338.266  
  24649789.625    24649793.422     1180500.87009    799532.23209      2504.109  
 97  6 24 14 56 40.0000000  0  6G01G14G31G15G29G02
  22426454.523    22426458.484     1413582.59609   1033719.91309      2952.406  
  22002472.227    22002476.645     -547222.26101   -399116.28009      -980.125  
  22646541.188    22646544.188     2332176.52509   1702566.38509      4916.156  
  20121304.703    20121307.410      536077.33401    394367.54401      1231.609  
  22324962.539    22324966.523     -732763.04009   -534982.43809     -1337.766  
  24650266.375    24650269.879     1183005.31909    801483.74509      2504.719  
 97  6 24 14 56 41.0000000  0  6G01G14G31G15G29G02
  22427016.414    22427020.410     1416535.30409   1036020.72409      2953.000  
  22002286.070    22002290.535     -548202.19209   -399879.86309      -979.734  
  22647476.563    22647479.668     2337092.86709   1706397.30109      4916.531  
  20121539.016    20121541.652      537309.19001    395327.43102      1232.109  
  22324707.930    22324711.855     -734100.59609   -536024.68809     -1337.328  
  24650742.883    24650746.984     1185510.31309    803435.68509      2505.250  
 97  6 24 14 56 42.0000000  0  6G01G14G31G15G29G02
  22427578.445    22427582.371     1419488.61309   1038322.00509      2953.578  
  22002099.391    22002103.797     -549181.76301   -400643.16209      -979.406  
  22648412.156    22648415.355     2342009.54609   1710228.47809      4916.844  
  20121773.500    20121776.125      538541.52201    396287.69102      1232.563  
  22324453.492    22324457.418     -735437.73609   -537066.61409     -1336.953  
  24651219.461    24651223.633     1188015.83109    805388.03409      2505.781  
 97  6 24 14 56 43.0000000  0  6G01G14G31G15G29G02
  22428140.742    22428144.750     1422442.59209   1040623.80509      2954.297  
  22001913.352    22001917.840     -550160.87401   -401406.10509      -978.922  
  22649347.625    22649350.742     2346926.67209   1714060.00309      4917.297  
  20122008.227    20122010.887      539774.43801    397248.40601      1233.172  
  22324199.234    22324203.090     -736774.38009   -538108.15309     -1336.438  
  24651696.211    24651700.770     1190521.99609    807340.88509      2506.438  
 97  6 24 14 56 44.0000000  0  6G01G14G31G15G29G02
  22428702.859    22428706.832     1425397.16609   1042926.07109      2954.938  
  22001726.781    22001731.281     -551139.62801   -402168.76909      -978.500  
  22650283.406    22650286.641     2351844.12509   1717891.78109      4917.688  
  20122242.828    20122245.523      541007.83701    398209.49601      1233.703  
  22323944.609    22323948.348     -738110.61509   -539149.37309     -1335.953  
  24652173.031    24652177.063     1193028.69609    809294.15209      2507.031  
 97  6 24 14 56 45.0000000  0  6G01G14G31G15G29G02
  22429265.070    22429269.008     1428352.45009   1045228.89109      2955.609  
  22001540.711    22001545.176     -552117.90501   -402931.06109      -978.063  
  22651219.453    22651222.746     2356762.01709   1721723.90309      4918.109  
  20122477.664    20122480.395      542241.83401    399171.05202      1234.281  
  22323690.656    22323694.406     -739446.32909   -540190.18709     -1335.469  
  24652650.781    24652654.742     1195536.04909    811247.93209      2507.672  
 97  6 24 14 56 46.0000000  0  6G01G14G31G15G29G02
  22429827.516    22429831.301     1431308.41009   1047532.23709      2956.188  
  22001354.453    22001358.965     -553095.72201   -403692.99609      -977.703  
  22652155.547    22652159.109     2361680.34409   1725556.36209      4918.422  
  20122712.695    20122715.414      543476.42101    400133.06602      1234.750  
  22323436.508    22323440.246     -740781.51509   -541230.59109     -1335.063  
  24653128.195    24653132.168     1198044.04209    813202.20909      2508.203  
 97  6 24 14 56 47.0000000  0  6G01G14G31G15G29G02
  22430390.250    22430394.023     1434264.78209   1049835.90409      2956.688  
  22001168.688    22001173.258     -554073.34401   -404454.78009      -977.406  
  22653091.305    22653094.867     2366598.84409   1729388.95809      4918.688  
  20122947.625    20122950.355      544711.31701    401095.32003      1235.172  
  22323182.445    22323186.242     -742116.46409   -542270.81009     -1334.719  
  24653605.234    24653608.984     1200552.39509    815156.76309      2508.656  
 97  6 24 14 56 48.0000000  0  6G01G14G31G15G29G02
  22430952.781    22430956.660     1437221.85109   1052140.11209      2957.422  
  22000982.516    22000987.098     -555050.49709   -405216.19809      -976.938  
  22654027.500    22654030.957     2371517.76209   1733221.88109      4919.125  
  20123182.734    20123185.488      545946.80501    402058.03904      1235.781  
  22322928.539    22322932.406     -743450.88709   -543310.61809     -1334.156  
  24654083.086    24654086.684     1203061.40409    817111.83109      2509.328  
 97  6 24 14 56 49.0000000  0  6G01G14G31G15G29G02
  22431515.656    22431519.605     1440179.58309   1054444.83609      2958.078  
  22000796.555    22000801.160     -556027.22501   -405977.28409      -976.500  
  22654963.391    22654966.766     2376437.08809   1737055.12109      4919.531  
  20123417.898    20123420.641      547182.85501    403021.19505      1236.328  
  22322674.625    22322678.574     -744784.80909   -544350.03809     -1333.703  
  24654560.813    24654564.234     1205571.02009    819067.37109      2509.922  
 97  6 24 14 56 50.0000000  0  6G01G14G31G15G29G02
  22432078.789    22432082.855     1443137.97809   1056750.07909      2958.703  
  22000610.969    22000615.563     -557003.53201   -406738.04109      -976.109  
  22655899.688    22655903.051     2381356.80609   1740888.66709      4919.906  
  20123653.359    20123656.090      548419.45201    403984.77605      1236.859  
  22322420.906    22322424.867     -746118.28009   -545389.10509     -1333.234  
  24655038.398    24655042.582     1208081.24809    821023.39109      2510.516  
 97  6 24 14 56 51.0000000  0  6G01G14G31G15G29G02
  22432641.805    22432645.930     1446097.04209   1059055.84209      2959.375  
  22000425.125    22000429.754     -557979.40901   -407498.46309      -975.688  
  22656835.906    22656839.270     2386276.93509   1744722.53009      4920.297  
  20123888.609    20123891.410      549656.60701    404948.79205      1237.406  
  22322167.055    22322171.016     -747451.26209   -546427.79209     -1332.766  
  24655515.852    24655519.473     1210592.09009    822979.89009      2511.141  
 97  6 24 14 56 52.0000000  0  6G01G14G31G15G29G02
  22433204.953    22433209.055     1449056.71509   1061362.08109      2960.016  
  22000239.500    22000244.094     -558954.90101   -408258.58409      -975.281  
  22657772.367    22657775.895     2391197.42809   1748556.67909      4920.688  
  20124124.438    20124127.309      550894.27901    405913.21304      1237.953  
  22321913.641    22321917.566     -748783.81209   -547466.14109     -1332.313  
  24655993.414    24655996.883     1213103.53409    824936.85809      2511.750  
 97  6 24 14 56 53.0000000  0  6G01G14G31G15G29G02
  22433768.156    22433772.199     1452017.11009   1063668.88309      2960.703  
  22000053.953    22000058.582     -559929.93101   -409018.34509      -974.828  
  22658708.836    22658712.281     2396118.36609   1752391.17509      4921.141  
  20124359.938    20124362.797      552132.55501    406878.10302      1238.547  
  22321660.195    22321664.285     -750115.82009   -548504.07009     -1331.766  
  24656472.266    24656476.051     1215615.64709    826894.35409      2512.422  
 97  6 24 14 56 54.0000000  0  6G01G14G31G15G29G02
  22434331.906    22434335.844     1454978.11809   1065976.16309      2961.375  
  21999868.688    21999873.234     -560904.58801   -409777.81709      -974.422  
  22659645.359    22659648.910     2401039.63909   1756225.93309      4921.531  
  20124595.680    20124598.574      553371.34501    407843.39503      1239.109  
  22321407.047    22321411.195     -751447.38009   -549541.64709     -1331.297  
  24656950.195    24656953.863     1218128.33209    828852.29409      2513.031  
 97  6 24 14 56 55.0000000  0  6G01G14G31G15G29G02
  22434895.633    22434899.746     1457939.81709   1068283.98009      2962.078  
  21999683.039    21999687.598     -561878.80301   -410536.94409      -973.969  
  22660581.781    22660585.402     2405961.34809   1760061.03209      4921.938  
  20124831.406    20124834.242      554610.71501    408809.13703      1239.672  
  22321153.727    22321157.816     -752778.44509   -550578.83809     -1330.797  
  24657428.141    24657431.492     1220641.69109    830810.75309      2513.688  
 97  6 24 14 56 56.0000000  0  6G01G14G31G15G29G02
  22435459.016    22435463.129     1460902.33209   1070592.43309      2962.859  
  21999497.945    21999502.492     -562852.43901   -411295.62009      -973.422  
  22661518.805    22661522.391     2410883.61509   1763896.56709      4922.484  
  20125067.352    20125070.141      555850.78301    409775.42501      1240.359  
  22320900.523    22320904.590     -754108.87709   -551615.53709     -1330.188  
  24657906.430    24657908.691     1223155.79709    832769.79009      2514.438  
 97  6 24 14 56 57.0000000  0  6G01G14G31G15G29G02
  22436023.016    22436027.023     1463865.45609   1072901.35809      2963.375  
  21999312.719    21999317.219     -563825.71201   -412054.01309      -973.141  
  22662455.242    22662458.688     2415806.21209   1767732.35709      4922.719  
  20125303.625    20125306.355      557091.34501    410742.09801      1240.766  
  22320647.266    22320651.297     -755438.89509   -552651.91409     -1329.844  
  24658385.547    24658387.211     1225670.46609    834729.27109      2514.906  
 97  6 24 14 56 58.0000000  0  6G01G14G31G15G29G02
  22436586.938    22436590.863     1466829.14109   1075210.72409      2964.016  
  21999127.469    21999131.945     -564798.65801   -412812.15009      -972.734  
  22663392.141    22663395.586     2420729.12609   1771568.39209      4923.125  
  20125539.734    20125542.523      558332.36401    411709.12601      1241.297  
  22320394.398    22320398.406     -756768.53809   -553687.99909     -1329.406  
  24658863.633    24658865.613     1228185.68409    836689.17809      2515.516  
 97  6 24 14 56 59.0000000  0  6G01G14G31G15G29G02
  22437151.031    22437155.027     1469793.42909   1077520.55809      2964.578  
  21998942.375    21998946.793     -565771.24201   -413570.00709      -972.406  
  22664328.992    22664332.602     2425652.35709   1775404.67709      4923.391  
  20125775.883    20125778.684      559573.87401    412676.53601      1241.750  
  22320141.180    22320145.152     -758097.77109   -554723.76609     -1329.047  
  24659342.602    24659344.734     1230701.43709    838649.50909      2516.047  
 97  6 24 14 57  0.0000000  0  6G01G14G31G15G29G02
  22437715.344    22437719.316     1472758.41309   1079830.93409      2965.406  
  21998757.484    21998761.867     -566743.36801   -414327.50709      -971.813  
  22665265.711    22665269.297     2430576.00709   1779241.28909      4923.953  
  20126012.391    20126015.203      560815.96001    413644.39501      1242.469  
  22319888.531    22319892.480     -759426.51709   -555759.15109     -1328.406  
  24659822.063    24659824.008     1233217.84109    840610.34609      2516.828  
 97  6 24 14 57  1.0000000  0  6G01G14G31G15G29G02
  22438279.633    22438283.617     1475724.10109   1082141.86009      2965.969  
  21998572.484    21998576.809     -567715.00401   -415084.62609      -971.469  
  22666202.930    22666206.551     2435500.12109   1783078.25809      4924.250  
  20126248.852    20126251.664      562058.65801    414612.73101      1242.922  
  22319635.773    22319639.770     -760754.71209   -556794.10909     -1328.016  
  24660299.883    24660301.652     1235734.94909    842571.73309      2517.359  
 97  6 24 14 57  2.0000000  0  6G01G14G31G15G29G02
  22438844.195    22438848.203     1478690.41709   1084453.27209      2966.531  
  21998387.781    21998392.082     -568686.25501   -415841.44309      -971.156  
  22667139.914    22667143.441     2440424.58709   1786915.50309      4924.547  
  20126485.461    20126488.285      563301.86201    415581.46201      1243.359  
  22319382.992    22319387.105     -762082.48109   -557828.73209     -1327.656  
  24660780.258    24660782.742     1238252.63009    844533.57109      2517.891  
 97  6 24 14 57  3.0000000  0  6G01G14G31G15G29G02
  22439408.734    22439412.824     1481657.19709   1086765.05109      2967.109  
  21998202.969    21998207.258     -569657.28501   -416598.09009      -970.813  
  22668077.031    22668080.594     2445349.24109   1790752.89609      4924.844  
  20126722.008    20126724.891      564545.41701    416550.46501      1243.828  
  22319130.492    22319134.652     -763409.96609   -558863.13309     -1327.250  
  24661258.922    24661261.160     1240770.74009    846495.73509      2518.438  
 97  6 24 14 57  4.0000000  0  6G01G14G31G15G29G02
  22439973.281    22439977.313     1484624.62109   1089077.33109      2967.906  
  21998018.320    21998022.574     -570627.89601   -417354.41009      -970.266  
  22669014.328    22669017.844     2450274.25709   1794590.57009      4925.344  
  20126958.695    20126961.602      565789.50801    417519.88701      1244.500  
  22318877.969    22318882.129     -764736.99309   -559897.18009     -1326.656  
  24661738.273    24661740.652     1243289.47109    848458.37909      2519.172  
 97  6 24 14 57  5.0000000  0  6G01G14G31G15G29G02
  22440538.172    22440542.086     1487592.72809   1091390.14209      2968.359  
  21997833.633    21997838.039     -571598.07401   -418110.39209      -970.047  
  22669951.680    22669955.148     2455199.66909   1798428.55509      4925.531  
  20127195.617    20127198.547      567034.16501    418489.74901      1244.859  
  22318625.547    22318629.707     -766063.51909   -560930.83409     -1326.375  
  24662217.445    24662220.410     1245808.84709    850421.53009      2519.625  
 97  6 24 14 57  6.0000000  0  6G01G14G31G15G29G02
  22441103.195    22441107.145     1490561.34809   1093703.35109      2968.828  
  21997649.047    21997653.453     -572567.98501   -418866.16609      -969.828  
  22670888.898    22670892.473     2460125.32109   1802266.72409      4925.703  
  20127432.492    20127435.457      568279.22401    419459.92501      1245.203  
  22318373.289    22318377.402     -767389.72909   -561964.24309     -1326.094  
  24662697.328    24662700.563     1248328.69309    852385.05109      2520.047  
 97  6 24 14 57  7.0000000  0  6G01G14G31G15G29G02
  22441668.406    22441672.297     1493530.41409   1096016.90709      2969.359  
  21997464.633    21997468.992     -573537.69601   -419621.78409      -969.531  
  22671826.273    22671829.859     2465051.12709   1806105.01009      4925.953  
  20127669.430    20127672.441      569524.62501    420430.36701      1245.625  
  22318120.836    22318124.844     -768715.68609   -562997.45509     -1325.750  
  24663176.141    24663179.551     1250848.98409    854348.91209      2520.563  
 97  6 24 14 57  8.0000000  0  6G01G14G31G15G29G02
  22442233.313    22442237.191     1496500.09909   1098330.94609      2970.109  
  21997280.258    21997284.523     -574507.03401   -420377.11309      -969.031  
  22672763.750    22672767.219     2469977.25209   1809943.54809      4926.406  
  20127906.633    20127909.516      570770.52901    421401.20001      1246.281  
  22317868.492    22317872.324     -770041.21109   -564030.33109     -1325.188  
  24663656.148    24663659.805     1253369.85709    856313.23009      2521.313  
 97  6 24 14 57  9.0000000  0  6G01G14G31G15G29G02
  22442798.586    22442802.406     1499470.53509   1100645.57009      2970.703  
  21997095.852    21997100.059     -575475.86501   -421132.04509      -968.672  
  22673701.203    22673704.637     2474903.84709   1813782.45109      4926.719  
  20128143.727    20128146.563      572017.07501    422372.53501      1246.766  
  22317616.266    22317620.191     -771366.18309   -565062.77409     -1324.813  
  24664136.242    24664139.898     1255891.46109    858278.11109      2521.859  
 97  6 24 14 57 10.0000000  0  6G01G14G31G15G29G02
  22443363.914    22443367.652     1502441.63009   1102960.70709      2971.281  
  21996911.539    21996915.676     -576444.28101   -421886.65309      -968.344  
  22674638.789    22674642.234     2479830.82309   1817621.65109      4927.031  
  20128380.961    20128383.867      573264.17601    423344.30101      1247.234  
  22317364.422    22317368.266     -772690.68009   -566094.85009     -1324.391  
  24664616.164    24664620.184     1258413.71909    860243.50809      2522.422  
 97  6 24 14 57 11.0000000  0  6G01G14G31G15G29G02
  22443929.367    22443933.188     1505413.12709   1105276.15809      2971.797  
  21996727.234    21996731.254     -577412.52901   -422641.13109      -968.078  
  22675576.266    22675579.652     2484757.92209   1821460.94909      4927.266  
  20128618.430    20128621.383      574511.57901    424316.30201      1247.656  
  22317112.391    22317116.246     -774014.95109   -567126.75009     -1324.063  
  24665096.016    24665099.965     1260936.34709    862209.19509      2522.953  
 97  6 24 14 57 12.0000000  0  6G01G14G31G15G29G02
  22444494.828    22444498.578     1508385.20309   1107592.05909      2972.453  
  21996542.969    21996547.059     -578380.44801   -423395.35409      -967.672  
  22676514.219    22676517.559     2489685.32009   1825300.47909      4927.641  
  20128855.859    20128858.836      575759.44001    425288.66201      1248.188  
  22316860.492    22316864.371     -775338.84509   -568158.35209     -1323.625  
  24665576.188    24665579.867     1263459.52909    864175.30309      2523.563  
 97  6 24 14 57 13.0000000  0  7G01G14G07G31G15G29G02
  22445060.500    22445064.379     1511358.08809   1109908.59209      2973.078  
  21996358.828    21996362.930     -579347.81601   -424149.14809      -967.297  
  24903732.172                           0.00019         0.00000     -1848.578  
  22677451.789    22677455.070     2494613.23109   1829140.40609      4927.969  
  20129093.422    20129096.305      577008.00101    426261.56501      1248.703  
  22316608.805    22316612.660     -776662.13709   -569189.48709     -1323.188  
  24666057.109    24666061.164     1265983.51609    866142.04809      2524.141  
 97  6 24 14 57 14.0000000  0  7G01G14G07G31G15G29G02
  22445626.359    22445630.344     1514331.58909   1112225.60609      2973.813  
  21996174.922    21996178.953     -580314.83101   -424902.66709      -966.844  
  24903379.492                           0.00009         0.00000     -1848.203  
  22678389.531    22678392.754     2499541.44409   1832980.57209      4928.375  
  20129331.266    20129334.137      578257.05101    427234.85009      1249.297  
  22316357.102    22316360.840     -777985.01109   -570220.29709     -1322.672  
  24666537.352    24666541.547     1268508.06209    868109.22809      2524.844  
 97  6 24 14 57 15.0000000  0  7G01G14G07G31G15G29G02
  22446192.211    22446196.289     1517305.67509   1114543.07809      2974.359  
  21995990.773    21995994.816     -581281.51001   -425655.92109      -966.547  
  24903029.242                       -1846.88609         0.00000     -1848.000  
  22679327.492    22679330.527     2504469.94209   1836820.96109      4928.609  
  20129569.023    20129571.953      579506.56701    428208.49809      1249.719  
  22316105.289    22316109.098     -779307.50209   -571250.80809     -1322.328  
  24667017.336    24667021.250     1271033.13809    870076.81609      2525.359  
 97  6 24 14 57 16.0000000  0  7G01G14G07G31G15G29G02
  22446758.211    22446762.207     1520280.15409   1116860.85409      2974.875  
  21995806.664    21995810.789     -582248.08401   -426409.09509      -966.313  
  24902676.711                       -3694.94209         0.00000     -1847.859  
  22680265.477    22680268.617     2509398.52209   1840661.41209      4928.828  
  20129806.789    20129809.801      580756.34901    429182.35401      1250.109  
  22315853.578    22315857.340     -780629.82609   -572281.19109     -1322.016  
  24667498.023    24667501.492     1273558.59609    872044.69909      2525.813  
 97  6 24 14 57 17.0000000  0  7G01G14G07G31G15G29G02
  22447324.516    22447328.582     1523255.42509   1119179.24809      2975.563  
  21995623.086    21995627.363     -583214.11401   -427161.84609      -965.875  
  24902323.789                       -5542.57409         0.00000     -1847.469  
  22681203.047    22681206.094     2514327.61409   1844502.26209      4929.234  
  20130044.852    20130047.910      582006.82001    430156.74801      1250.703  
  22315602.297    22315605.930     -781951.54709   -573311.10509     -1321.547  
  24667978.516    24667981.926     1276084.79609    874013.16009      2526.484  
 97  6 24 14 57 18.0000000  0  7G01G14G07G31G15G29G02
  22447891.000    22447895.207     1526231.39809   1121498.18809      2976.125  
  21995439.273    21995443.375     -584179.71501   -427914.26309      -965.578  
  24901973.883                       -7389.85709         0.00000     -1847.281  
  22682141.180    22682144.180     2519257.09109   1848343.41309      4929.500  
  20130282.828    20130285.805      583257.85501    431131.58001      1251.141  
  22315350.711    22315354.355     -783272.77909   -574340.63509     -1321.156  
  24668459.609    24668463.371     1278611.63309    875982.12809      2526.984  
 97  6 24 14 57 19.0000000  0  7G01G14G07G31G15G29G02
  22448457.297    22448461.223     1529207.85209   1123817.50409      2976.859  
  21995255.875    21995260.070     -585145.11401   -428666.51909      -965.109  
  24901622.344                       -9236.98309         0.00000     -1846.906  
  22683079.594    22683082.664     2524186.75809   1852184.71209      4929.906  
  20130521.008    20130523.949      584509.26601    432106.70409      1251.750  
  22315099.047    22315102.586     -784593.72809   -575369.94709     -1320.641  
  24668940.648    24668944.809     1281138.92309    877951.44909      2527.656  
 97  6 24 14 57 20.0000000  0  7G01G14G07G31G15G29G02
  22449023.680    22449027.629     1532184.92909   1126137.30509      2977.313  
  21995072.125    21995076.355     -586110.14101   -429418.48709      -964.938  
  24901271.344                      -11083.84509         0.00000     -1846.781  
  22684017.484    22684020.754     2529116.74109   1856026.25609      4930.078  
  20130759.000    20130761.895      585761.18201    433082.22409      1252.094  
  22314847.734    22314851.238     -785914.25009   -576398.92409     -1320.406  
  24669422.125    24669425.980     1283666.77809    879921.20709      2528.078  
 97  6 24 14 57 21.0000000  0  7G01G14G07G31G15G29G02
  22449590.563    22449594.500     1535162.68709   1128457.63509      2977.922  
  21994888.789    21994892.984     -587074.76101   -430170.13909      -964.594  
  24900919.703                      -12930.39109         0.00000     -1846.531  
  22684955.984    22684959.324     2534047.12209   1859868.11109      4930.391  
  20130997.453    20131000.313      587013.65101    434058.17509      1252.578  
  22314596.508    22314599.977     -787234.32709   -577427.55309     -1320.031  
  24669902.719    24669906.105     1286195.25509    881891.44709      2528.609  
 97  6 24 14 57 22.0000000  0  7G01G14G07G31G15G29G02
  22450157.234    22450161.195     1538140.87709   1130778.30209      2978.547  
  21994705.172    21994709.402     -588039.22401   -430921.66709      -964.234  
  24900568.016                      -14776.82809         0.00000     -1846.266  
  22685894.094    22685897.539     2538977.63809   1863710.07509      4930.750  
  20131235.891    20131238.727      588266.43501    435034.37109      1253.094  
  22314345.477    22314348.875     -788554.18909   -578456.01709     -1319.609  
  24670383.945    24670387.461     1288724.11009    883861.97309      2529.188  
 97  6 24 14 57 23.0000000  0  7G01G14G07G31G15G29G02
  22450724.031    22450727.980     1541119.51409   1133099.32009      2978.750  
  21994521.547    21994525.766     -589003.50701   -431673.05709      -964.297  
  24900216.492                      -16623.18709         0.00000     -1846.391  
  22686832.297    22686835.719     2543908.29609   1867552.14509      4930.625  
  20131474.180    20131477.074      589519.53901    436010.81609      1253.172  
  22314094.461    22314097.859     -789873.81909   -579484.29909     -1319.609  
  24670865.523    24670868.980     1291253.35009    885832.80109      2529.344  
 97  6 24 14 57 24.0000000  0  7G01G14G07G31G15G29G02
  22451290.805    22451294.813     1544098.64909   1135420.72609      2979.578  
  21994338.195    21994342.355     -589967.56301   -432424.26809      -963.766  
  24899865.047                      -18469.38209         0.00000     -1845.953  
  22687770.836    22687774.316     2548839.15209   1871394.36509      4931.156  
  20131712.750    20131715.668      590773.02101    436987.55601      1253.875  
  22313843.484    22313846.965     -791193.15009   -580512.34909     -1319.000  
  24671346.516    24671350.359     1293783.02409    887803.96709      2530.078  
 97  6 24 14 57 25.0000000  0  7G01G14G07G31G15G29G02
  22451857.875    22451861.965     1547078.61309   1137742.77509      2980.234  
  21994154.859    21994159.066     -590931.08901   -433175.06509      -963.391  
  24899514.000                      -20315.10509         0.00000     -1845.625  
  22688709.094    22688712.445     2553770.54409   1875237.00509      4931.516  
  20131951.508    20131954.461      592027.20701    437964.84209      1254.391  
  22313592.516    22313596.020     -792511.88109   -581539.93009     -1318.563  
  24671828.359    24671832.227     1296313.45609    889775.72909      2530.656  
 97  6 24 14 57 26.0000000  0  7G01G14G07G31G15G29G02
  22452425.250    22452429.363     1550059.12209   1140065.24809      2980.938  
  21993971.555    21993975.891     -591894.34101   -433925.65109      -962.984  
  24899163.406                      -22160.61709         0.00000     -1845.266  
  22689647.359    22689650.711     2558702.18509   1879079.84109      4931.906  
  20132190.180    20132193.145      593281.80901    438942.45601      1254.969  
  22313341.805    22313345.238     -793830.28609   -582567.25709     -1318.109  
  24672309.492    24672313.348     1298844.36109    891747.85709      2531.313  
 97  6 24 14 57 27.0000000  0  7G01G14G07G31G15G29G02
  22452992.484    22452996.633     1553040.42009   1142388.33609      2981.672  
  21993788.336    21993792.660     -592857.09001   -434675.84509      -962.531  
  24898811.680                      -24005.72609         0.00000     -1844.891  
  22690585.961    22690589.277     2563634.30509   1882923.05009      4932.344  
  20132429.234    20132432.234      594537.07301    439920.58401      1255.578  
  22313090.758    22313094.133     -795148.13009   -583594.14909     -1317.594  
  24672791.508    24672794.953     1301375.98509    893720.55009      2531.969  
 97  6 24 14 57 28.0000000  0  7G01G14G07G31G15G29G02
  22453559.828    22453563.977     1556022.28809   1144711.86709      2982.109  
  21993605.211    21993609.535     -593819.56701   -435425.82709      -962.359  
  24898460.305                      -25850.61109         0.00000     -1844.844  
  22691524.469    22691527.738     2568566.70209   1886766.47709      4932.484  
  20132667.945    20132670.945      595792.78901    440899.06301      1255.891  
  22312840.195    22312843.582     -796465.63309   -584620.77609     -1317.359  
  24673273.797    24673277.324     1303908.12209    895693.64409      2532.344  
 97  6 24 14 57 29.0000000  0  7G01G14G07G31G15G29G02
  22454127.141    22454131.313     1559004.65109   1147035.78309      2982.609  
  21993422.148    21993426.461     -594781.83401   -436175.64409      -962.188  
  24898109.664                      -27695.35709         0.00000     -1844.656  
  22692463.297    22692466.754     2573499.27709   1890610.03909      4932.672  
  20132907.023    20132910.035      597048.86101    441877.82201      1256.250  
  22312589.477    22312592.746     -797782.87409   -585647.19809     -1317.125  
  24673755.984    24673759.430     1306440.67909    897667.07009      2532.766  
 97  6 24 14 57 30.0000000  0  7G01G14G07G31G15G29G02
  22454694.813    22454698.938     1561987.57009   1149360.13209      2983.266  
  21993238.734    21993243.000     -595743.83301   -436925.25409      -961.797  
  24897759.109                      -29539.92809         0.00000     -1844.406  
  22693402.063    22693405.625     2578432.10809   1894453.80009      4933.031  
  20133146.266    20133149.336      598305.36201    442856.91401      1256.781  
  22312338.898    22312342.180     -799099.79109   -586673.36909     -1316.688  
  24674238.164    24674241.680     1308973.71309    899640.86609      2533.344  
 97  6 24 14 57 31.0000000  0  7G01G14G07G31G15G29G02
  22455262.758    22455266.859     1564971.20909   1151685.04409      2983.922  
  21993055.930    21993060.090     -596705.41701   -437674.53809      -961.438  
  24897407.586                      -31384.10509         0.00000     -1844.078  
  22694340.883    22694344.457     2583365.35309   1898297.88609      4933.359  
  20133385.391    20133388.496      599562.46101    443836.47101      1257.313  
  22312088.305    22312091.762     -800416.23309   -587699.16509     -1316.281  
  24674719.797    24674722.984     1311507.39809    901615.17109      2533.938  
