     2              OBSERVATION DATA    G (GPS)             RINEX VERSION / TYPE
TerraSat GeoGenius GPS+GLONASS Decoder  08-Jun-99 19:22:23  PGM / RUN BY / DATE
ZBKO____                      ZBKO1751                      MARKER NAME
                                                            OBSERVER / AGENCY
      9227          TRIMBLE              722 306            REC # / TYPE / VERS
00000000            EXT_COMP_L12_GP                         ANT # / TYPE
  4177096.2981   854990.3836  4728415.8815                  APPROX POSITION XYZ
        0.0000        0.0000        0.0000                  ANTENNA: DELTA H/E/N
     1     1     0                                          WAVELENGTH FACT L1/2
     5    C1    P2    L1    L2    D1                        # / TYPES OF OBSERV
     1                                                      INTERVAL
  1997     6    24    14    48   58.000000        GPS       TIME OF FIRST OBS
                                                            END OF HEADER
 97  6 24 14 48 58.0000000  0  7G01G14G15G21G02G29G31
  22168382.094                      -20622.89117         0.00000      -447.234  
  22084955.680    22084957.625     -191797.15911    -43136.66319     -4256.719  
  20011597.000                      -94809.47711         0.00000     -2099.094  
  24285665.133                       63265.73019         0.00000      1622.000  
  24430013.352                      -33886.00119         0.00000      -860.328  
  22439564.125    22439565.754     -208556.08019    -36077.32819     -4628.719  
  22210032.133    22210033.410       73984.99011     11559.78919      1649.969  
 97  6 24 14 48 59.0000000  0  7G01G14G15G21G02G29G31
  22168297.023                      -21069.86407         0.00000      -446.828  
  22084145.453    22084147.340     -196053.72901    -46453.46909     -4256.531  
  20011197.688                      -96908.38301         0.00000     -2098.828  
  24285973.984                       64887.73309         0.00000      1621.906  
  24429850.281                      -34746.08509         0.00000      -859.938  
  22438683.453    22438685.094     -213184.65109    -39684.00209     -4628.500  
  22210346.000    22210347.301       75635.11601     12845.60209      1650.172  
 97  6 24 14 49  0.0000000  0  7G01G14G15G21G02G29G31
  22168212.016                      -21516.69507         0.00000      -446.828  
  22083335.633    22083337.578     -200310.42701    -49770.37009     -4256.828  
  20010797.984                      -99007.31301         0.00000     -2099.000  
  24286282.047                       66509.37409         0.00000      1621.406  
  24429686.477                      -35606.06809         0.00000      -860.016  
  22437802.219    22437803.953     -217813.31609    -43290.74509     -4628.781  
  22210660.094    22210661.711       77285.14101     14131.33809      1649.906  
 97  6 24 14 49  1.0000000  0  7G01G14G15G21G02G29G31
  22168127.117                      -21963.45407         0.00000      -446.406  
  22082525.133    22082527.195     -204567.29109    -53087.40409     -4256.656  
  20010398.719                     -101106.30501         0.00000     -2098.734  
  24286590.773                       68130.61909         0.00000      1621.313  
  24429522.352                      -36466.01809         0.00000      -859.641  
  22436921.773    22436923.414     -222442.11809    -46897.59909     -4628.578  
  22210973.992    22210975.563       78935.01801     15416.95709      1650.078  
 97  6 24 14 49  2.0000000  0  7G01G14G15G21G02G29G31
  22168042.195                      -22409.29407         0.00000      -445.203  
  22081715.508    22081717.477     -208823.50809    -56403.93909     -4255.703  
  20009999.273                     -103204.54201         0.00000     -2097.672  
  24286899.492                       69752.26409         0.00000      1622.047  
  24429359.180                      -37325.09709         0.00000      -858.438  
  22436041.078    22436042.813     -227070.23809    -50503.92709     -4627.578  
  22211288.078    22211289.637       80585.55801     16703.09009      1651.078  
 97  6 24 14 49  3.0000000  0  7G01G14G15G21G02G29G31
  22167957.781                      -22854.08008         0.00000      -444.828  
  22080905.688    22080907.680     -213078.94009    -59719.86109     -4255.594  
  20009600.367                     -105301.87801         0.00000     -2097.453  
  24287207.820                       71374.44709         0.00000      1621.906  
  24429196.344                      -38183.17509         0.00000      -858.141  
  22435160.508    22435162.160     -231697.54209    -54109.61809     -4627.469  
  22211602.359    22211603.777       82236.90201     17989.84609      1651.188  
 97  6 24 14 49  4.0000000  0  7G01G14G15G21G02G29G31
  22167872.984                      -23298.81807         0.00000      -444.500  
  22080095.859    22080097.816     -217334.56809    -63035.93409     -4255.516  
  20009201.008                     -107399.30301         0.00000     -2097.266  
  24287516.430                       72996.21309         0.00000      1621.750  
  24429032.828                      -39041.21509         0.00000      -857.828  
  22434279.711    22434281.387     -236324.99209    -57715.42109     -4627.344  
  22211916.672    22211918.102       83888.07501     19276.47209      1651.281  
 97  6 24 14 49  5.0000000  0  7G01G14G15G21G02G29G31
  22167788.547                      -23743.12807         0.00000      -444.031  
  22079286.141    22079288.039     -221590.02209    -66351.87109     -4255.281  
  20008802.000                     -109496.44201         0.00000     -2096.922  
  24287824.703                       74617.92409         0.00000      1621.781  
  24428869.156                      -39898.88209         0.00000      -857.391  
  22433399.547    22433401.152     -240952.24409    -61321.06909     -4627.047  
  22212230.914    22212232.332       85539.43701     20563.24609      1651.547  
 97  6 24 14 49  6.0000000  0  7G01G14G15G21G02G29G31
  22167703.969                      -24187.03307         0.00000      -443.422  
  22078476.586    22078478.543     -225845.33309    -69667.69709     -4254.938  
  20008403.031                     -111593.32201         0.00000     -2096.453  
  24288133.820                       76239.55309         0.00000      1621.875  
  24428705.742                      -40756.19009         0.00000      -856.828  
  22432518.805    22432520.457     -245579.31909    -64926.58209     -4626.688  
  22212545.328    22212546.711       87190.96301     21850.14509      1651.906  
 97  6 24 14 49  7.0000000  0  7G01G14G15G21G02G29G31
  22167619.813    22167622.613      -24629.83907         0.00019      -442.672  
  22077666.969    22077668.949     -230099.76501    -72982.83809     -4254.453  
  20008003.992    20008005.680     -113689.21501         0.00019     -2095.844  
  24288442.766                       77861.84609         0.00000      1622.156  
  24428544.258                      -41612.39609         0.00000      -856.094  
  22431638.492    22431640.098     -250205.46409    -68531.37109     -4626.156  
  22212859.414    22212860.820       88843.39301     23137.75109      1652.422  
 97  6 24 14 49  8.0000000  0  7G01G14G15G21G02G29G31
  22167535.320    22167538.016      -25072.76707      -345.61909      -442.797  
  22076857.234    22076859.133     -234354.58001    -76298.27709     -4254.797  
  20007605.266    20007606.930     -115785.38902     -1632.48409     -2096.094  
  24288751.289                       79483.55509         0.00000      1621.609  
  24428380.336                      -42468.77009         0.00000      -856.250  
  22430758.031    22430759.613     -254831.96009    -72136.43309     -4626.438  
  22213173.945    22213175.434       90495.42501     24425.05109      1652.063  
 97  6 24 14 49  9.0000000  0  7G01G14G15G21G02G29G31
  22167451.070    22167453.801      -25514.97006      -690.19309      -441.859  
  22076047.648    22076049.523     -238608.92501    -79613.34909     -4254.125  
  20007206.445    20007208.098     -117880.97002     -3265.40409     -2095.297  
  24289059.227    24289062.602       81105.50809         0.00019      1622.094  
  24428217.031    24428217.840      -43324.44509         0.00019      -855.344  
  22429877.844    22429879.391     -259457.93609    -75741.09009     -4625.719  
  22213488.305    22213489.723       92147.95101     25712.73409      1652.766  
 97  6 24 14 49 10.0000000  0  7G01G14G15G21G02G29G31
  22167367.211    22167369.988      -25956.66805     -1034.37409      -441.625  
  22075238.070    22075239.875     -242863.00101    -82928.21509     -4254.141  
  20006807.648    20006809.254     -119976.16604     -4898.02609     -2095.203  
  24289368.563    24289371.797       82727.55309      1262.43809      1621.859  
  24428054.656    24428054.891      -44179.60709      -665.90209      -855.125  
  22428997.227    22428998.891     -264083.57709    -79345.48509     -4625.688  
  22213803.008    22213804.379       93800.77201     27000.64309      1652.766  
 97  6 24 14 49 11.0000000  0  7G01G14G15G21G02G29G31
  22167283.117    22167285.883      -26398.11604     -1378.36009      -441.313  
  22074428.367    22074430.090     -247117.10101    -86243.09709     -4254.078  
  20006409.086    20006410.563     -122071.26805     -6530.57009     -2095.016  
  24289676.742    24289679.848       84349.36209      2526.19909      1621.750  
  24427891.711    24427892.625      -45034.57509     -1332.10909      -854.797  
  22428117.180    22428118.902     -268709.21109    -82949.87509     -4625.578  
  22214117.602    22214118.984       95453.58001     28288.54409      1652.844  
 97  6 24 14 49 12.0000000  0  7G01G14G15G21G02G29G31
  22167199.195    22167202.020      -26839.06803     -1721.95709      -440.438  
  22073618.922    22073620.703     -251370.96001    -89557.79309     -4253.469  
  20006010.359    20006011.824     -124166.00806     -8162.83609     -2094.281  
  24289985.570    24289989.086       85971.21509      3789.97809      1622.141  
  24427729.352    24427730.066      -45889.05309     -1997.93009      -853.953  
  22427236.914    22427238.531     -273334.56709    -86554.04909     -4624.953  
  22214432.125    22214433.531       97106.63701     29576.63909      1653.438  
 97  6 24 14 49 13.0000000  0  7G01G14G15G21G02G29G31
  22167115.352    22167118.105      -27279.46802     -2065.12709      -440.328  
  22072809.586    22072811.438     -255624.50701    -92872.24809     -4253.609  
  20005611.805    20005613.281     -126260.31905     -9794.76909     -2094.313  
  24290294.117    24290297.668       87593.19509      5053.84909      1621.797  
  24427566.828    24427568.598      -46742.96909     -2663.32109      -853.875  
  22426356.844    22426358.461     -277959.56709    -90157.94709     -4625.047  
  22214746.789    22214748.008       98759.99901     30864.97009      1653.313  
 97  6 24 14 49 14.0000000  0  7G01G14G15G21G02G29G31
  22167031.633    22167034.316      -27719.73203     -2408.18909      -440.313  
  22072000.219    22072002.141     -259878.18501    -96186.80209     -4253.828  
  20005213.453    20005214.906     -128354.63704    -11426.70609     -2094.406  
  24290602.789    24290606.246       89214.82909      6317.45609      1621.406  
  24427404.180    24427405.867      -47596.77609     -3328.63009      -853.844  
  22425476.680    22425478.238     -282584.64709    -93761.90609     -4625.188  
  22215061.281    22215062.512      100413.26501     32153.22709      1653.094  
 97  6 24 14 49 15.0000000  0  7G01G14G15G21G02G29G31
  22166947.969    22166950.664      -28159.62902     -2750.96009      -439.406  
  22071190.594    22071192.387     -264131.75301    -99501.26909     -4253.203  
  20004814.977    20004816.477     -130448.71804    -13058.45709     -2093.656  
  24290911.141    24290914.773       90836.36909      7580.98209      1621.828  
  24427242.375    24427244.379      -48450.23209     -3993.65809      -852.969  
  22424596.773    22424598.250     -287209.54909    -97365.72409     -4624.516  
  22215376.156    22215377.410      102066.62801     33441.56309      1653.750  
 97  6 24 14 49 16.0000000  0  7G01G14G15G21G02G29G31
  22166864.211    22166866.754      -28598.97101     -3093.29809      -439.172  
  22070381.250    22070382.984     -268385.00701   -102815.49009     -4253.219  
  20004416.531    20004418.043     -132542.35902    -14689.86509     -2093.547  
  24291220.281    24291224.523       92458.04309      8844.61809      1621.594  
  24427080.281    24427085.695      -49303.10909     -4658.23409      -852.750  
  22423716.680    22423718.098     -291834.08009   -100969.25109     -4624.484  
  22215690.836    22215691.914      103720.34001     34730.17309      1653.750  
 97  6 24 14 49 17.0000000  0  7G01G14G15G21G02G29G31
  22166780.789    22166783.461      -29038.02701     -3435.41609      -438.719  
  22069572.242    22069574.035     -272638.24701   -106129.69909     -4253.016  
  20004018.164    20004019.617     -134635.86001    -16321.16209     -2093.219  
  24291528.359    24291532.402       94079.52809     10108.12109      1621.609  
  24426917.930    24426923.145      -50155.72209     -5322.60009      -852.266  
  22422836.930    22422838.512     -296458.55509   -104572.73409     -4624.234  
  22216005.758    22216006.801      105374.06801     36018.79309      1653.969  
 97  6 24 14 49 18.0000000  0  7G01G14G15G21G02G29G31
  22166697.602    22166700.238      -29476.30701     -3776.93109      -437.734  
  22068762.609    22068764.461     -276890.96501   -109443.50609     -4252.297  
  20003620.031    20003621.473     -136728.71901    -17951.96309     -2092.359  
  24291837.547    24291841.555       95701.30609     11371.85209      1622.125  
  24426755.602    24426760.957      -51007.56509     -5986.37209      -851.297  
  22421956.938    22421958.637     -301082.47709   -108175.79009     -4623.469  
  22216320.195    22216321.215      107028.33401     37307.83209      1654.688  
 97  6 24 14 49 19.0000000  0  7G01G14G15G21G02G29G31
  22166614.000    22166616.660      -29913.75201     -4117.79809      -437.516  
  22067953.758    22067955.680     -281143.09201   -112756.85509     -4252.328  
  20003221.766    20003223.184     -138820.84301    -19582.19109     -2092.281  
  24292145.695    24292150.043       97323.51809     12635.91509      1621.891  
  24426593.930    24426598.559      -51858.55909     -6649.48809      -851.094  
  22421077.359    22421079.023     -305705.73009   -111778.32509     -4623.453  
  22216634.961    22216636.074      108683.20701     38597.34309      1654.672  
 97  6 24 14 49 20.0000000  0  7G01G14G15G21G02G29G31
  22166530.711    22166533.465      -30350.99201     -4458.50609      -436.500  
  22067144.422    22067146.367     -285395.27801   -116070.24909     -4251.563  
  20002823.516    20002824.969     -140912.90601    -21212.37209     -2091.375  
  24292454.805    24292459.352       98945.45709     13899.75609      1622.484  
  24426432.320    24426436.152      -52709.36209     -7312.45409      -850.047  
  22420197.383    22420198.988     -310329.00909   -115380.88309     -4622.594  
  22216950.008    22216951.051      110338.02601     39886.81209      1655.453  
 97  6 24 14 49 21.0000000  0  7G01G14G15G21G02G29G31
  22166447.883    22166450.590      -30787.22701     -4798.42909      -435.891  
  22066335.211    22066337.180     -289646.72001   -119383.06209     -4251.219  
  20002425.773    20002427.168     -143004.10401    -22841.87809     -2090.906  
  24292763.797    24292768.121      100567.92009     15164.00109      1622.625  
  24426269.805    24426272.887      -53559.18209     -7974.64909      -849.453  
  22419317.789    22419319.348     -314951.46709   -118982.80209     -4622.188  
  22217264.961    22217266.027      111993.61201     41176.87909      1655.813  
 97  6 24 14 49 22.0000000  0  7G01G14G15G21G02G29G31
  22166364.883    22166367.590      -31222.86801     -5137.88909      -435.531  
  22065526.555    22065528.523     -293897.80801   -122695.59509     -4251.109  
  20002028.008    20002029.402     -145094.81101    -24470.99909     -2090.672  
  24293072.383    24293076.332      102190.59109     16428.41009      1622.516  
  24426107.875    24426111.438      -54408.40009     -8636.37109      -849.109  
  22418438.266    22418439.730     -319573.47309   -122584.36609     -4622.016  
  22217580.227    22217581.258      113649.55901     42467.23009      1655.938  
 97  6 24 14 49 23.0000000  0  7G01G14G15G21G02G29G31
  22166282.133    22166284.793      -31658.22902     -5477.12609      -435.031  
  22064717.258    22064719.156     -298148.88709   -126008.12009     -4250.859  
  20001630.117    20001631.523     -147185.37901    -26100.01009     -2090.281  
  24293380.898    24293384.777      103813.03509     17692.63909      1622.594  
  24425946.891    24425950.043      -55257.33309     -9297.88309      -848.578  
  22417558.570    22417559.941     -324195.43609   -126185.89209     -4621.688  
  22217895.031    22217896.063      115305.51201     43757.58709      1656.172  
 97  6 24 14 49 24.0000000  0  7G01G14G15G21G02G29G31
  22166199.258    22166201.707      -32093.02703     -5815.92609      -434.609  
  22063908.547    22063910.480     -302399.66609   -129320.41409     -4250.719  
  20001232.516    20001233.957     -149275.52101    -27728.69209     -2090.016  
  24293689.320    24293693.738      105435.58109     18956.95709      1622.500  
  24425785.000    24425787.777      -56105.74109     -9958.99209      -848.234  
  22416679.180    22416680.504     -328817.02209   -129787.12709     -4621.500  
  22218210.328    22218211.184      116961.77701     45048.18609      1656.328  
 97  6 24 14 49 25.0000000  0  7G01G14G15G21G02G29G31
  22166116.813    22166119.168      -32527.34104     -6154.35009      -434.172  
  22063099.656    22063101.789     -306650.20809   -132632.52209     -4250.547  
  20000834.656    20000836.156     -151365.29201    -29357.08509     -2089.703  
  24293998.391    24294002.563      107058.17209     20221.31709      1622.484  
  24425624.070    24425626.133      -56953.65209    -10619.69809      -847.797  
  22415799.664    22415800.883     -333438.30109   -133388.12109     -4621.250  
  22218525.555    22218526.328      118618.27201     46338.96309      1656.500  
 97  6 24 14 49 26.0000000  0  7G01G14G15G21G02G29G31
  22166034.180    22166036.559      -32961.32804     -6492.52209      -433.375  
  22062290.781    22062292.996     -310900.69909   -135944.59009     -4250.000  
  20000436.883    20000438.371     -153454.87801    -30985.33609     -2089.031  
  24294307.375    24294310.832      108680.60809     21485.55609      1622.828  
  24425461.867    24425464.563      -57801.27209    -11280.18209      -847.000  
  22414920.375    22414921.582     -338059.47809   -136989.03809     -4620.641  
  22218840.836    22218841.691      120274.83201     47629.78809      1657.063  
 97  6 24 14 49 27.0000000  0  7G01G14G15G21G02G29G31
  22165951.773    22165954.152      -33394.38704     -6829.97109      -433.031  
  22061482.063    22061484.301     -315150.53109   -139256.14809     -4249.938  
  20000039.672    20000041.160     -155543.67401    -32612.97209     -2088.828  
  24294615.844    24294619.172      110303.48109     22750.13309      1622.672  
  24425301.398    24425304.410      -58648.00509    -11939.97909      -846.703  
  22414041.148    22414042.344     -342679.94509   -140589.40709     -4620.531  
  22219156.430    22219157.391      121932.05401     48921.12509      1657.109  
 97  6 24 14 49 28.0000000  0  7G01G14G15G21G02G29G31
  22165869.367    22165871.863      -33827.30404     -7167.31109      -432.359  
  22060673.328    22060675.672     -319400.48909   -142567.80309     -4249.547  
  19999642.164    19999643.629     -157632.46501    -34240.60409     -2088.313  
  24294924.820    24294928.852      111926.03309     24014.44209      1622.859  
  24425140.570    24425143.934      -59494.57609    -12599.64009      -846.063  
  22413161.938    22413163.156     -347300.46509   -144189.81409     -4620.094  
  22219471.805    22219472.836      123589.15901     50212.37309      1657.516  
 97  6 24 14 49 29.0000000  0  7G01G14G15G21G02G29G31
  22165787.141    22165789.625      -34259.27504     -7503.90909      -431.641  
  22059864.703    22059867.199     -323649.78309   -145878.93909     -4249.094  
  19999244.977    19999246.430     -159720.45601    -35867.61209     -2087.719  
  24295233.688    24295237.930      113549.04909     25279.11009      1623.109  
  24424979.414    24424982.684      -60340.26009    -13258.60109      -845.328  
  22412282.828    22412284.211     -351920.28109   -147789.67209     -4619.547  
  22219787.070    22219788.102      125246.91601     51504.13009      1657.969  
 97  6 24 14 49 30.0000000  0  7G01G14G15G21G02G29G31
  22165705.031    22165707.598      -34690.71903     -7840.09609      -431.531  
  22059056.211    22059058.801     -327898.82609   -149189.88009     -4249.281  
  19998847.469    19998848.945     -161808.06201    -37494.31809     -2087.766  
  24295542.297    24295546.117      115172.10409     26543.82509      1622.734  
  24424819.188    24424822.270      -61185.43709    -13917.17509      -845.281  
  22411403.766    22411405.125     -356539.77809   -151389.28009     -4619.688  
  22220102.625    22220103.668      126904.94601     52796.10009      1657.797  
 97  6 24 14 49 31.0000000  0  7G01G14G15G21G02G29G31
  22165623.148    22165625.645      -35122.11002     -8176.24209      -430.766  
  22058247.477    22058250.055     -332148.08609   -152500.98709     -4248.781  
  19998450.242    19998451.742     -163895.76101    -39121.09409     -2087.141  
  24295850.977    24295855.008      116794.73309     27808.21209      1623.000  
  24424658.320    24424660.676      -62030.58409    -14575.73709      -844.563  
  22410524.773    22410526.180     -361159.41609   -154988.99709     -4619.109  
  22220418.156    22220419.094      128562.74001     54087.88809      1658.297  
 97  6 24 14 49 32.0000000  0  7G01G14G15G21G02G29G31
  22165541.203    22165543.629      -35552.42902     -8511.55209      -429.922  
  22057439.203    22057441.746     -336396.56209   -155811.48409     -4248.219  
  19998053.148    19998054.648     -165982.54201    -40747.15709     -2086.469  
  24296159.969    24296164.398      118417.92109     29073.03509      1623.313  
  24424497.680    24424499.836      -62874.70209    -15233.49709      -843.734  
  22409645.938    22409647.262     -365778.22409   -158588.06509     -4618.531  
  22220733.813    22220734.680      130221.31001     55380.27709      1658.813  
 97  6 24 14 49 33.0000000  0  7G01G14G15G21G02G29G31
  22165459.219    22165461.715      -35982.04302     -8846.31809      -429.188  
  22056630.586    22056633.223     -340644.61809   -159121.65609     -4247.766  
  19997656.219    19997657.695     -168068.78301    -42372.80109     -2085.891  
  24296468.906    24296472.656      120041.29609     30338.00109      1623.563  
  24424336.375    24424339.258      -63718.16909    -15890.74409      -843.031  
  22408766.813    22408768.160     -370396.57709   -162186.78009     -4618.047  
  22221049.523    22221050.402      131880.29701     56672.99009      1659.266  
 97  6 24 14 49 34.0000000  0  7G01G14G15G21G02G29G31
  22165377.977    22165380.473      -36410.85102     -9180.45709      -428.609  
  22055822.523    22055825.230     -344892.16609   -162431.43609     -4247.469  
  19997259.188    19997260.723     -170154.38001    -43997.94409     -2085.469  
  24296778.234    24296782.043      121664.98409     31603.21909      1623.625  
  24424176.406    24424178.914      -64560.87909    -16547.40309      -842.547  
  22407888.273    22407889.750     -375014.36309   -165785.05409     -4617.703  
  22221365.227    22221366.164      133539.79101     57966.09909      1659.578  
 97  6 24 14 49 35.0000000  0  7G01G14G15G21G02G29G31
  22165296.117    22165298.648      -36839.13601     -9514.18809      -428.406  
  22055014.125    22055016.809     -349139.47609   -165741.02909     -4247.578  
  19996862.375    19996863.887     -172239.61301    -45622.80309     -2085.438  
  24297086.711    24297090.953      123288.70509     32868.46709      1623.359  
  24424015.906    24424018.449      -65403.10909    -17203.68709      -842.375  
  22407009.492    22407010.852     -379631.87209   -169383.11309     -4617.734  
  22221680.891    22221681.863      135199.52001     59259.39209      1659.438  
 97  6 24 14 49 36.0000000  0  7G01G14G15G21G02G29G31
  22165214.891    22165217.457      -37267.31002     -9847.83209      -427.813  
  22054205.859    22054208.672     -353386.96101   -169050.75909     -4247.281  
  19996465.648    19996467.055     -174324.89601    -47247.70109     -2085.000  
  24297395.906    24297399.609      124912.02609     34133.39709      1623.453  
  24423856.055    24423858.480      -66245.28609    -17859.93509      -841.828  
  22406130.883    22406132.348     -384249.50109   -172981.26409     -4617.375  
  22221996.766    22221997.809      136859.06501     60552.54309      1659.750  
 97  6 24 14 49 37.0000000  0  7G01G14G15G21G02G29G31
  22165133.469    22165136.117      -37694.21601    -10180.48909      -426.203  
  22053397.945    22053400.711     -357633.48501   -172359.74109     -4245.953  
  19996068.969    19996070.398     -176409.07901    -48871.74201     -2083.547  
  24297704.781    24297708.461      126536.12209     35398.92909      1624.547  
  24423695.727    24423697.836      -67086.24409    -18515.23809      -840.281  
  22405252.586    22405254.133     -388866.10209   -176578.61409     -4616.016  
  22222312.742    22222313.891      138519.54801     61846.42409      1661.047  
 97  6 24 14 49 38.0000000  0  7G01G14G15G21G02G29G31
  22165052.414    22165054.980      -38120.26501    -10512.48009      -425.938  
  22052590.023    22052592.859     -361879.44401   -175668.28109     -4245.984  
  19995672.461    19995673.926     -178492.56902    -50495.24301     -2083.438  
  24298013.750    24298016.902      128160.56309     36664.73009      1624.344  
  24423536.297    24423537.609      -67926.41009    -19169.92209      -840.047  
  22404373.938    22404375.543     -393482.08109   -180175.48209     -4615.953  
  22222628.820    22222630.098      140180.60501     63140.74809      1661.031  
 97  6 24 14 49 39.0000000  0  7G01G14G15G21G02G29G31
  22164971.313    22164973.797      -38545.71201    -10843.99909      -424.969  
  22051781.992    22051784.793     -366125.08501   -178976.57209     -4245.313  
  19995276.086    19995277.469     -180575.60503    -52118.39001     -2082.641  
  24298323.164    24298326.398      129785.11209     37930.61009      1624.766  
  24423376.297    24423378.266      -68766.01809    -19824.17509      -839.156  
  22403495.617    22403497.328     -398097.67309   -183772.04609     -4615.250  
  22222944.852    22222946.094      141841.97201     64435.31509      1661.703  
 97  6 24 14 49 40.0000000  0  7G01G14G15G21G02G29G31
  22164890.688    22164893.184      -38970.24702    -11174.80609      -424.531  
  22050974.102    22050976.914     -370370.10001   -182284.37909     -4245.156  
  19994879.844    19994881.203     -182657.87404    -53740.93701     -2082.344  
  24298631.797    24298635.125      131410.08809     39196.82509      1624.734  
  24423216.188    24423218.859      -69604.74709    -20477.74809      -838.766  
  22402617.531    22402619.266     -402712.58209   -187368.07909     -4615.031  
  22223261.086    22223262.316      143503.96801     65730.37309      1661.859  
 97  6 24 14 49 41.0000000  0  7G01G14G15G21G02G29G31
  22164809.742    22164812.168      -39394.84301    -11505.66209      -424.000  
  22050166.359    22050169.137     -374615.45701   -185592.45009     -4244.891  
  19994483.656    19994485.027     -184740.35504    -55363.64901     -2081.953  
  24298941.602    24298945.023      133034.49909     40462.60009      1624.781  
  24423057.031    24423059.656      -70443.59109    -21131.40609      -838.250  
  22401739.195    22401740.836     -407327.78409   -190964.33709     -4614.703  
  22223577.406    22223578.660      145165.60701     67025.15409      1662.078  
 97  6 24 14 49 42.0000000  0  7G01G14G15G21G02G29G31
  22164729.305    22164731.766      -39818.22501    -11835.57009      -423.563  
  22049358.492    22049361.305     -378859.88201   -188899.79509     -4244.734  
  19994087.484    19994088.902     -186821.77104    -56985.53201     -2081.656  
  24299250.578    24299253.988      134659.63809     41728.94209      1624.719  
  24422897.305    24422899.988      -71281.26409    -21784.14709      -837.859  
  22400861.258    22400862.770     -411942.00709   -194559.83409     -4614.500  
  22223893.711    22223894.988      146828.15901     68320.64809      1662.250  
 97  6 24 14 49 43.0000000  0  7G01G14G15G21G02G29G31
  22164648.594    22164651.078      -40242.21601    -12165.95309      -423.797  
  22048550.867    22048553.703     -383105.19501   -192207.83109     -4245.266  
  19993691.227    19993692.598     -188903.93005    -58607.99401     -2082.047  
  24299559.742    24299562.742      136283.69809     42994.43909      1623.969  
  24422737.836    24422741.598      -72119.58309    -22437.38509      -838.156  
  22399982.867    22399984.402     -416557.04009   -198155.96509     -4614.969  
  22224209.977    22224211.359      148489.84001     69615.46409      1661.750  
 97  6 24 14 49 44.0000000  0  7G01G14G15G21G02G29G31
  22164568.070    22164570.578      -40665.35901    -12495.67509      -422.891  
  22047742.797    22047745.656     -387349.94001   -195515.42509     -4244.625  
  19993295.063    19993296.469     -190985.38604    -60229.90801     -2081.250  
  24299868.961    24299872.207      137908.12509     44260.22309      1624.438  
  24422578.781    24422582.449      -72957.08809    -23089.98209      -837.250  
  22399104.789    22399106.219     -421171.45109   -201751.60809     -4614.250  
  22224526.250    22224527.621      150152.12701     70910.75109      1662.406  
 97  6 24 14 49 45.0000000  0  7G01G14G15G21G02G29G31
  22164487.727    22164490.082      -41088.03701    -12825.03709      -422.688  
  22046935.406    22046938.359     -391594.49901   -198822.87409     -4244.703  
  19992899.180    19992900.516     -193066.52204    -61851.57401     -2081.203  
  24300177.891    24300181.418      139532.50609     45525.97209      1624.141  
  24422419.414    24422423.328      -73794.17409    -23742.26809      -837.109  
  22398226.688    22398228.199     -425785.62909   -205347.07109     -4614.281  
  22224842.633    22224844.074      151814.59801     72206.18009      1662.328  
 97  6 24 14 49 46.0000000  0  7G01G14G15G21G02G29G31
  22164407.289    22164409.656      -41510.70901    -13154.39109      -422.297  
  22046127.602    22046130.531     -395839.32101   -202130.52609     -4244.594  
  19992503.141    19992504.605     -195147.78402    -63473.33501     -2080.969  
  24300487.328    24300491.277      141156.43009     46791.36009      1624.031  
  24422260.164    24422263.621      -74631.27609    -24394.56909      -836.766  
  22397348.289    22397349.871     -430399.99009   -208942.67609     -4614.125  
  22225158.891    22225160.262      153476.79101     73501.39209      1662.453  
 97  6 24 14 49 47.0000000  0  7G01G14G15G21G02G29G31
  22164326.859    22164329.344      -41932.56301    -13483.11009      -421.766  
  22045319.813    22045322.789     -400083.59601   -205437.75309     -4244.328  
  19992107.180    19992108.656     -197228.37802    -65094.57701     -2080.578  
  24300796.266    24300801.141      142780.66809     48056.99409      1624.094  
  24422100.570    24422103.535      -75467.60709    -25046.25609      -836.250  
  22396470.570    22396472.105     -435013.78309   -212537.83709     -4613.828  
  22225475.516    22225476.863      155139.52801     74797.02909      1662.641  
 97  6 24 14 49 48.0000000  0  7G01G14G15G21G02G29G31
  22164246.711    22164249.195      -42354.17701    -13811.64109      -421.484  
  22044512.000    22044514.977     -404327.90701   -208745.00809     -4244.313  
  19991711.555    19991713.020     -199308.87202    -66715.74101     -2080.453  
  24301105.219    24301109.648      144404.66509     49322.44009      1623.875  
  24421941.438    24421944.531      -76303.75109    -25697.79609      -836.031  
  22395592.438    22395593.938     -439627.57209   -216132.99809     -4613.781  
  22225791.758    22225793.059      156802.19601     76092.61309      1662.656  
 97  6 24 14 49 49.0000000  0  7G01G14G15G21G02G29G31
  22164166.633    22164169.223      -42775.29401    -14139.78309      -420.891  
  22043704.742    22043707.707     -408571.98601   -212052.08209     -4243.984  
  19991315.578    19991317.043     -201389.00701    -68336.62401     -2079.984  
  24301414.039    24301417.930      146028.70509     50587.92009      1624.016  
  24421783.047    24421785.414      -77139.41209    -26348.95709      -835.469  
  22394714.563    22394715.980     -444241.06809   -219727.92909     -4613.391  
  22226108.188    22226109.453      158465.07901     77388.36609      1662.969  
 97  6 24 14 49 50.0000000  0  7G01G14G15G21G02G29G31
  22164086.516    22164089.094      -43196.02501    -14467.62509      -420.344  
  22042897.227    22042900.203     -412815.95701   -215359.07109     -4243.719  
  19990919.680    19990921.133     -203468.91101    -69957.32801     -2079.578  
  24301723.328    24301727.336      147652.61509     51853.30309      1624.094  
  24421623.984    24421626.809      -77974.75209    -26999.86709      -834.953  
  22393836.406    22393837.848     -448854.42209   -223322.75009     -4613.078  
  22226424.813    22226426.066      160128.05001     78684.18509      1663.219  
 97  6 24 14 49 51.0000000  0  7G01G14G15G21G02G29G31
  22164006.703    22164009.270      -43615.91801    -14794.81309      -419.328  
  22042089.570    22042092.641     -417059.37309   -218665.62709     -4242.984  
  19990524.211    19990525.605     -205548.12301    -71577.49201     -2078.719  
  24302032.406    24302036.367      149276.87209     53118.95209      1624.563  
  24421465.094    24421468.328      -78809.30509    -27650.15909      -834.016  
  22392959.008    22392960.602     -453467.20309   -226917.12309     -4612.328  
  22226741.359    22226742.777      161791.57701     79980.43809      1663.953  
 97  6 24 14 49 52.0000000  0  7G01G14G15G21G02G29G31
  22163926.813    22163929.262      -44034.71101    -15121.14409      -418.484  
  22041282.016    22041285.121     -421301.97009   -221971.54709     -4242.438  
  19990128.773    19990130.133     -207626.39101    -73196.92001     -2078.031  
  24302341.984    24302346.016      150901.74309     54385.08409      1624.922  
  24421307.039    24421309.090      -79642.81109    -28299.64009      -833.219  
  22392081.203    22392082.891     -458079.09809   -230510.80409     -4611.719  
  22227058.078    22227059.660      163455.88501     81277.30209      1664.484  
 97  6 24 14 49 53.0000000  0  7G01G14G15G21G02G29G31
  22163847.289    22163849.738      -44452.99301    -15447.07609      -418.109  
  22040474.984    22040478.078     -425544.33409   -225277.28409     -4242.313  
  19989733.305    19989734.652     -209704.29701    -74816.06701     -2077.797  
  24302650.203    24302654.352      152526.59709     55651.20009      1624.813  
  24421148.086    24421150.289      -80475.87209    -28948.78009      -832.906  
  22391203.711    22391205.375     -462690.72409   -234104.27609     -4611.563  
  22227374.828    22227376.398      165120.41301     82574.33709      1664.563  
 97  6 24 14 49 54.0000000  0  7G01G14G15G21G02G29G31
  22163767.680    22163770.164      -44871.02001    -15772.81109      -417.875  
  22039667.695    22039670.824     -429786.72809   -228583.04409     -4242.375  
  19989337.859    19989339.230     -211782.10801    -76435.14001     -2077.734  
  24302959.992    24302964.316      154151.21609     56917.13109      1624.516  
  24420989.484    24420992.648      -81308.72909    -29597.76009      -832.734  
  22390326.047    22390327.699     -467302.35009   -237697.75009     -4611.594  
  22227691.469    22227692.945      166784.89201     83871.33309      1664.469  
 97  6 24 14 49 55.0000000  0  7G01G14G15G21G02G29G31
  22163688.195    22163690.668      -45288.69301    -16098.27009      -417.578  
  22038860.359    22038863.512     -434029.03109   -231888.73309     -4242.359  
  19988942.266    19988943.637     -213859.69901    -78054.04301     -2077.578  
  24303268.773    24303273.672      155775.71609     58182.97309      1624.344  
  24420830.523    24420833.406      -82141.27609    -30246.49909      -832.484  
  22389448.586    22389450.227     -471913.84909   -241291.12509     -4611.531  
  22228008.414    22228009.809      168449.44101     85168.38409      1664.500  
 97  6 24 14 49 56.0000000  0  7G01G14G15G21G02G29G31
  22163608.992    22163611.465      -45705.60401    -16423.13509      -416.297  
  22038053.102    22038056.207     -438270.85109   -235194.04509     -4241.344  
  19988547.328    19988548.734     -215936.70301    -79672.48601     -2076.469  
  24303577.953    24303582.324      157400.46809     59449.01209      1625.109  
  24420672.109    24420675.262      -82973.13109    -30894.70309      -831.281  
  22388571.328    22388573.250     -476524.85109   -244884.11209     -4610.531  
  22228325.258    22228326.582      170114.44201     86465.78809      1665.453  
 97  6 24 14 49 57.0000000  0  7G01G14G15G21G02G29G31
  22163529.664    22163532.137      -46121.47201    -16747.18709      -415.453  
  22037246.008    22037249.113     -442511.91809   -238498.77009     -4240.781  
  19988152.383    19988153.766     -218012.82001    -81290.23901     -2075.781  
  24303887.758    24303891.613      159025.75009     60715.46709      1625.438  
  24420514.398    24420518.324      -83804.01809    -31542.14309      -830.500  
  22387694.008    22387695.848     -481135.09209   -248476.50309     -4609.969  
  22228642.109    22228643.375      171780.19301     87763.77709      1666.000  
 97  6 24 14 49 58.0000000  0  7G01G14G15G21G02G29G31
  22163450.828    22163453.336      -46536.65801    -17070.70809      -415.219  
  22036439.219    22036442.395     -446752.56309   -241803.16709     -4240.813  
  19987757.203    19987758.633     -220088.40101    -82907.57501     -2075.703  
  24304196.125    24304199.477      160651.24709     61982.09009      1625.188  
  24420356.820    24420360.887      -84634.26709    -32189.08209      -830.328  
  22386816.680    22386818.742     -485744.91309   -252068.56909     -4609.984  
  22228959.281    22228960.406      173446.31901     89062.05609      1665.953  
 97  6 24 14 49 59.0000000  0  7G01G14G15G21G02G29G31
  22163371.914    22163374.457      -46951.36301    -17393.85609      -413.734  
  22035632.328    22035635.539     -450993.01409   -245107.41209     -4239.609  
  19987362.445    19987363.863     -222163.65601    -84524.65701     -2074.359  
  24304506.047    24304510.500      162276.70809     63248.67809      1626.219  
  24420198.484    24420202.832      -85464.11009    -32835.70609      -828.891  
  22385939.617    22385941.680     -490354.50409   -255660.45809     -4608.750  
  22229276.172    22229277.402      175112.64501     90360.49109      1667.141  
 97  6 24 14 50  0.0000000  0  7G01G14G15G21G02G29G31
  22163293.352    22163295.918      -47364.56902    -17715.83409      -413.078  
  22034825.461    22034828.637     -455232.24009   -248410.70309     -4239.234  
  19986967.703    19986969.156     -224237.57001    -86140.69601     -2073.859  
  24304815.133    24304819.328      163903.16309     64516.03909      1626.313  
  24420041.016    24420045.574      -86292.52909    -33481.22409      -828.297  
  22385062.727    22385064.824     -494962.86109   -259251.38409     -4608.359  
  22229593.781    22229595.211      176780.16401     91659.85609      1667.500  
 97  6 24 14 50  1.0000000  0  7G01G14G15G21G02G29G31
  22163214.922    22163217.512      -47777.14702    -18037.32409      -412.188  
  22034018.867    22034021.996     -459471.10609   -251713.71309     -4238.625  
  19986573.055    19986574.531     -226311.00701    -87756.36201     -2073.125  
  24305124.961    24305128.453      165529.75209     65783.50509      1626.703  
  24419882.898    24419887.410      -87120.36609    -34126.29109      -827.484  
  22384185.797    22384187.824     -499570.85209   -262842.02809     -4607.719  
  22229911.289    22229912.555      178448.00401     92959.47209      1668.078  
 97  6 24 14 50  2.0000000  0  7G01G14G15G21G02G29G31
  22163136.477    22163139.055      -48189.09203    -18358.32109      -412.203  
  22033212.336    22033215.500     -463709.60209   -255016.43309     -4238.891  
  19986178.641    19986180.035     -228383.95701    -89371.64801     -2073.297  
  24305434.258    24305438.207      167156.45909     67051.06809      1626.219  
  24419726.422    24419730.711      -87947.65409    -34770.93009      -827.594  
  22383308.789    22383310.863     -504178.45109   -266432.36509     -4608.000  
  22230228.430    22230229.766      180116.16501     94259.33709      1667.719  
 97  6 24 14 50  3.0000000  0  7G01G14G15G21G02G29G31
  22163057.945    22163060.535      -48600.92703    -18679.23209      -411.203  
  22032405.883    22032409.129     -467948.26709   -258319.28709     -4238.188  
  19985784.039    19985785.445     -230456.95201    -90986.96901     -2072.438  
  24305744.094    24305748.465      168782.76709     68318.31909      1626.703  
  24419568.609    24419573.156      -88774.89309    -35415.52809      -826.641  
  22382431.938    22382433.848     -508786.21609   -270022.83109     -4607.281  
  22230546.000    22230547.277      181784.13801     95559.05609      1668.438  
 97  6 24 14 50  4.0000000  0  7G01G14G15G21G02G29G31
  22162979.953    22162982.508      -49011.59602    -18999.23509      -410.188  
  22031599.656    22031602.820     -472186.03309   -261621.44009     -4237.438  
  19985389.914    19985391.355     -232528.93001    -92601.50001     -2071.578  
  24306053.688    24306058.223      170409.75309     69586.10309      1627.219  
  24419410.703    24419415.191      -89601.03209    -36059.27409      -825.703  
  22381555.383    22381557.375     -513393.07809   -273612.59309     -4606.531  
  22230863.563    22230864.828      183452.98301     96859.45409      1669.172  
 97  6 24 14 50  5.0000000  0  7G01G14G15G21G02G29G31
  22162901.734    22162904.289      -49421.70202    -19318.80109      -410.016  
  22030793.109    22030796.285     -476423.50201   -264923.36209     -4237.500  
  19984995.719    19984997.078     -234600.49101    -94215.70301     -2071.547  
  24306363.570    24306367.883      172036.81009     70853.94009      1626.922  
  24419254.602    24419259.031      -90426.67409    -36702.63709      -825.563  
  22380678.578    22380680.629     -517999.63309   -277202.11909     -4606.609  
  22231181.016    22231182.152      185122.10101     98160.06409      1669.047  
 97  6 24 14 50  6.0000000  0  7G01G14G15G21G02G29G31
  22162823.758    22162826.313      -49831.39002    -19638.03709      -409.281  
  22029986.867    22029990.090     -480660.81801   -268225.16409     -4237.031  
  19984601.516    19984602.840     -236671.77801    -95829.69501     -2070.938  
  24306672.313    24306675.945      173663.79109     72121.71309      1627.156  
  24419097.188    24419102.309      -91251.97209    -37345.72509      -824.891  
  22379802.148    22379804.246     -522606.04509   -280791.53109     -4606.125  
  22231498.711    22231499.719      186791.36101     99460.78709      1669.531  
 97  6 24 14 50  7.0000000  0  7G01G14G15G21G02G29G31
  22162745.828    22162748.348      -50240.57601    -19956.88509      -408.734  
  22029180.570    22029183.863     -484897.88801   -271526.77609     -4236.766  
  19984207.344    19984208.668     -238742.71001    -97443.40901     -2070.563  
  24306982.289    24306986.086      175290.78509     73389.49409      1627.156  
  24418939.984    24418944.391      -92076.81309    -37988.45109      -824.438  
  22378925.727    22378927.871     -527212.20509   -284380.74509     -4605.844  
  22231816.156    22231817.293      188460.83909    100761.68009      1669.781  
 97  6 24 14 50  8.0000000  0  7G01G14G15G21G02G29G31
  22162668.102    22162670.609      -50649.19501    -20275.28909      -408.781  
  22028374.250    22028377.531     -489134.67401   -274828.16609     -4237.094  
  19983813.555    19983814.879     -240813.23101    -99056.80201     -2070.766  
  24307292.398    24307295.762      176917.83609     74657.32009      1626.656  
  24418783.570    24418787.496      -92901.16809    -38630.80009      -824.547  
  22378049.156    22378051.277     -531818.05209   -287969.71609     -4606.156  
  22232133.906    22232135.090      190130.59009    102062.78609      1669.406  
 97  6 24 14 50  9.0000000  0  7G01G14G15G21G02G29G31
  22162590.477    22162593.055      -51057.69501    -20593.60109      -408.328  
  22027568.031    22027571.348     -493371.61801   -278129.67909     -4236.922  
  19983419.422    19983420.734     -242883.79001   -100670.22701     -2070.469  
  24307601.461    24307605.445      178544.48309     75924.83409      1626.563  
  24418626.219    24418630.063      -93725.48509    -39273.12109      -824.188  
  22377172.625    22377174.699     -536424.04509   -291558.79909     -4605.953  
  22232451.586    22232452.887      191800.15109    103363.74309      1669.563  
 97  6 24 14 50 10.0000000  0  7G01G14G15G21G02G29G31
  22162512.836    22162515.426      -51465.82102    -20911.62109      -407.703  
  22026761.648    22026764.930     -497608.46701   -281431.11909     -4236.563  
  19983025.219    19983026.531     -244954.11701   -102283.46902     -2069.984  
  24307910.961    24307914.453      180171.01709     77192.26009      1626.719  
  24418469.836    24418474.137      -94549.48209    -39915.19709      -823.594  
  22376296.195    22376298.387     -541029.92409   -295147.79409     -4605.594  
  22232769.406    22232770.531      193469.76309    104664.73909      1669.891  
 97  6 24 14 50 11.0000000  0  7G01G14G15G21G02G29G31
  22162435.133    22162437.688      -51873.53802    -21229.32209      -407.953  
  22025955.641    22025958.875     -501845.18901   -284732.46109     -4237.094  
  19982631.516    19982632.840     -247024.20501   -103896.52502     -2070.406  
  24308220.172    24308223.629      181797.44309     78459.60709      1625.953  
  24418313.367    24418317.879      -95373.15209    -40557.02009      -823.938  
  22375419.836    22375422.074     -545635.67209   -298736.68909     -4606.109  
  22233087.000    22233088.090      195139.47109    105965.80809      1669.313  
 97  6 24 14 50 12.0000000  0  7G01G14G15G21G02G29G31
  22162357.695    22162360.133      -52281.25301    -21547.02209      -407.234  
  22025149.094    22025152.223     -506082.18901   -288034.02009     -4236.672  
  19982237.367    19982238.715     -249094.44301   -105509.69903     -2069.844  
  24308529.570    24308532.617      183423.38109     79726.57609      1626.125  
  24418156.414    24418160.000      -96196.88309    -41198.89209      -823.281  
  22374543.234    22374545.438     -550241.65409   -302325.76609     -4605.641  
  22233404.703    22233405.840      196808.88709    107266.65109      1669.750  
 97  6 24 14 50 13.0000000  0  7G01G14G15G21G02G29G31
  22162280.336    22162282.844      -52688.21201    -21864.13309      -406.516  
  22024343.188    22024346.270     -510318.72101   -291335.21309     -4236.219  
  19981843.680    19981845.039     -251164.08901   -107122.41103     -2069.266  
  24308838.922    24308841.371      185049.55009     80993.72109      1626.391  
  24417999.352    24418002.574      -97019.91709    -41840.22809      -822.625  
  22373666.961    22373669.223     -554847.16309   -305914.47409     -4605.188  
  22233722.438    22233723.645      198478.78209    108567.86609      1670.219  
 97  6 24 14 50 14.0000000  0  7G01G14G15G21G02G29G31
  22162202.977    22162205.438      -53094.30701    -22180.57009      -406.125  
  22023537.031    22023540.066     -514554.66901   -294635.95309     -4236.109  
  19981449.883    19981451.195     -253233.02101   -108734.56504     -2069.047  
  24309148.570    24309151.547      186676.06609     82261.13609      1626.234  
  24417843.008    24417846.465      -97842.16209    -42480.93909      -822.313  
  22372790.891    22372792.953     -559452.07809   -309502.72009     -4605.078  
  22234040.391    22234041.656      200149.25809    109869.53709      1670.297  
 97  6 24 14 50 15.0000000  0  7G01G14G15G21G02G29G31
  22162125.844    22162128.352      -53500.13301    -22496.79809      -405.203  
  22022730.750    22022733.715     -518790.65201   -297936.71809     -4235.500  
  19981056.125    19981057.473     -255301.86001   -110346.64602     -2068.281  
  24309458.156    24309460.934      188302.31409     83528.34409      1626.625  
  24417686.516    24417689.867      -98664.22209    -43121.50909      -821.469  
  22371914.219    22371916.363     -564057.00009   -313090.97109     -4604.422  
  22234358.156    22234359.469      201819.68809    111171.16709      1670.891  
 97  6 24 14 50 16.0000000  0  7G01G14G15G21G02G29G31
  22162048.680    22162051.176      -53904.86601    -22812.17309      -404.422  
  22021924.898    22021927.875     -523025.82501   -301236.85509     -4235.000  
  19980662.820    19980664.156     -257369.76302   -111957.99701     -2067.672  
  24309767.742    24309770.531      189929.16509     84796.02309      1626.875  
  24417530.141    24417533.105      -99485.26909    -43761.29309      -820.766  
  22371038.055    22371040.129     -568661.08909   -316678.57309     -4603.891  
  22234675.977    22234677.418      203490.89709    112473.40609      1671.391  
 97  6 24 14 50 17.0000000  0  7G01G14G15G21G02G29G31
  22161971.766    22161974.191      -54309.11301    -23127.17109      -404.469  
  22021118.922    22021121.887     -527260.79701   -304536.83209     -4235.344  
  19980269.289    19980270.684     -259437.35003   -113569.10301     -2067.891  
  24310077.680    24310080.832      191555.95509     86063.65109      1626.344  
  24417374.008    24417377.008     -100305.90609    -44400.74809      -820.875  
  22370161.859    22370163.992     -573264.94509   -320265.99209     -4604.219  
  22234994.063    22234995.434      205162.30509    113775.79909      1671.016  
 97  6 24 14 50 18.0000000  0  7G01G14G15G21G02G29G31
  22161894.813    22161897.262      -54712.88601    -23441.79909      -402.891  
  22020313.023    22020315.906     -531495.57401   -307836.65809     -4234.047  
  19979875.852    19979877.270     -261504.61704   -115179.96001     -2066.469  
  24310386.742    24310390.223      193182.71809     87331.25409      1627.391  
  24417218.219    24417221.617     -101126.11909    -45039.87309      -819.375  
  22369285.867    22369288.176     -577868.60209   -323853.25609     -4602.922  
  22235312.336    22235313.684      206833.88209    115078.32209      1672.297  
 97  6 24 14 50 19.0000000  0  7G01G14G15G21G02G29G31
  22161818.188    22161820.648      -55115.47201    -23755.50309      -402.406  
  22019507.289    22019510.172     -535729.44901   -311135.78109     -4233.844  
  19979482.625    19979484.066     -263570.86502   -116790.02201     -2066.156  
  24310696.188    24310698.895      194810.17209     88599.39709      1627.359  
  24417062.336    24417066.016     -101945.27509    -45678.18109      -819.000  
  22368410.055    22368412.363     -582471.33909   -327439.80309     -4602.703  
  22235630.313    22235631.754      208506.30309    116381.50509      1672.469  
 97  6 24 14 50 20.0000000  0  7G01G14G15G21G02G29G31
  22161741.781    22161744.313      -55517.53601    -24068.79809      -401.578  
  22018701.852    22018704.805     -539963.08101   -314434.71609     -4233.281  
  19979089.516    19979090.898     -265636.74604   -118399.79801     -2065.469  
  24311006.453    24311009.383      196437.62109     89867.53009      1627.656  
  24416906.070    24416909.773     -102763.95309    -46316.11209      -818.234  
  22367534.219    22367536.645     -587073.81409   -331026.14609     -4602.125  
  22235948.867    22235950.426      210178.96009    117684.87209      1672.984  
 97  6 24 14 50 21.0000000  0  7G01G14G15G21G02G29G31
  22161665.492    22161667.941      -55918.40501    -24381.16409      -400.297  
  22017896.523    22017899.535     -544195.79301   -317732.93209     -4232.281  
  19978696.523    19978697.848     -267701.59604   -120008.77101     -2064.359  
  24311315.773    24311319.160      198065.73509     91136.18609      1628.453  
  24416751.109    24416754.285     -103581.51609    -46953.16709      -817.031  
  22366658.797    22366661.129     -591675.35609   -334611.76009     -4601.094  
  22236267.086    22236268.691      211852.50909    118988.93409      1673.969  
 97  6 24 14 50 22.0000000  0  7G01G14G15G21G02G29G31
  22161589.281    22161591.719      -56318.41901    -24692.86409      -399.922  
  22017091.234    22017094.188     -548427.92401   -321030.69409     -4232.172  
  19978303.828    19978305.164     -269765.74503   -121617.19701     -2064.125  
  24311625.922    24311630.105      199694.25409     92405.16009      1628.313  
  24416595.242    24416598.430     -104398.29809    -47589.61709      -816.734  
  22365782.961    22365785.164     -596276.31109   -338196.91809     -4601.000  
  22236585.820    22236587.414      213526.59309    120293.41509      1674.031  
 97  6 24 14 50 23.0000000  0  7G01G14G15G21G02G29G31
  22161513.125    22161515.598      -56718.44001    -25004.56709      -399.609  
  22016285.625    22016288.637     -552660.33701   -324328.67809     -4232.156  
  19977911.172    19977912.531     -271830.05702   -123225.74901     -2064.000  
  24311935.977    24311940.125      201322.23209     93673.71509      1628.141  
  24416439.453    24416442.605     -105215.15809    -48226.13109      -816.484  
  22364907.516    22364909.660     -600877.55209   -341782.29709     -4600.969  
  22236904.414    22236906.055      215200.37009    121597.65509      1674.016  
 97  6 24 14 50 24.0000000  0  7G01G14G15G21G02G29G31
  22161437.180    22161439.652      -57117.70101    -25315.67909      -399.094  
  22015480.344    22015483.355     -556892.27301   -327626.28909     -4231.891  
  19977518.305    19977519.676     -273893.76801   -124833.83501     -2063.625  
  24312245.453    24312250.082      202950.46609     94942.45509      1628.156  
  24416283.836    24416286.285     -106031.33509    -48862.11709      -816.016  
  22364031.984    22364034.246     -605478.29109   -345367.28809     -4600.719  
  22237223.000    22237224.699      216874.60309    122902.25009      1674.250  
 97  6 24 14 50 25.0000000  0  7G01G14G15G21G02G29G31
  22161361.422    22161363.953      -57517.14401    -25626.93309      -399.859  
  22014674.891    22014677.867     -561124.66501   -330924.25709     -4232.953  
  19977125.531    19977126.926     -275957.83101   -126442.19601     -2064.547  
  24312555.555    24312560.383      204577.99709     96210.64909      1626.844  
  24416128.656    24416131.516     -106847.77209    -49498.30709      -816.891  
  22363156.555    22363158.828     -610079.50409   -348952.64909     -4601.750  
  22237541.352    22237543.121      218548.30409    124206.43109      1673.141  
 97  6 24 14 50 26.0000000  0  7G01G14G15G21G02G29G31
  22161285.188    22161287.730      -57916.89801    -25938.42909      -398.875  
  22013869.516    22013872.398     -565357.65301   -334222.68909     -4232.234  
  19976732.742    19976734.137     -278022.35301   -128050.91601     -2063.719  
  24312864.813    24312869.289      206204.67409     97478.18409      1627.328  
  24415973.367    24415975.852     -107664.58209    -50134.78409      -815.953  
  22362280.789    22362283.121     -614681.27609   -352538.44309     -4601.016  
  22237859.844    22237861.684      220221.37109    125510.11909      1673.781  
 97  6 24 14 50 27.0000000  0  7G01G14G15G21G02G29G31
  22161209.281    22161211.859      -58315.55001    -26249.06509      -398.594  
  22013064.227    22013067.109     -569589.81101   -337520.47309     -4232.266  
  19976340.000    19976341.359     -280085.94801   -129658.91001     -2063.625  
  24313174.766    24313179.500      207831.97109     98746.19909      1627.063  
  24415817.719    24415820.672     -108480.38309    -50770.46909      -815.781  
  22361405.250    22361407.734     -619282.21809   -356123.59009     -4601.047  
  22238178.156    22238180.043      221895.23709    126814.42909      1673.750  
 97  6 24 14 50 28.0000000  0  7G01G14G15G21G02G29G31
  22161133.602    22161136.203      -58713.62201    -26559.25109      -397.406  
  22012258.805    22012261.676     -573821.69201   -340818.04309     -4231.375  
  19975947.469    19975948.910     -282149.12901   -131266.58401     -2062.625  
  24313484.211    24313489.473      209459.31509    100014.24609      1627.750  
  24415663.172    24415666.418     -109295.67809    -51405.76109      -814.688  
  22360529.547    22360531.926     -623882.86909   -359708.51009     -4600.141  
  22238496.711    22238498.563      223569.33909    128118.92109      1674.594  
 97  6 24 14 50 29.0000000  0  7G01G14G15G21G02G29G31
  22161058.219    22161060.773      -59110.52801    -26868.52709      -396.625  
  22011453.719    22011456.590     -578052.68501   -344114.91809     -4230.859  
  19975554.914    19975556.379     -284211.29801   -132873.46901     -2061.984  
  24313793.539    24313798.672      211087.32409    101282.81709      1628.000  
  24415508.438    24415512.223     -110109.90109    -52040.22709      -813.984  
  22359654.469    22359656.871     -628482.61609   -363292.72609     -4599.641  
  22238815.406    22238817.129      225244.28309    129424.07209      1675.047  
 97  6 24 14 50 30.0000000  0  7G01G14G15G21G02G29G31
  22160982.836    22160985.332      -59507.11701    -27177.55709      -396.219  
  22010648.406    22010651.277     -582283.65401   -347411.77709     -4230.750  
  19975162.531    19975164.066     -286273.32501   -134480.24201     -2061.750  
  24314103.680    24314108.695      212715.13309    102551.24009      1627.906  
  24415353.492    24415356.961     -110923.86709    -52674.49009      -813.641  
  22358779.016    22358781.441     -633082.34509   -366876.93009     -4599.500  
  22239134.227    22239136.090      226919.20909    130729.20909      1675.125  
 97  6 24 14 50 31.0000000  0  7G01G14G15G21G02G29G31
  22160907.383    22160909.879      -59903.25401    -27486.23609      -396.016  
  22009843.438    22009846.332     -586514.44401   -350708.49409     -4230.813  
  19974770.172    19974771.730     -288335.06401   -136086.79302     -2061.703  
  24314413.766    24314418.055      214342.89309    103819.62009      1627.594  
  24415198.578    24415201.789     -111737.45309    -53308.45109      -813.500  
  22357903.742    22357906.051     -637681.89409   -370460.99209     -4599.578  
  22239453.172    22239455.012      228594.25409    132034.43809      1675.016  
 97  6 24 14 50 32.0000000  0  7G01G14G15G21G02G29G31
  22160832.094    22160834.566      -60298.70902    -27794.38209      -394.609  
  22009038.172    22009041.160     -590744.85101   -354004.91409     -4229.719  
  19974378.219    19974379.777     -290396.30001   -137692.95002     -2060.484  
  24314723.047    24314727.453      215970.78709    105088.10609      1628.500  
  24415043.820    24415047.453     -112550.45009    -53941.95309      -812.172  
  22357028.617    22357031.090     -642281.07209   -374044.76509     -4598.516  
  22239772.047    22239773.828      230269.65909    133339.94709      1676.063  
 97  6 24 14 50 33.0000000  0  7G01G14G15G21G02G29G31
  22160757.047    22160759.484      -60692.76802    -28101.44109      -394.078  
  22008233.266    22008236.336     -594974.14401   -357300.46609     -4229.469  
  19973986.117    19973987.629     -292456.30201   -139298.14701     -2060.109  
  24315032.867    24315038.293      217599.59609    106357.30309      1628.516  
  24414889.188    24414892.680     -113362.11909    -54574.42009      -811.750  
  22356153.406    22356155.820     -646879.14809   -377627.67709     -4598.234  
  22240090.805    22240092.598      231946.11809    134646.27809      1676.250  
 97  6 24 14 50 34.0000000  0  7G01G14G15G21G02G29G31
  22160681.984    22160684.375      -61087.07602    -28408.69409      -394.031  
  22007428.547    22007431.605     -599203.98601   -360596.44509     -4229.703  
  19973593.875    19973595.387     -294516.72501   -140903.67201     -2060.219  
  24315342.422    24315347.672      219227.64509    107625.90809      1628.094  
  24414735.359    24414739.016     -114174.10809    -55207.14009      -811.750  
  22355278.367    22355280.758     -651477.76209   -381211.01009     -4598.453  
  22240409.602    22240411.313      233621.97509    135952.14009      1676.000  
 97  6 24 14 50 35.0000000  0  7G01G14G15G21G02G29G31
  22160607.219    22160609.609      -61480.50001    -28715.25909      -393.031  
  22006623.633    22006626.691     -603433.23201   -363891.95909     -4229.000  
  19973202.180    19973203.691     -296576.42601   -142508.63401     -2059.406  
  24315652.859    24315657.863      220856.05909    108894.80709      1628.578  
  24414580.539    24414583.563     -114985.30009    -55839.23509      -810.828  
  22354403.453    22354405.902     -656075.75109   -384793.85709     -4597.750  
  22240728.781    22240730.469      235298.41209    137258.45409      1676.609  
 97  6 24 14 50 36.0000000  0  7G01G14G15G21G02G29G31
  22160532.281    22160534.625      -61873.50401    -29021.49509      -392.703  
  22005819.016    22005822.074     -607662.35701   -367187.38209     -4228.969  
  19972810.266    19972811.742     -298635.87201   -144113.39601     -2059.234  
  24315962.695    24315967.582      222484.39709    110163.64509      1628.391  
  24414426.883    24414430.609     -115796.12709    -56471.04409      -810.578  
  22353528.547    22353530.926     -660673.61109   -388376.60109     -4597.703  
  22241047.844    22241049.648      236974.93509    138564.83609      1676.672  
 97  6 24 14 50 37.0000000  0  7G01G14G15G21G02G29G31
  22160457.813    22160460.051      -62265.45101    -29326.90609      -391.297  
  22005014.469    22005017.469     -611890.71801   -370482.20509     -4227.859  
  19972418.406    19972419.859     -300694.42801   -145717.46501     -2057.984  
  24316272.922    24316277.000      224113.29709    111432.92509      1629.281  
  24414272.703    24414276.090     -116605.99309    -57102.10609      -809.234  
  22352653.695    22352656.285     -665270.69509   -391958.74009     -4596.563  
  22241367.031    22241368.742      238652.18509    139871.78209      1677.766  
 97  6 24 14 50 38.0000000  0  7G01G14G15G21G02G29G31
  22160383.305    22160385.707      -62657.02001    -29632.02509      -391.578  
  22004209.555    22004212.578     -616118.99901   -373776.96809     -4228.438  
  19972026.648    19972028.078     -302752.77301   -147321.37001     -2058.438  
  24316583.156    24316586.742      225742.07209    112702.09809      1628.531  
  24414118.461    24414121.414     -117415.53409    -57732.91709      -809.609  
  22351779.156    22351781.547     -669867.67709   -395540.80309     -4597.125  
  22241686.109    22241687.645      240329.48409    141178.76909      1677.125  
 97  6 24 14 50 39.0000000  0  7G01G14G15G21G02G29G31
  22160308.844    22160311.258      -63048.21801    -29936.85409      -390.547  
  22003405.109    22003408.086     -620347.19401   -377071.66309     -4227.703  
  19971635.219    19971636.684     -304810.91001   -148925.11401     -2057.578  
  24316892.305    24316895.809      227370.72609    113971.17709      1629.031  
  24413964.492    24413967.340     -118224.80009    -58363.51509      -808.672  
  22350904.063    22350906.348     -674464.56009   -399122.78609     -4596.391  
  22242005.461    22242007.008      242006.85809    142485.81509      1677.859  
 97  6 24 14 50 40.0000000  0  7G01G14G15G21G02G29G31
  22160234.422    22160236.859      -63438.25801    -30240.78109      -389.547  
  22002600.727    22002603.680     -624574.53401   -380365.69109     -4227.000  
  19971243.625    19971245.031     -306868.05801   -150528.08701     -2056.734  
  24317202.625    24317205.906      229000.01609    115240.75209      1629.516  
  24413810.945    24413815.633     -119033.00809    -58993.28709      -807.750  
  22350029.555    22350031.758     -679060.58609   -402704.10209     -4595.672  
  22242324.711    22242326.270      243685.05209    143793.49809      1678.531  
 97  6 24 14 50 41.0000000  0  7G01G14G15G21G02G29G31
  22160160.672    22160163.063      -63827.59901    -30544.16509      -389.234  
  22001796.453    22001799.418     -628801.46201   -383659.40109     -4226.969  
  19970852.281    19970853.711     -308924.67601   -152130.64801     -2056.594  
  24317512.461    24317515.520      230629.50609    116510.48209      1629.391  
  24413656.875    24413661.000     -119840.57509    -59622.56609      -807.500  
  22349155.117    22349157.367     -683656.20009   -406285.09909     -4595.641  
  22242644.102    22242645.742      245363.61609    145101.46909      1678.500  
 97  6 24 14 50 42.0000000  0  7G01G14G15G21G02G29G31
  22160086.531    22160088.992      -64216.36501    -30847.09909      -388.313  
  22000992.352    22000995.281     -633028.09701   -386952.88209     -4226.344  
  19970460.992    19970462.422     -310980.87301   -153732.87901     -2055.844  
  24317822.375    24317825.398      232259.08009    117780.27709      1629.750  
  24413502.969    24413507.117     -120647.63409    -60251.44509      -806.672  
  22348280.500    22348282.867     -688251.48909   -409865.84509     -4595.000  
  22242963.422    22242965.086      247042.45509    146409.65109      1679.109  
 97  6 24 14 50 43.0000000  0  7G01G14G15G21G02G29G31
  22160012.555    22160015.027      -64605.00401    -31149.93509      -389.000  
  22000187.797    22000190.773     -637254.91801   -390246.50709     -4227.328  
  19970069.664    19970071.094     -313037.12001   -155335.15001     -2056.688  
  24318132.273    24318135.414      233888.28609    119049.78109      1628.578  
  24413349.523    24413353.074     -121454.65909    -60880.30309      -807.438  
  22347406.305    22347408.707     -692846.94909   -413446.72409     -4595.969  
  22243283.148    22243284.801      248721.06309    147717.65609      1678.094  
 97  6 24 14 50 44.0000000  0  7G01G14G15G21G02G29G31
  22159938.406    22159940.855      -64994.05002    -31453.08809      -389.281  
  21999383.375    21999386.281     -641482.43901   -393540.67909     -4227.891  
  19969678.188    19969679.570     -315093.94001   -156937.86901     -2057.125  
  24318442.305    24318445.750      235516.56709    120318.56109      1627.813  
  24413195.945    24413199.895     -122262.20709    -61509.56809      -807.797  
  22346531.820    22346534.070     -697443.10909   -417028.14409     -4596.531  
  22243602.266    22243603.965      250398.95009    149025.09909      1677.484  
 97  6 24 14 50 45.0000000  0  7G01G14G15G21G02G29G31
  22159864.422    22159866.766      -65383.18601    -31756.31109      -388.688  
  21998578.633    21998581.563     -645710.34401   -396835.14709     -4227.609  
  19969286.758    19969288.105     -317151.02501   -158540.79201     -2056.719  
  24318752.539    24318755.656      237144.24409    121586.87609      1627.875  
  24413042.945    24413046.801     -123069.91109    -62138.94709      -807.297  
  22345657.000    22345659.309     -702039.65309   -420609.86709     -4596.234  
  22243921.609    22243923.320      252076.42809    150332.22209      1677.734  
 97  6 24 14 50 46.0000000  0  7G01G14G15G21G02G29G31
  22159790.836    22159793.145      -65771.21302    -32058.66809      -387.703  
  21997774.305    21997777.234     -649937.42501   -400128.97609     -4226.906  
  19968895.719    19968897.113     -319207.16401   -160142.97901     -2055.906  
  24319062.164    24319065.117      238772.52009    122855.66109      1628.328  
  24412888.336    24412892.332     -123876.56709    -62767.50809      -806.391  
  22344782.609    22344784.871     -706635.36009   -424190.93609     -4595.516  
  22244240.891    22244242.602      253754.65709    151639.93309      1678.406  
 97  6 24 14 50 47.0000000  0  7G01G14G15G21G02G29G31
  22159716.898    22159719.277      -66158.98702    -32360.82809      -387.484  
  21996970.063    21996972.980     -654164.55101   -403422.83909     -4227.000  
  19968504.180    19968505.551     -321263.22301   -161745.10301     -2055.875  
  24319371.938    24319375.242      240400.54809    124124.25909      1628.047  
  24412734.969    24412738.379     -124683.06709    -63395.95109      -806.266  
  22343907.984    22343910.082     -711231.10109   -427772.03309     -4595.609  
  22244560.078    22244561.801      255432.82809    152947.59909      1678.266  
 97  6 24 14 50 48.0000000  0  7G01G14G15G21G02G29G31
  22159643.164    22159645.578      -66546.19102    -32662.54609      -387.391  
  21996165.711    21996168.676     -658391.39401   -406716.48309     -4227.188  
  19968113.070    19968114.441     -323318.87601   -163346.91101     -2055.922  
  24319682.250    24319685.039      242028.61609    125392.88609      1627.625  
  24412582.461    24412585.730     -125489.06709    -64024.01109      -806.234  
  22343033.438    22343035.570     -715826.56309   -431352.91309     -4595.797  
  22244879.570    22244881.270      257111.23609    154255.45009      1678.047  
 97  6 24 14 50 49.0000000  0  7G01G14G15G21G02G29G31
  22159569.664    22159572.254      -66932.86002    -32963.84509      -385.766  
  21995361.367    21995364.262     -662618.02201   -410009.95709     -4225.875  
  19967721.891    19967723.262     -325374.18802   -164948.45201     -2054.484  
  24319991.609    24319994.609      243656.69309    126661.51609      1628.719  
  24412428.563    24412432.160     -126294.63309    -64651.72809      -804.703  
  22342158.844    22342161.047     -720421.81809   -434933.63409     -4594.484  
  22245198.883    22245200.652      258789.81309    155563.43009      1679.328  
 97  6 24 14 50 50.0000000  0  7G01G14G15G21G02G29G31
  22159496.328    22159499.000      -67318.38703    -33264.25609      -384.719  
  21994557.227    21994560.121     -666843.80601   -413302.77409     -4225.125  
  19967331.016    19967332.352     -327428.52603   -166549.23601     -2053.625  
  24320301.625    24320304.895      245285.40009    127930.63909      1629.266  
  24412275.477    24412279.016     -127099.13109    -65278.60909      -803.734  
  22341284.891    22341287.023     -725016.20709   -438513.67609     -4593.734  
  22245518.563    22245520.262      260469.19209    156872.03709      1680.000  
 97  6 24 14 50 51.0000000  0  7G01G14G15G21G02G29G31
  22159423.297    22159425.980      -67702.60702    -33563.64709      -384.297  
  21993753.352    21993756.281     -671068.58601   -416594.81109     -4225.000  
  19966940.195    19966941.555     -329481.74505   -168149.14701     -2053.375  
  24320611.625    24320615.059      246914.88609    129200.36709      1629.156  
  24412123.164    24412126.926     -127902.41409    -65904.54509      -803.406  
  22340410.703    22340412.824     -729609.57409   -442092.92309     -4593.594  
  22245838.422    22245840.133      262149.54409    158181.40109      1680.094  
 97  6 24 14 50 52.0000000  0  7G01G14G15G21G02G29G31
  22159350.078    22159352.773      -68086.89702    -33863.09509      -384.109  
  21992949.484    21992952.367     -675293.74801   -419887.14209     -4225.125  
  19966549.367    19966550.750     -331535.21605   -169749.25401     -2053.375  
  24320922.063    24320925.695      248543.78609    130469.63109      1628.828  
  24411970.039    24411973.449     -128705.85909    -66530.60809      -803.297  
  22339536.555    22339538.652     -734203.32209   -445672.46709     -4593.703  
  22246158.047    22246159.805      263829.44809    159490.41809      1679.938  
 97  6 24 14 50 53.0000000  0  7G01G14G15G21G02G29G31
  22159276.891    22159279.668      -68471.01802    -34162.41209      -384.297  
  21992145.375    21992148.293     -679519.03501   -423179.57509     -4225.625  
  19966158.797    19966160.191     -333588.68503   -171349.35901     -2053.734  
  24321232.031    24321234.961      250172.32209    131738.60709      1628.125  
  24411817.633    24411821.113     -129509.20909    -67156.59009      -803.578  
  22338662.227    22338664.195     -738797.18309   -449252.10209     -4594.156  
  22246477.906    22246479.758      265509.20309    160799.31809      1679.406  
 97  6 24 14 50 54.0000000  0  7G01G14G15G21G02G29G31
  22159203.781    22159206.547      -68854.65001    -34461.34709      -383.031  
  21991341.422    21991344.281     -683744.14101   -426471.86409     -4224.656  
  19965767.922    19965769.352     -335641.84105   -172949.22001     -2052.641  
  24321541.648    24321543.758      251800.83709    133007.57209      1628.844  
  24411663.766    24411667.820     -130312.14909    -67782.25609      -802.375  
  22337787.961    22337790.199     -743390.80909   -452831.55109     -4593.188  
  22246797.578    22246799.301      267189.11809    162108.34109      1680.344  
 97  6 24 14 50 55.0000000  0  7G01G14G15G21G02G29G31
  22159131.117    22159133.930      -69237.63701    -34759.78009      -382.484  
  21990537.555    21990540.496     -687968.90601   -429763.88809     -4224.422  
  19965377.273    19965378.586     -337694.52904   -174548.71601     -2052.266  
  24321851.805    24321854.324      253429.48809    134276.64509      1628.859  
  24411510.797    24411513.949     -131114.54309    -68407.50009      -801.938  
  22336914.094    22336916.180     -747984.09609   -456410.73509     -4592.906  
  22247117.352    22247119.063      268869.31709    163417.58609      1680.563  
 97  6 24 14 50 56.0000000  0  7G01G14G15G21G02G29G31
  22159058.031    22159060.902      -69620.25002    -35057.92109      -382.484  
  21989733.414    21989736.414     -692193.60301   -433055.85909     -4224.734  
  19964986.969    19964988.258     -339747.01402   -176148.05501     -2052.453  
  24322161.648    24322164.109      255057.97409    135545.59209      1628.359  
  24411358.734    24411361.453     -131916.63609    -69032.50809      -802.047  
  22336039.813    22336041.816     -752577.29109   -459989.84709     -4593.234  
  22247437.281    22247439.098      270549.55109    164726.85609      1680.156  
 97  6 24 14 50 57.0000000  0  7G01G14G15G21G02G29G31
  22158985.602    22158988.484      -70001.89302    -35355.30509      -381.078  
  21988929.547    21988932.465     -696417.63401   -436347.31209     -4223.625  
  19964596.430    19964597.766     -341798.70101   -177746.77301     -2051.203  
  24322471.273    24322472.855      256686.92509    136814.90309      1629.250  
  24411206.047    24411208.848     -132717.85309    -69656.83109      -800.688  
  22335165.969    22335167.902     -757169.80109   -463568.42709     -4592.078  
  22247757.023    22247758.922      272230.42209    166036.62409      1681.266  
 97  6 24 14 50 58.0000000  0  7G01G14G15G21G02G29G31
  22158913.094    22158915.977      -70383.10702    -35652.35509      -381.625  
  21988125.656    21988128.492     -700641.56301   -439638.68409     -4224.484  
  19964205.844    19964207.180     -343850.13902   -179345.29501     -2051.938  
  24322781.063    24322783.383      258315.77309    138084.12609      1628.172  
  24411054.188    24411057.551     -133518.73609    -70280.89009      -801.344  
  22334292.125    22334294.176     -761762.18509   -467146.90809     -4592.938  
  22248076.953    22248078.852      273911.33609    167346.42409      1680.359  
 97  6 24 14 50 59.0000000  0  7G01G14G15G21G02G29G31
  22158840.406    22158843.242      -70764.76802    -35949.75309      -380.891  
  21987321.781    21987324.617     -704866.23601   -442930.63609     -4224.078  
  19963815.688    19963817.035     -345902.19501   -180944.30001     -2051.391  
  24323091.063    24323093.172      259943.65809    139352.60809      1628.391  
  24410900.609    24410903.598     -134320.17309    -70905.38009      -800.719  
  22333418.031    22333420.035     -766355.30909   -470725.96409     -4592.500  
  22248396.656    22248398.578      275591.46609    168655.61309      1680.719  
 97  6 24 14 51  0.0000000  0  7G01G14G15G21G02G29G31
  22158768.313    22158771.055      -71145.24702    -36246.23109      -379.734  
  21986518.133    21986520.980     -709090.04601   -446221.91609     -4223.234  
  19963425.250    19963426.586     -347953.25501   -182542.52801     -2050.406  
  24323401.617    24323404.137      261572.19409    140621.59709      1629.000  
  24410748.859    24410752.117     -135120.51009    -71529.01909      -799.656  
  22332544.352    22332546.379     -770947.51409   -474304.30409     -4591.609  
  22248716.594    22248718.445      277272.47509    169965.48909      1681.563  
 97  6 24 14 51  1.0000000  0  7G01G14G15G21G02G29G31
  22158696.125    22158698.844      -71523.61802    -36541.06509      -377.563  
  21985714.547    21985717.336     -713312.08201   -449511.81209     -4221.375  
  19963035.203    19963036.457     -350002.39801   -184139.26101     -2048.422  
  24323711.227    24323713.746      263202.30809    141891.81109      1630.625  
  24410597.359    24410600.453     -135918.86109    -72151.11109      -797.578  
  22331670.875    22331672.914     -775537.93909   -477881.25609     -4589.766  
  22249036.836    22249038.805      278955.20309    171276.70409      1683.375  
 97  6 24 14 51  2.0000000  0  7G01G14G15G21G02G29G31
  22158624.359    22158627.090      -71900.87803    -36835.03409      -377.109  
  21984911.469    21984914.199     -717533.31501   -452801.08409     -4221.266  
  19962645.766    19962647.078     -352050.59901   -185735.26201     -2048.156  
  24324021.930    24324024.531      264833.00109    143162.48109      1630.563  
  24410445.422    24410448.480     -136716.20209    -72772.41609      -797.250  
  22330797.367    22330799.254     -780127.55809   -481457.58109     -4589.609  
  22249357.211    22249359.285      280638.71109    172588.52609      1683.453  
 97  6 24 14 51  3.0000000  0  7G01G14G15G21G02G29G31
  22158552.797    22158555.586      -72277.83902    -37128.76909      -376.828  
  21984108.313    21984111.043     -721754.56601   -456090.37009     -4221.297  
  19962255.984    19962257.309     -354098.67601   -187331.16501     -2048.047  
  24324331.625    24324334.836      266463.44409    144432.95809      1630.281  
  24410293.461    24410297.258     -137513.35009    -73393.57209      -797.063  
  22329924.195    22329926.070     -784717.13709   -485033.87409     -4589.641  
  22249677.492    22249679.543      282322.18109    173900.31809      1683.391  
 97  6 24 14 51  4.0000000  0  7G01G14G15G21G02G29G31
  22158480.898    22158483.734      -72654.91202    -37422.59209      -376.828  
  21983304.594    21983307.277     -725976.26801   -459380.00609     -4221.594  
  19961866.016    19961867.352     -356147.06001   -188927.30701     -2048.219  
  24324642.117    24324645.363      268093.26009    145702.95309      1629.781  
  24410142.242    24410146.602     -138310.72109    -74014.91109      -797.188  
  22329050.492    22329052.391     -789307.16609   -488610.51909     -4589.906  
  22249997.539    22249999.543      284005.12809    175211.70609      1683.031  
 97  6 24 14 51  5.0000000  0  7G01G14G15G21G02G29G31
  22158409.164    22158411.965      -73031.91103    -37716.35709      -376.953  
  21982501.305    21982503.988     -730198.20301   -462669.82409     -4222.063  
  19961476.242    19961477.637     -358195.54601   -190523.53001     -2048.531  
  24324951.352    24324954.551      269722.61009    146972.58209      1629.141  
  24409990.203    24409994.352     -139108.14209    -74636.28009      -797.391  
  22328177.336    22328179.305     -793897.40409   -492187.32409     -4590.359  
  22250317.664    22250319.586      285687.80109    176522.87909      1682.516  
 97  6 24 14 51  6.0000000  0  7G01G14G15G21G02G29G31
  22158337.375    22158340.188      -73408.92702    -38010.13409      -376.688  
  21981697.836    21981700.473     -734420.48001   -465959.90909     -4222.109  
  19961086.258    19961087.629     -360244.22501   -192119.90301     -2048.438  
  24325262.375    24325265.469      271351.40309    148241.77609      1628.859  
  24409838.266    24409841.863     -139905.64809    -75257.70809      -797.234  
  22327303.852    22327305.844     -798487.97609   -495764.38909     -4590.391  
  22250637.930    22250639.910      287370.11609    177833.77309      1682.453  
 97  6 24 14 51  7.0000000  0  7G01G14G15G21G02G29G31
  22158265.773    22158268.621      -73784.56001    -38302.83509      -374.453  
  21980894.750    21980897.316     -738641.70101   -469249.17209     -4220.188  
  19960697.000    19960698.348     -362291.70901   -193715.34501     -2046.391  
  24325571.711    24325575.039      272981.06709    149511.64609      1630.563  
  24409686.828    24409690.531     -140701.90909    -75878.17009      -795.109  
  22326430.195    22326432.258     -803077.48409   -499340.62609     -4588.453  
  22250958.086    22250960.137      289053.41609    179145.43509      1684.313  
 97  6 24 14 51  8.0000000  0  7G01G14G15G21G02G29G31
  22158194.516    22158197.398      -74158.77601    -38594.43209      -374.484  
  21980091.641    21980094.184     -742861.82401   -472537.58009     -4220.578  
  19960307.406    19960308.777     -364337.95401   -195309.82301     -2046.609  
  24325882.523    24325885.500      274611.60009    150782.19609      1630.031  
  24409535.031    24409538.383     -141496.84809    -76497.60109      -795.266  
  22325556.859    22325558.770     -807665.86209   -502915.98609     -4588.813  
  22251278.680    22251280.707      290737.78209    180457.92709      1683.891  
 97  6 24 14 51  9.0000000  0  7G01G14G15G21G02G29G31
  22158123.227    22158126.051      -74533.22501    -38886.21009      -374.641  
  21979288.242    21979290.727     -747082.49801   -475826.41709     -4221.047  
  19959917.930    19959919.242     -366384.60501   -196904.61601     -2046.953  
  24326192.477    24326195.266      276241.39409    152052.16709      1629.313  
  24409383.859    24409387.176     -142292.12009    -77117.29309      -795.531  
  22324683.750    22324685.672     -812254.77109   -506491.75709     -4589.281  
  22251599.391    22251601.406      292421.56609    181769.96609      1683.406  
 97  6 24 14 51 10.0000000  0  7G01G14G15G21G02G29G31
  22158051.961    22158054.750      -74907.71701    -39178.02409      -373.906  
  21978485.008    21978487.516     -751303.55901   -479115.55609     -4220.625  
  19959528.406    19959529.695     -368431.49701   -198499.59701     -2046.391  
  24326501.547    24326504.605      277870.61409    153321.68809      1629.531  
  24409233.078    24409236.242     -143087.55809    -77737.12109      -794.906  
  22323810.461    22323812.430     -816844.05709   -510067.82309     -4588.828  
  22251919.398    22251921.496      294104.92709    183081.67509      1683.813  
 97  6 24 14 51 11.0000000  0  7G01G14G15G21G02G29G31
  22157981.016    22157983.828      -75281.08901    -39468.96309      -372.563  
  21977681.844    21977684.316     -755523.81101   -482404.06509     -4219.609  
  19959139.172    19959140.438     -370477.44301   -200093.84101     -2045.234  
  24326812.500    24326815.770      279500.43409    154591.68109      1630.375  
  24409081.227    24409084.262     -143881.98909    -78356.16709      -793.672  
  22322937.250    22322939.301     -821432.51009   -513643.24109     -4587.797  
  22252239.828    22252241.891      295789.11209    184394.02709      1684.797  
 97  6 24 14 51 12.0000000  0  7G01G14G15G21G02G29G31
  22157910.125    22157912.797      -75653.47401    -39759.13109      -372.172  
  21976878.867    21976881.328     -759743.38901   -485692.04709     -4219.531  
  19958750.086    19958751.328     -372522.58201   -201687.45401     -2045.016  
  24327122.289    24327125.418      281130.70209    155862.02109      1630.250  
  24408930.273    24408934.082     -144675.51109    -78974.50209      -793.359  
  22322064.070    22322065.910     -826020.26309   -517218.11309     -4587.688  
  22252560.648    22252562.711      297473.92809    185706.87109      1684.859  
 97  6 24 14 51 13.0000000  0  7G01G14G15G21G02G29G31
  22157839.211    22157841.895      -76025.34301    -40048.89909      -371.781  
  21976076.039    21976078.465     -763962.78601   -488979.88909     -4219.469  
  19958360.836    19958362.031     -374567.39402   -203280.81401     -2044.828  
  24327432.383    24327435.852      282760.95409    157132.33909      1630.063  
  24408778.961    24408782.559     -145468.63209    -79592.52409      -793.078  
  22321191.125    22321193.141     -830607.82209   -520792.83409     -4587.625  
  22252881.430    22252883.551      299158.88709    187019.82709      1684.875  
 97  6 24 14 51 14.0000000  0  7G01G14G15G21G02G29G31
  22157768.711    22157771.301      -76396.69101    -40338.26009      -370.766  
  21975273.164    21975275.508     -768181.97401   -492267.56709     -4218.766  
  19957971.750    19957973.027     -376611.85501   -204873.90001     -2043.969  
  24327743.281    24327749.152      284391.22509    158402.67409      1630.594  
  24408628.773    24408632.184     -146261.32509    -80210.21109      -792.172  
  22320318.305    22320320.484     -835195.15309   -524367.37609     -4586.922  
  22253201.992    22253203.973      300844.04109    188332.93309      1685.531  
 97  6 24 14 51 15.0000000  0  7G01G14G15G21G02G29G31
  22157698.188    22157700.766      -76767.30502    -40627.04809      -370.891  
  21974470.359    21974472.633     -772400.73701   -495554.91509     -4219.203  
  19957582.898    19957584.129     -378655.75701   -206466.55201     -2044.266  
  24328053.234    24328059.082      286021.65809    159673.13709      1629.891  
  24408477.945    24408481.145     -147053.38309    -80827.40509      -792.406  
  22319445.594    22319447.773     -839782.04809   -527941.58109     -4587.328  
  22253522.656    22253524.625      302529.57109    189646.33409      1685.078  
 97  6 24 14 51 16.0000000  0  7G01G14G15G21G02G29G31
  22157627.617    22157630.184      -77138.19402    -40916.05209      -370.984  
  21973667.414    21973669.617     -776620.09201   -498842.72309     -4219.594  
  19957193.797    19957195.039     -380700.12101   -208059.56301     -2044.531  
  24328363.438    24328368.992      287651.30509    160942.98709      1629.281  
  24408327.211    24408330.586     -147845.84809    -81444.91309      -792.578  
  22318572.445    22318574.520     -844369.51809   -531516.23209     -4587.688  
  22253843.203    22253845.090      304214.46909    190959.24109      1684.656  
 97  6 24 14 51 17.0000000  0  7G01G14G15G21G02G29G31
  22157557.164    22157559.707      -77508.66503    -41204.73009      -370.000  
  21972864.781    21972866.938     -780839.34301   -502130.44909     -4218.953  
  19956804.766    19956806.066     -382744.24101   -209652.38401     -2043.750  
  24328673.234    24328678.988      289280.84509    162212.75409      1629.734  
  24408176.422    24408179.691     -148637.99209    -82062.16409      -791.750  
  22317699.531    22317701.629     -848956.86109   -535090.78209     -4587.047  
  22254163.875    22254165.809      305899.45209    192272.21409      1685.250  
 97  6 24 14 51 18.0000000  0  7G01G14G15G21G02G29G31
  22157486.742    22157489.297      -77878.27804    -41492.74009      -369.109  
  21972061.969    21972064.055     -785058.04401   -505417.74709     -4218.359  
  19956415.789    19956417.148     -384787.67501   -211244.66901     -2043.016  
  24328983.406    24328988.727      290910.69509    163482.74709      1630.109  
  24408026.289    24408029.430     -149429.36309    -82678.81209      -790.922  
  22316826.594    22316828.680     -853543.62509   -538664.88209     -4586.406  
  22254484.750    22254486.754      307584.94609    193585.58609      1685.813  
 97  6 24 14 51 19.0000000  0  7G01G14G15G21G02G29G31
  22157416.570    22157419.207      -78247.23304    -41780.23609      -368.766  
  21971258.938    21971261.105     -789276.40201   -508704.77809     -4218.313  
  19956027.242    19956028.578     -386830.62501   -212836.57801     -2042.844  
  24329293.656    24329298.730      292540.68109    164752.84909      1629.953  
  24407875.242    24407877.844     -150220.19109    -83295.03809      -790.656  
  22315954.195    22315956.199     -858130.03109   -542238.70309     -4586.359  
  22254805.719    22254807.711      309270.74009    194899.19009      1685.828  
 97  6 24 14 51 20.0000000  0  7G01G14G15G21G02G29G31
  22157346.453    22157349.020      -78615.84205    -42067.46309      -368.234  
  21970456.563    21970458.742     -793494.71601   -511991.77509     -4218.109  
  19955638.414    19955639.762     -388873.40501   -214428.35601     -2042.500  
  24329603.922    24329610.238      294170.51309    166022.85709      1629.953  
  24407725.203    24407729.211     -151010.74409    -83911.04709      -790.250  
  22315081.203    22315083.219     -862716.39109   -545812.48809     -4586.156  
  22255126.258    22255128.262      310956.54109    196212.79709      1685.984  
 97  6 24 14 51 21.0000000  0  7G01G14G15G21G02G29G31
  22157276.508    22157279.016      -78983.70205    -42354.10709      -367.484  
  21969653.828    21969656.008     -797712.58601   -515278.42409     -4217.656  
  19955249.789    19955251.113     -390915.60801   -216019.68301     -2041.906  
  24329914.094    24329919.590      295800.52509    167292.99609      1630.172  
  24407574.961    24407577.996     -151800.65909    -84526.56309      -789.578  
  22314208.617    22314210.609     -867302.30809   -549385.92909     -4585.703  
  22255447.055    22255449.047      312642.77009    197526.73809      1686.438  
 97  6 24 14 51 22.0000000  0  7G01G14G15G21G02G29G31
  22157206.570    22157209.113      -79351.19404    -42640.46609      -367.313  
  21968851.039    21968853.219     -801930.40901   -518565.04109     -4217.781  
  19954861.250    19954862.609     -392957.61401   -217610.85701     -2041.906  
  24330224.242    24330231.957      297430.40909    168563.03609      1629.813  
  24407423.922    24407427.109     -152590.32209    -85141.88309      -789.531  
  22313335.797    22313337.930     -871888.18009   -552959.33309     -4585.828  
  22255768.047    22255770.109      314328.99009    198840.67209      1686.266  
 97  6 24 14 51 23.0000000  0  7G01G14G15G21G02G29G31
  22157136.688    22157139.160      -79717.70204    -42926.05709      -365.641  
  21968048.586    21968050.684     -806147.54801   -521851.12409     -4216.453  
  19954472.844    19954474.262     -394998.81001   -219201.39901     -2040.422  
  24330534.727    24330541.867      299060.76409    169833.45109      1630.969  
  24407274.250    24407277.473     -153379.10309    -85756.52009      -787.969  
  22312463.344    22312465.406     -876473.33809   -556532.18209     -4584.469  
  22256089.211    22256091.109      316015.89109    200155.13909      1687.547  
 97  6 24 14 51 24.0000000  0  7G01G14G15G21G02G29G31
  22157067.031    22157069.504      -80083.41403    -43211.02509      -365.828  
  21967246.047    21967248.063     -810364.19601   -525136.82209     -4216.922  
  19954084.633    19954086.027     -397039.38401   -220791.45701     -2040.766  
  24330845.133    24330852.730      300691.40709    171104.07909      1630.219  
  24407124.031    24407127.348     -154167.18209    -86370.61709      -788.250  
  22311591.047    22311592.992     -881058.00709   -560104.65009     -4584.953  
  22256409.898    22256411.785      317703.22709    201469.94509      1687.031  
 97  6 24 14 51 25.0000000  0  7G01G14G15G21G02G29G31
  22156997.508    22157000.027      -80449.30002    -43496.13209      -365.688  
  21966443.727    21966445.742     -814581.34401   -528422.91009     -4217.109  
  19953696.273    19953697.750     -399080.31501   -222381.79301     -2040.813  
  24331155.523    24331163.063      302321.31009    172374.12209      1629.844  
  24406974.469    24406977.645     -154955.55009    -86984.93809      -788.219  
  22310718.516    22310720.461     -885643.20009   -563677.52809     -4585.141  
  22256731.203    22256733.090      319389.99709    202784.31009      1686.828  
 97  6 24 14 51 26.0000000  0  7G01G14G15G21G02G29G31
  22156927.820    22156930.387      -80814.63602    -43780.81009      -365.031  
  21965641.344    21965643.406     -818798.25601   -531708.81609     -4216.766  
  19953307.867    19953309.355     -401120.87001   -223971.83701     -2040.344  
  24331465.359    24331473.895      303951.23709    173644.19009      1629.984  
  24406824.297    24406827.145     -155743.49409    -87598.92609      -787.719  
  22309846.000    22309847.945     -890228.13809   -567250.20609     -4584.797  
  22257052.305    22257054.133      321076.98909    204098.84609      1687.094  
 97  6 24 14 51 27.0000000  0  7G01G14G15G21G02G29G31
  22156858.328    22156860.859      -81179.51201    -44065.12809      -364.359  
  21964838.992    21964841.031     -823015.00901   -534994.59709     -4216.406  
  19952919.453    19952920.941     -403161.13701   -225561.65601     -2039.859  
  24331775.992    24331783.168      305581.09209    174914.22109      1630.109  
  24406674.813    24406677.262     -156531.06909    -88212.62809      -787.156  
  22308973.734    22308975.680     -894812.90909   -570822.75709     -4584.438  
  22257373.336    22257375.352      322764.09109    205413.46909      1687.422  
 97  6 24 14 51 28.0000000  0  7G01G14G15G21G02G29G31
  22156789.070    22156791.602      -81543.06801    -44348.41909      -363.156  
  21964036.586    21964038.637     -827230.77301   -538279.60909     -4215.500  
  19952531.539    19952532.992     -405200.27901   -227150.59801     -2038.813  
  24332086.055    24332092.875      307211.71209    176184.85709      1630.750  
  24406525.289    24406527.352     -157317.46009    -88825.40609      -786.047  
  22308101.156    22308103.020     -899396.70309   -574394.54509     -4583.516  
  22257694.508    22257696.605      324452.13809    206728.82909      1688.281  
 97  6 24 14 51 29.0000000  0  7G01G14G15G21G02G29G31
  22156720.305    22156722.754      -81906.03401    -44631.25209      -362.719  
  21963234.359    21963236.434     -831446.26401   -541564.40709     -4215.406  
  19952143.500    19952144.906     -407239.01501   -228739.22201     -2038.594  
  24332396.289    24332402.793      308842.37709    177455.51309      1630.625  
  24406376.188    24406378.320     -158103.38209    -89437.81509      -785.750  
  22307229.148    22307231.070     -903980.20209   -577966.10409     -4583.422  
  22258015.945    22258018.125      326140.41309    208044.36609      1688.328  
 97  6 24 14 51 30.0000000  0  7G01G14G15G21G02G29G31
  22156651.234    22156653.707      -82268.70201    -44913.85009      -362.219  
  21962432.219    21962434.316     -835661.75201   -544849.20309     -4215.219  
  19951755.781    19951757.199     -409277.62701   -230327.75101     -2038.266  
  24332706.406    24332711.070      310472.79009    178725.95209      1630.563  
  24406225.820    24406228.035     -158889.10009    -90050.06409      -785.344  
  22306356.867    22306358.848     -908563.69209   -581537.65009     -4583.234  
  22258337.141    22258339.227      327828.66209    209359.88309      1688.516  
 97  6 24 14 51 31.0000000  0  7G01G14G15G21G02G29G31
  22456374.977    22456377.473      -82630.42201    -45195.71209      -361.813  
  22261423.500    22261425.527     -839872.78601   -548130.52709     -4215.125  
  20251160.641    20251162.035     -411313.82501   -231914.39901     -2038.047  
  24632808.555    24632813.664      312101.59209    179995.14109      1630.438  
  24705869.516    24705871.473     -159673.59409    -90661.35709      -785.031  
  22605277.945    22605280.031     -913142.39709   -585105.47309     -4583.141  
  22558450.594    22558452.703      329515.42509    210674.24009      1688.563  
 97  6 24 14 51 32.0000000  0  7G01G14G15G21G02G29G31
  22456306.031    22456308.492      -82991.97601    -45477.44409      -361.266  
  22260621.445    22260623.520     -844087.80901   -551414.96009     -4214.922  
  20250772.789    20250774.219     -413351.71101   -233502.36201     -2037.719  
  24633118.836    24633122.703      313731.98409    181265.57509      1630.359  
  24705720.266    24705722.586     -160458.45309    -91272.93009      -784.656  
  22604406.000    22604408.168     -917725.44509   -588676.67809     -4582.969  
  22558771.859    22558774.086      331204.04909    211990.05009      1688.703  
 97  6 24 14 51 33.0000000  0  7G01G14G15G21G02G29G31
  22456237.367    22456239.852      -83352.98901    -45758.75209      -360.703  
  22259819.250    22259821.289     -848302.61101   -554699.21909     -4214.656  
  20250385.063    20250386.504     -415389.24301   -235090.04801     -2037.313  
  24633429.000    24633432.047      315362.36609    182535.99909      1630.422  
  24705570.578    24705572.406     -161242.88009    -91884.16909      -784.203  
  22603533.820    22603535.918     -922308.26309   -592247.70609     -4582.688  
  22559093.180    22559095.289      332892.88409    213306.02509      1688.953  
 97  6 24 14 51 34.0000000  0  7G01G14G15G21G02G29G31
  22456168.813    22456171.309      -83713.43701    -46039.62109      -360.344  
  22259017.227    22259019.277     -852517.18101   -557983.29909     -4214.594  
  20249997.547    20249998.977     -417426.40101   -236677.44401     -2037.125  
  24633739.273    24633742.766      316992.72609    183806.41309      1630.203  
  24705421.961    24705424.070     -162026.89909    -92495.09109      -783.953  
  22602661.805    22602663.949     -926890.85009   -595818.55309     -4582.609  
  22559414.711    22559416.750      334581.89509    214622.13409      1688.969  
 97  6 24 14 51 35.0000000  0  7G01G14G15G21G02G29G31
  22456100.266    22456102.738      -84073.46001    -46320.15709      -359.672  
  22258215.273    22258217.371     -856731.63101   -561267.28609     -4214.266  
  20249609.969    20249611.352     -419463.30501   -238264.64101     -2036.656  
  24634049.086    24634053.070      318622.97409    185076.73809      1630.281  
  24705272.109    24705274.207     -162810.59809    -93105.76309      -783.438  
  22601789.664    22601791.820     -931473.29909   -599389.29109     -4582.281  
  22559735.836    22559737.957      336271.01209    215938.32809      1689.266  
 97  6 24 14 51 36.0000000  0  7G01G14G15G21G02G29G31
  22456031.844    22456034.398      -84432.94301    -46600.27409      -359.219  
  22257413.367    22257415.418     -860945.83601   -564551.07909     -4214.109  
  20249222.258    20249223.664     -421499.84901   -239851.55801     -2036.375  
  24634359.500    24634364.293      320253.18209    186347.01409      1630.219  
  24705123.555    24705125.629     -163593.89009    -93716.12009      -783.094  
  22600917.711    22600919.984     -936055.50709   -602959.84309     -4582.109  
  22560057.578    22560059.664      337960.32609    217254.67609      1689.406  
 97  6 24 14 51 37.0000000  0  7G01G14G15G21G02G29G31
  22455963.430    22455965.926      -84792.01401    -46880.06809      -358.734  
  22256611.375    22256613.320     -865159.95201   -567834.80509     -4213.922  
  20248834.883    20248836.230     -423536.16401   -241438.29701     -2036.078  
  24634669.766    24634675.273      321883.23809    187617.17209      1630.109  
  24704973.867    24704976.410     -164376.91109    -94326.26409      -782.734  
  22600045.719    22600047.922     -940637.65109   -606530.34309     -4581.938  
  22560378.945    22560381.125      339649.71209    218571.08009      1689.563  
 97  6 24 14 51 38.0000000  0  7G01G14G15G21G02G29G31
  22455895.469    22455897.906      -85150.51301    -47159.41809      -358.156  
  22255809.523    22255811.457     -869373.80201   -571118.32309     -4213.672  
  20248447.313    20248448.719     -425572.08701   -243024.72901     -2035.672  
  24634980.547    24634986.980      323513.30309    188887.35109      1630.109  
  24704825.602    24704827.875     -165159.45509    -94936.03109      -782.281  
  22599174.000    22599176.063     -945219.50109   -610100.61509     -4581.688  
  22560700.516    22560702.730      341339.33509    219887.66909      1689.781  
 97  6 24 14 51 39.0000000  0  7G01G14G15G21G02G29G31
  22455827.266    22455829.762      -85508.02501    -47437.99809      -357.188  
  22255007.727    22255009.707     -873586.96401   -574401.30609     -4213.000  
  20248060.164    20248061.582     -427607.18601   -244610.52101     -2034.875  
  24635290.586    24635294.922      325143.80909    190157.87309      1630.531  
  24704675.898    24704678.465     -165941.15809    -95545.14009      -781.438  
  22598302.063    22598304.113     -949800.67009   -613670.35809     -4581.016  
  22561022.156    22561024.219      343029.63009    221204.78309      1690.438  
 97  6 24 14 51 40.0000000  0  7G01G14G15G21G02G29G31
  22455759.391    22455761.910      -85864.88301    -47716.06809      -356.328  
  22254206.031    22254207.965     -877799.78601   -577684.02309     -4212.438  
  20247672.992    20247674.398     -429641.82601   -246195.95401     -2034.188  
  24635601.500    24635606.914      326774.38709    191428.46409      1630.844  
  24704527.617    24704530.781     -166722.33709    -96153.84509      -780.688  
  22597430.477    22597432.609     -954381.52909   -617239.85809     -4580.469  
  22561343.648    22561345.711      344720.21009    222522.11909      1690.953  
 97  6 24 14 51 41.0000000  0  7G01G14G15G21G02G29G31
  22455691.508    22455694.051      -86221.06801    -47993.61309      -355.875  
  22253404.445    22253406.402     -882012.23401   -580966.44909     -4212.313  
  20247285.992    20247287.398     -431675.96501   -247780.99701     -2033.922  
  24635910.891    24635916.094      328405.07009    192699.12709      1630.719  
  24704380.063    24704383.625     -167502.96509    -96762.12709      -780.422  
  22596558.844    22596560.895     -958962.00609   -620809.06209     -4580.344  
  22561665.563    22561667.543      346411.14409    223839.72909      1691.063  
 97  6 24 14 51 42.0000000  0  7G01G14G15G21G02G29G31
  22455623.875    22455626.441      -86576.59701    -48270.64909      -355.281  
  22252602.844    22252604.789     -886224.33001   -584248.60209     -4212.000  
  20246899.063    20246900.516     -433709.61201   -249365.65701     -2033.500  
  24636221.203    24636225.727      330035.87009    193969.87009      1630.750  
  24704231.609    24704234.914     -168283.05009    -97369.98709      -779.906  
  22595687.531    22595689.570     -963542.09709   -624377.96509     -4580.016  
  22561987.422    22561989.414      348102.41109    225157.59809      1691.328  
 97  6 24 14 51 43.0000000  0  7G01G14G15G21G02G29G31
  22455556.422    22455558.906      -86931.45101    -48547.15809      -354.625  
  22251801.492    22251803.355     -890436.06001   -587530.47009     -4211.641  
  20246511.867    20246513.355     -435742.77501   -250949.93901     -2033.016  
  24636532.047    24636536.172      331666.76809    195240.68909      1630.844  
  24704082.711    24704086.684     -169062.60609    -97977.42809      -779.391  
  22594815.633    22594817.684     -968121.86609   -627946.61609     -4579.672  
  22562309.430    22562311.457      349794.00109    226475.72109      1691.672  
 97  6 24 14 51 44.0000000  0  7G01G14G15G21G02G29G31
  22455488.820    22455491.363      -87285.91101    -48823.36109      -354.000  
  22250999.938    22251001.742     -894647.68101   -590812.25209     -4211.344  
  20246125.219    20246126.684     -437775.71302   -252534.04701     -2032.594  
  24636841.977    24636848.422      333297.50709    196511.39209      1630.906  
  24703934.055    24703937.699     -169841.87009    -98584.64209      -778.906  
  22593944.070    22593946.156     -972701.53809   -631515.19309     -4579.406  
  22562631.461    22562633.547      351485.66309    227793.89909      1691.922  
 97  6 24 14 51 45.0000000  0  7G01G14G15G21G02G29G31
  22455421.727    22455424.258      -87639.72501    -49099.05909      -353.547  
  22250198.336    22250200.211     -898858.96501   -594093.77309     -4211.172  
  20245738.414    20245739.844     -439808.18102   -254117.78901     -2032.297  
  24637152.234    24637159.340      334928.30109    197782.13609      1630.781  
  24703785.641    24703789.039     -170620.62609    -99191.46809      -778.563  
  22593072.641    22593074.738     -977280.88509   -635083.51609     -4579.234  
  22562953.500    22562955.551      353177.65609    229112.33309      1692.094  
 97  6 24 14 51 46.0000000  0  7G01G14G15G21G02G29G31
  22455354.430    22455356.996      -87992.70501    -49374.10809      -352.938  
  22249397.070    22249398.992     -903069.72201   -597374.88209     -4210.859  
  20245351.781    20245353.188     -441840.00702   -255701.03001     -2031.875  
  24637462.758    24637467.797      336559.39509    199053.10809      1630.875  
  24703638.633    24703642.488     -171398.68409    -99797.75409      -778.063  
  22592201.070    22592203.180     -981859.73709   -638651.45409     -4578.938  
  22563275.141    22563277.098      354870.13509    230431.14909      1692.359  
 97  6 24 14 51 47.0000000  0  7G01G14G15G21G02G29G31
  22455287.242    22455289.879      -88345.57301    -49649.07009      -352.688  
  22248596.023    22248597.805     -907280.65701   -600656.12709     -4210.906  
  20244965.000    20244966.453     -443871.88802   -257284.31401     -2031.797  
  24637772.797    24637777.754      338190.04409    200323.71009      1630.547  
  24703490.430    24703494.965     -172176.71109   -100404.01209      -777.953  
  22591329.906    22591331.992     -986438.76809   -642219.52909     -4579.047  
  22563597.555    22563599.465      356562.40509    231749.80209      1692.281  
 97  6 24 14 51 48.0000000  0  7G01G14G15G21G02G29G31
  22455220.188    22455222.801      -88698.09401    -49923.76209      -352.016  
  22247794.617    22247796.316     -911491.53701   -603937.33309     -4210.531  
  20244578.477    20244579.906     -445903.60002   -258867.46701     -2031.297  
  24638083.617    24638088.504      339820.47409    201594.15309      1630.672  
  24703342.172    24703347.363     -172954.54509   -101010.11409      -777.406  
  22590458.586    22590460.730     -991017.77209   -645787.58409     -4578.656  
  22563919.219    22563921.141      358254.71709    233068.48809      1692.656  
 97  6 24 14 51 49.0000000  0  7G01G14G15G21G02G29G31
  22455153.273    22455155.945      -89049.62501    -50197.68109      -351.453  
  22246993.453    22246995.188     -915701.72101   -607217.99709     -4210.250  
  20244192.063    20244193.480     -447934.49901   -260449.98701     -2030.906  
  24638394.211    24638398.594      341451.32909    202864.95309      1630.672  
  24703193.141    24703198.426     -173731.49909   -101615.53009      -776.938  
  22589587.336    22589589.480     -995596.10809   -649355.11709     -4578.391  
  22564241.539    22564243.520      359947.70709    234387.70209      1692.922  
 97  6 24 14 51 50.0000000  0  7G01G14G15G21G02G29G31
  22455086.508    22455089.145      -89400.81101    -50471.33309      -350.813  
  22246192.375    22246194.074     -919911.85401   -610498.61809     -4209.906  
  20243805.586    20243806.969     -449965.23201   -262032.37701     -2030.453  
  24638704.555    24638709.043      343081.97609    204135.58709      1630.750  
  24703046.313    24703051.422     -174508.24109   -102220.78409      -776.438  
  22588716.063    22588718.254    -1000174.40209   -652922.61609     -4578.094  
  22564563.930    22564565.992      361640.71209    235706.92509      1693.188  
 97  6 24 14 51 51.0000000  0  7G01G14G15G21G02G29G31
  22455019.695    22455022.367      -89751.35901    -50744.48709      -350.141  
  22245391.164    22245392.758     -924121.63701   -613778.96709     -4209.516  
  20243419.281    20243420.688     -451995.49401   -263614.40001     -2029.938  
  24639015.000    24639019.875      344712.71109    205406.29009      1630.859  
  24702898.375    24702903.098     -175284.44909   -102825.62009      -775.844  
  22587845.203    22587847.430    -1004752.35409   -656489.85009     -4577.688  
  22564886.000    22564888.145      363334.04809    237026.40609      1693.578  
 97  6 24 14 51 52.0000000  0  7G01G14G15G21G02G29G31
  22454953.383    22454956.090      -90101.27101    -51017.14709      -349.719  
  22244590.250    22244591.820     -928331.06801   -617059.04209     -4209.391  
  20243033.039    20243034.398     -454025.30401   -265196.07001     -2029.703  
  24639324.914    24639329.531      346343.51709    206677.05709      1630.703  
  24702751.305    24702755.746     -176060.15709   -103430.07109      -775.563  
  22586974.023    22586976.168    -1009329.97809   -660056.82909     -4577.563  
  22565208.086    22565210.219      365027.70209    238346.13509      1693.703  
 97  6 24 14 51 53.0000000  0  7G01G14G15G21G02G29G31
  22454886.516    22454889.258      -90450.58901    -51289.34409      -348.953  
  22243789.148    22243790.777     -932540.19301   -620338.88009     -4208.906  
  20242646.914    20242648.309     -456054.68101   -266777.40401     -2029.094  
  24639635.141    24639639.887      347974.36609    207947.85909      1630.922  
  24702603.031    24702607.145     -176835.34409   -104034.11709      -774.906  
  22586103.094    22586105.215    -1013907.30409   -663623.57409     -4577.156  
  22565530.656    22565532.848      366721.65609    239666.09809      1694.156  
 97  6 24 14 51 54.0000000  0  7G01G14G15G21G02G29G31
  22454820.281    22454822.930      -90799.15901    -51560.95909      -348.234  
  22242988.328    22242989.945     -936748.84501   -623618.34809     -4208.469  
  20242260.586    20242261.934     -458083.47601   -268358.28401     -2028.547  
  24639945.711    24639949.355      349605.41609    209218.81809      1631.109  
  24702456.164    24702459.504     -177609.92809   -104637.68409      -774.313  
  22585232.125    22585234.188    -1018484.17009   -667189.96009     -4576.688  
  22565852.719    22565854.934      368416.06509    240986.41609      1694.578  
 97  6 24 14 51 55.0000000  0  7G01G14G15G21G02G29G31
  22454754.211    22454756.883      -91147.00001    -51832.00509      -347.344  
  22242187.398    22242189.109     -940957.04001   -626897.45909     -4207.828  
  20241874.750    20241876.133     -460111.70501   -269938.72301     -2027.813  
  24640256.383    24640260.602      351236.65309    210489.92009      1631.484  
  24702308.680    24702311.938     -178383.88209   -105240.77009      -773.500  
  22584361.141    22584363.215    -1023060.62109   -670756.02409     -4576.078  
  22566175.242    22566177.480      370110.88709    242307.05509      1695.203  
 97  6 24 14 51 56.0000000  0  7G01G14G15G21G02G29G31
  22454688.211    22454690.719      -91493.88401    -52102.30309      -346.641  
  22241386.906    22241388.570     -945164.54401   -630176.03109     -4207.406  
  20241488.898    20241490.398     -462139.12301   -271518.52801     -2027.266  
  24640566.906    24640570.645      352868.32009    211761.36109      1631.625  
  24702161.641    24702164.313     -179156.99309   -105843.20409      -772.922  
  22583490.617    22583492.762    -1027636.39809   -674321.56209     -4575.703  
  22566497.813    22566500.039      371806.39209    243628.22809      1695.578  
 97  6 24 14 51 57.0000000  0  7G01G14G15G21G02G29G31
  22454622.453    22454624.891      -91840.29801    -52372.23509      -346.391  
  22240586.344    22240587.996     -949371.85601   -633454.45309     -4207.406  
  20241103.039    20241104.504     -464166.23801   -273098.09701     -2027.156  
  24640877.039    24640879.641      354499.92009    213032.74809      1631.344  
  24702014.750    24702017.516     -179929.69909   -106445.32109      -772.750  
  22582620.023    22582622.180    -1032211.99509   -677886.95809     -4575.719  
  22566820.430    22566822.586      373502.06409    244949.53109      1695.563  
 97  6 24 14 51 58.0000000  0  7G01G14G15G21G02G29G31
  22454556.234    22454558.707      -92186.35701    -52641.89109      -345.641  
  22239785.508    22239787.266     -953579.06401   -636732.79709     -4206.922  
  20240717.367    20240718.797     -466193.13601   -274677.49701     -2026.547  
  24641187.141    24641190.070      356131.33609    214303.98609      1631.578  
  24701867.820    24701871.020     -180702.18009   -107047.25809      -772.109  
  22581749.133    22581751.418    -1036787.50609   -681452.28709     -4575.219  
  22567143.078    22567145.363      375197.81809    246270.89809      1696.016  
 97  6 24 14 51 59.0000000  0  7G01G14G15G21G02G29G31
  22454490.602    22454493.133      -92531.71501    -52911.00109      -345.219  
  22238985.188    22238986.840     -957785.84501   -640010.80809     -4206.766  
  20240331.781    20240333.199     -468219.48601   -276256.47201     -2026.281  
  24641497.516    24641500.457      357762.94609    215575.36409      1631.469  
  24701721.320    24701724.754     -181474.05509   -107648.72209      -771.781  
  22580878.586    22580880.789    -1041362.57809   -685017.27509     -4575.094  
  22567465.969    22567468.301      376893.97409    247592.57709      1696.156  
 97  6 24 14 52  0.0000000  0  7G01G14G15G21G02G29G31
  22454425.133    22454427.711      -92876.78101    -53179.88609      -344.766  
  22238184.594    22238186.352     -961992.59701   -643288.79509     -4206.578  
  20239946.375    20239947.805     -470245.70001   -277835.34101     -2025.984  
  24641808.461    24641811.262      359394.27509    216846.52609      1631.375  
  24701573.656    24701577.160     -182245.72609   -108250.02709      -771.422  
  22580008.000    22580010.133    -1045937.65909   -688582.27009     -4574.922  
  22567788.844    22567791.246      378590.13809    248914.26009      1696.328  
 97  6 24 14 52  1.0000000  0  7G01G14G15G21G02G29G31
  22454359.383    22454362.020      -93221.28801    -53448.33209      -344.156  
  22237384.047    22237385.781     -966199.04801   -646566.54909     -4206.250  
  20239560.727    20239562.168     -472271.50601   -279413.89101     -2025.547  
  24642118.906    24642122.199      361025.63109    218117.71009      1631.422  
  24701426.859    24701429.953     -183016.92509   -108850.96509      -770.906  
  22579137.438    22579139.617    -1050512.46709   -692147.05509     -4574.609  
  22568111.820    22568114.258      380286.57709    250236.15809      1696.656  
 97  6 24 14 52  2.0000000  0  7G01G14G15G21G02G29G31
  22454294.305    22454296.918      -93564.74401    -53715.96009      -342.906  
  22236583.742    22236585.406     -970404.73301   -649843.70509     -4205.266  
  20239175.492    20239176.922     -474296.42401   -280991.75001     -2024.438  
  24642429.563    24642432.445      362657.50109    219389.29909      1632.125  
  24701281.086    24701284.191     -183787.18409   -109451.17009      -769.766  
  22578266.945    22578269.172    -1055086.52409   -695711.25209     -4573.672  
  22568434.664    22568437.137      381983.77809    251558.65009      1697.594  
 97  6 24 14 52  3.0000000  0  7G01G14G15G21G02G29G31
  22454228.961    22454231.504      -93907.27601    -53982.87009      -342.391  
  22235783.438    22235785.090     -974609.76101   -653120.35109     -4205.016  
  20238790.375    20238791.758     -476320.57301   -282569.01001     -2024.078  
  24642740.313    24642743.629      364289.73109    220661.17109      1632.109  
  24701134.031    24701136.340     -184556.60109   -110050.72009      -769.328  
  22577396.680    22577398.789    -1059659.94309   -699274.95309     -4573.422  
  22568757.930    22568760.461      383681.59509    252881.62209      1697.813  
 97  6 24 14 52  4.0000000  0  7G01G14G15G21G02G29G31
  22454163.773    22454166.234      -94249.57501    -54249.59709      -342.000  
  22234983.547    22234985.188     -978814.83701   -656397.03409     -4204.906  
  20238405.086    20238406.539     -478344.65501   -284146.21601     -2023.859  
  24643050.570    24643053.441      365921.65109    221932.79609      1631.922  
  24700988.203    24700990.031     -185325.90409   -110650.18109      -769.047  
  22576526.398    22576528.379    -1064233.43309   -702838.70909     -4573.313  
  22569081.227    22569083.840      385379.34709    254204.54309      1697.906  
 97  6 24 14 52  5.0000000  0  7G01G14G15G21G02G29G31
  22454098.813    22454101.215      -94591.24401    -54515.83209      -341.578  
  22234183.359    22234184.941     -983019.56301   -659673.44509     -4204.781  
  20238020.063    20238021.527     -480368.26301   -285723.05501     -2023.609  
  24643361.219    24643363.762      367553.64409    223204.47909      1631.797  
  24700841.359    24700843.246     -186094.68409   -111249.23509      -768.734  
  22575655.984    22575657.965    -1068806.57609   -706402.19609     -4573.219  
  22569404.375    22569407.035      387077.43509    255527.72409      1698.016  
 97  6 24 14 52  6.0000000  0  7G01G14G15G21G02G29G31
  22454033.945    22454036.336      -94932.69301    -54781.89709      -340.984  
  22233383.227    22233384.844     -987224.35501   -662949.90709     -4204.469  
  20237634.945    20237636.410     -482391.82901   -287299.86001     -2023.188  
  24643671.469    24643674.410      369185.28209    224475.88309      1631.828  
  24700695.484    24700697.758     -186863.34509   -111848.19209      -768.250  
  22574785.891    22574787.777    -1073379.78309   -709965.73409     -4572.891  
  22569727.422    22569730.129      388775.43109    256850.83609      1698.297  
 97  6 24 14 52  7.0000000  0  7G01G14G15G21G02G29G31
  22453968.898    22453971.313      -95273.44001    -55047.41709      -340.438  
  22232583.086    22232584.609     -991428.73801   -666226.04809     -4204.219  
  20237250.047    20237251.523     -484414.87501   -288876.26001     -2022.813  
  24643982.016    24643984.781      370817.08409    225747.40909      1631.859  
  24700549.438    24700552.309     -187631.40909   -112446.68009      -767.813  
  22573915.664    22573917.563    -1077952.59509   -713528.96409     -4572.641  
  22570050.508    22570053.180      390473.80409    258174.24009      1698.547  
 97  6 24 14 52  8.0000000  0  7G01G14G15G21G02G29G31
  22453904.219    22453906.762      -95613.48301    -55312.38409      -339.922  
  22231783.125    22231784.543     -995632.69801   -669501.86109     -4204.000  
  20236864.969    20236866.457     -486437.38301   -290452.24101     -2022.500  
  24644292.531    24644296.164      372449.03909    227019.05709      1631.750  
  24700402.906    24700405.566     -188398.89409   -113044.72109      -767.453  
  22573045.508    22573047.371    -1082525.01309   -717091.88609     -4572.484  
  22570373.914    22570376.480      392172.59809    259497.97309      1698.719  
 97  6 24 14 52  9.0000000  0  7G01G14G15G21G02G29G31
  22453839.414    22453842.051      -95953.46601    -55577.30509      -339.859  
  22230983.070    22230984.512     -999836.88101   -672777.84809     -4204.203  
  20236480.336    20236481.777     -488460.00701   -292028.31201     -2022.594  
  24644603.117    24644606.785      374080.47109    228290.29609      1631.313  
  24700256.711    24700258.457     -189166.42309   -113642.80009      -767.484  
  22572175.398    22572177.379    -1087097.66509   -720654.99109     -4572.672  
  22570697.195    22570699.832      393871.11709    260821.49309      1698.500  
 97  6 24 14 52 10.0000000  0  7G01G14G15G21G02G29G31
  22453774.859    22453777.391      -96292.79601    -55841.71809      -338.984  
  22230183.000    22230184.418    -1004040.71201   -676053.56009     -4203.625  
  20236095.492    20236096.969     -490482.15901   -293604.01501     -2021.891  
  24644913.883    24644917.398      375711.99509    229561.60209      1631.594  
  24700111.398    24700113.543     -189933.43109   -114240.47209      -766.703  
  22571305.461    22571307.359    -1091669.98809   -724217.83909     -4572.109  
  22571020.203    22571022.910      395569.97509    262145.27509      1699.047  
 97  6 24 14 52 11.0000000  0  7G01G14G15G21G02G29G31
  22453710.484    22453713.004      -96631.48801    -56105.63309      -338.563  
  22229383.211    22229384.523    -1008244.17701   -679328.98809     -4203.500  
  20235710.758    20235712.199     -492503.83301   -295179.34501     -2021.656  
  24645223.781    24645229.195      377343.61709    230832.98709      1631.422  
  24699964.984    24699966.672     -190699.89209   -114837.70809      -766.422  
  22570435.391    22570437.348    -1096241.96209   -727780.41709     -4572.031  
  22571343.508    22571346.063      397269.16709    263469.31909      1699.156  
 97  6 24 14 52 12.0000000  0  7G01G14G15G21G02G29G31
  22453646.070    22453648.543      -96969.94901    -56369.36809      -338.234  
  22228583.313    22228584.625    -1012447.70701   -682604.46409     -4203.453  
  20235326.070    20235327.488     -494525.44901   -296754.63001     -2021.484  
  24645534.836    24645541.398      378974.89209    232104.11109      1631.219  
  24699819.773    24699822.023     -191466.23909   -115434.85409      -766.188  
  22569565.180    22569567.066    -1100814.00509   -731343.04509     -4571.969  
  22571666.844    22571669.316      398968.27809    264793.29909      1699.172  
 97  6 24 14 52 13.0000000  0  7G01G14G15G21G02G29G31
  22453581.758    22453584.254      -97307.76601    -56632.60109      -337.547  
  22227783.359    22227784.520    -1016650.90001   -685879.68009     -4203.063  
  20234941.367    20234942.785     -496546.61601   -298329.56501     -2020.969  
  24645844.906    24645848.750      380606.21009    233375.27009      1631.313  
  24699673.305    24699675.414     -192232.07509   -116031.60709      -765.609  
  22568695.234    22568697.063    -1105385.71109   -734905.41409     -4571.578  
  22571990.406    22571992.762      400667.71109    266117.53009      1699.563  
 97  6 24 14 52 14.0000000  0  7G01G14G15G21G02G29G31
  22453517.555    22453519.957      -97644.91801    -56895.31509      -336.922  
  22226983.570    22226984.684    -1020853.70401   -689154.59109     -4202.719  
  20234556.883    20234558.324     -498567.27901   -299904.10901     -2020.516  
  24646155.695    24646159.750      382237.64009    234646.51609      1631.359  
  24699527.914    24699529.320     -192997.32609   -116627.90309      -765.094  
  22567825.438    22567827.301    -1109957.02809   -738467.47909     -4571.250  
  22572313.773    22572316.141      402367.51709    267442.05309      1699.875  
 97  6 24 14 52 15.0000000  0  7G01G14G15G21G02G29G31
  22453453.609    22453456.082      -97981.49901    -57157.58509      -336.156  
  22226184.125    22226185.320    -1025056.23501   -692429.29109     -4202.250  
  20234172.516    20234173.945     -500587.54901   -301478.34301     -2019.922  
  24646466.273    24646470.293      383869.05709    235917.75109      1631.563  
  24699381.977    24699383.676     -193762.13309   -117223.85809      -764.422  
  22566955.672    22566957.605    -1114528.06309   -742029.32509     -4570.750  
  22572637.383    22572639.715      404067.57809    268766.77509      1700.359  
 97  6 24 14 52 16.0000000  0  7G01G14G15G21G02G29G31
  22453389.961    22453392.398      -98317.11801    -57419.10409      -335.172  
  22225384.414    22225385.633    -1029258.09701   -695703.46909     -4201.547  
  20233788.242    20233789.684     -502607.02801   -303051.96401     -2019.109  
  24646776.773    24646780.453      385500.87509    237189.28809      1632.016  
  24699236.789    24699237.996     -194526.06509   -117819.12909      -763.531  
  22566085.953    22566087.969    -1119098.42209   -745590.64509     -4570.031  
  22572960.906    22572963.191      405768.32809    270092.03409      1701.047  
 97  6 24 14 52 17.0000000  0  7G01G14G15G21G02G29G31
  22453326.219    22453328.668      -98651.97701    -57680.03209      -334.547  
  22224584.805    22224585.941    -1033459.48801   -698977.28009     -4201.250  
  20233403.938    20233405.367     -504625.90501   -304625.11401     -2018.656  
  24647086.719    24647090.375      387132.90809    238460.98809      1632.063  
  24699091.297    24699093.395     -195289.33609   -118413.87809      -763.000  
  22565216.109    22565218.090    -1123668.30909   -749151.59409     -4569.719  
  22573284.633    22573286.813      407469.52909    271417.64509      1701.359  
 97  6 24 14 52 18.0000000  0  7G01G14G15G21G02G29G31
  22453262.773    22453265.281      -98986.02001    -57940.32509      -333.734  
  22223785.531    22223786.680    -1037660.37201   -702250.69509     -4200.719  
  20233019.984    20233021.379     -506644.14501   -306197.76701     -2018.016  
  24647397.875    24647401.543      388765.18009    239732.86409      1632.297  
  24698946.156    24698948.934     -196051.87509   -119008.05609      -762.266  
  22564346.656    22564348.590    -1128237.65409   -752712.12509     -4569.172  
  22573608.250    22573610.348      409171.23609    272743.65009      1701.859  
 97  6 24 14 52 19.0000000  0  7G01G14G15G21G02G29G31
  22453198.953    22453201.402      -99319.65901    -58200.30309      -333.656  
  22222986.180    22222987.258    -1041861.15501   -705524.03409     -4200.938  
  20232635.977    20232637.406     -508662.14901   -307770.23801     -2018.094  
  24647708.984    24647713.555      390397.27309    241004.60709      1631.828  
  24698801.320    24698804.414     -196814.11509   -119602.00209      -762.313  
  22563477.258    22563479.203    -1132806.87209   -756272.55709     -4569.375  
  22573932.367    22573934.570      410873.03109    274069.72309      1701.656  
 97  6 24 14 52 20.0000000  0  7G01G14G15G21G02G29G31
  22453135.383    22453137.949      -99652.99101    -58460.04409      -333.047  
  22222186.656    22222187.746    -1046061.91001   -708797.34909     -4200.625  
  20232252.031    20232253.438     -510679.99801   -309342.58801     -2017.656  
  24648018.336    24648022.531      392029.14409    242276.19609      1631.844  
  24698656.773    24698659.938     -197576.13709   -120195.78509      -761.781  
  22562607.727    22562609.543    -1137376.05909   -759832.96209     -4569.047  
  22574256.289    22574258.398      412574.84309    275395.81009      1701.938  
 97  6 24 14 52 21.0000000  0  7G01G14G15G21G02G29G31
  22453072.258    22453074.813      -99986.05201    -58719.57109      -333.047  
  22221387.367    22221388.469    -1050262.68801   -712070.68209     -4200.922  
  20231868.102    20231869.520     -512697.73301   -310914.85001     -2017.813  
  24648329.461    24648333.527      393660.71409    243547.54909      1631.297  
  24698512.023    24698515.855     -198337.94309   -120789.40009      -761.891  
  22561738.016    22561739.797    -1141945.23809   -763393.36209     -4569.313  
  22574579.859    22574581.910      414276.64509    276721.89009      1701.641  
 97  6 24 14 52 22.0000000  0  7G01G14G15G21G02G29G31
  22453008.758    22453011.301     -100318.74801    -58978.81709      -332.313  
  22220588.063    22220589.164    -1054463.40601   -715343.97109     -4200.484  
  20231484.039    20231485.422     -514715.27801   -312486.96301     -2017.234  
  24648639.992    24648644.422      395292.07709    244818.73809      1631.469  
  24698366.602    24698370.563     -199099.51409   -121382.82709      -761.203  
  22560868.523    22560870.328    -1146514.30309   -766953.67209     -4568.797  
  22574903.734    22574905.762      415978.48809    278048.00109      1702.094  
 97  6 24 14 52 23.0000000  0  7G01G14G15G21G02G29G31
  22452945.758    22452948.219     -100651.01701    -59237.72909      -332.047  
  22219788.883    22219790.137    -1058663.99801   -718617.15909     -4200.531  
  20231100.336    20231101.660     -516732.56401   -314058.87401     -2017.156  
  24648950.398    24648954.406      396923.31909    246089.83509      1631.156  
  24698221.750    24698224.691     -199860.73809   -121975.98609      -761.063  
  22559999.273    22560001.008    -1151083.22709   -770513.87209     -4568.859  
  22575227.352    22575229.320      417680.46709    279374.21909      1702.063  
 97  6 24 14 52 24.0000000  0  7G01G14G15G21G02G29G31
  22452882.711    22452885.207     -100983.10401    -59496.49709      -331.984  
  22218989.383    22218990.555    -1062864.69501   -721890.42609     -4200.750  
  20230716.430    20230717.719     -518749.82801   -315630.76801     -2017.250  
  24649260.836    24649265.828      398554.16709    247360.63009      1630.656  
  24698077.164    24698080.316     -200621.86009   -122569.07309      -761.078  
  22559129.539    22559131.273    -1155652.24409   -774074.14509     -4569.047  
  22575551.297    22575553.313      419382.35609    280700.36809      1701.828  
 97  6 24 14 52 25.0000000  0  7G01G14G15G21G02G29G31
  22452819.352    22452821.777     -101314.49101    -59754.72009      -330.906  
  22218190.039    22218191.281    -1067064.99401   -725163.38509     -4199.953  
  20230332.688    20230333.977     -520766.56202   -317202.24701     -2016.313  
  24649570.875    24649575.551      400185.16009    248631.54009      1631.203  
  24697932.539    24697934.355     -201382.36609   -123161.68009      -760.063  
  22558260.250    22558262.031    -1160220.82909   -777634.08109     -4568.234  
  22575875.313    22575877.387      421084.64509    282026.82809      1702.641  
 97  6 24 14 52 26.0000000  0  7G01G14G15G21G02G29G31
  22452756.477    22452758.832     -101645.01401    -60012.27109      -330.203  
  22217390.891    22217392.227    -1071264.73201   -728435.90809     -4199.594  
  20229948.898    20229950.105     -522782.60002   -318773.18501     -2015.813  
  24649881.523    24649886.188      401816.48109    249902.69409      1631.344  
  24697786.805    24697789.078     -202142.11109   -123753.69109      -759.484  
  22557391.305    22557393.086    -1164788.82709   -781193.56009     -4567.813  
  22576199.258    22576201.203      422787.51309    283353.73909      1703.031  
 97  6 24 14 52 27.0000000  0  7G01G14G15G21G02G29G31
  22452693.930    22452696.461     -101974.72601    -60269.19009      -329.344  
  22216591.773    22216593.133    -1075463.96201   -731708.03409     -4199.016  
  20229565.328    20229566.535     -524797.99101   -320343.62201     -2015.094  
  24650192.203    24650196.176      403448.04709    251174.04309      1631.656  
  24697643.305    24697645.379     -202901.15009   -124345.15109      -758.688  
  22556521.750    22556523.590    -1169356.26409   -784752.60209     -4567.203  
  22576523.375    22576525.367      424490.90009    284681.05509      1703.594  
 97  6 24 14 52 28.0000000  0  6G01G14G15G02G29G31
  22452631.188    22452633.707     -102304.18601    -60525.91109      -329.219  
  22215792.508    22215793.855    -1079663.24001   -734980.19809     -4199.188  
  20229181.906    20229183.102     -526813.30902   -321913.99901     -2015.156  
  24697498.898    24697501.605     -203660.00109   -124936.46809      -758.672  
  22555652.789    22555654.570    -1173923.72209   -788311.65809     -4567.359  
  22576847.508    22576849.441      426194.23409    286008.32809      1703.422  
 97  6 24 14 52 29.0000000  0  6G01G14G15G02G29G31
  22452568.594    22452571.102     -102633.09601    -60782.20509      -328.656  
  22214993.586    22214994.957    -1083862.26901   -738252.16809     -4198.938  
  20228798.500    20228799.660     -528828.24001   -323484.07601     -2014.766  
  24697354.586    24697357.621     -204418.40709   -125527.43409      -758.188  
  22554783.555    22554785.441    -1178490.90209   -791870.49809     -4567.078  
  22577171.773    22577173.824      427897.80909    287335.78809      1703.688  
 97  6 24 14 52 30.0000000  0  6G01G14G15G02G29G31
  22452506.188    22452508.719     -102961.44601    -61038.06109      -327.984  
  22214194.641    22214196.000    -1088061.03201   -741523.93009     -4198.563  
  20228415.109    20228416.328     -530842.78501   -325053.85101     -2014.266  
  24697210.422    24697213.340     -205176.35009   -126118.03609      -757.609  
  22553914.719    22553916.711    -1183057.79509   -795429.11509     -4566.656  
  22577496.047    22577497.969      429601.67009    288663.47209      1704.078  
 97  6 24 14 52 31.0000000  0  6G01G14G15G02G29G31
  22452443.711    22452446.230     -103289.14201    -61293.40709      -327.516  
  22213395.633    22213396.992    -1092259.45101   -744795.42209     -4198.391  
  20228031.852    20228033.035     -532856.85101   -326623.25501     -2013.969  
  24697066.469    24697069.270     -205933.73709   -126708.21009      -757.250  
  22553045.867    22553048.059    -1187624.29409   -798987.42409     -4566.453  
  22577820.391    22577822.242      431305.88809    289991.43509      1704.250  
 97  6 24 14 52 32.0000000  0  6G01G14G15G02G29G31
  22452381.516    22452383.871     -103616.30701    -61548.34109      -326.828  
  22212596.875    22212598.246    -1096457.63501   -748066.73409     -4198.000  
  20227648.727    20227649.852     -534870.55601   -328192.37601     -2013.453  
  24696922.680    24696924.637     -206690.68609   -127298.04309      -756.672  
  22552176.898    22552179.184    -1192190.53409   -802545.53309     -4566.047  
  22578144.523    22578146.293      433010.33709    291319.57909      1704.625  
 97  6 24 14 52 33.0000000  0  6G01G14G15G02G29G31
  22452319.117    22452321.461     -103942.89901    -61802.82909      -326.188  
  22211798.070    22211799.371    -1100655.53301   -751337.82309     -4197.641  
  20227265.430    20227266.602     -536883.85201   -329761.17701     -2012.984  
  24696778.453    24696780.387     -207447.15209   -127887.50309      -756.109  
  22551307.742    22551310.109    -1196756.46109   -806103.39709     -4565.672  
  22578469.141    22578470.852      434715.06609    292647.94109      1704.984  
 97  6 24 14 52 34.0000000  0  6G01G14G15G02G29G31
  22452257.414    22452259.688     -104268.50401    -62056.54609      -325.109  
  22210999.305    22211000.617    -1104852.74901   -754608.37809     -4196.859  
  20226882.430    20226883.602     -538896.33401   -331329.34501     -2012.078  
  24696634.648    24696636.371     -208202.73209   -128476.27409      -755.125  
  22550438.953    22550441.227    -1201321.68209   -809660.70809     -4564.859  
  22578793.695    22578795.477      436420.48509    293976.83709      1705.781  
 97  6 24 14 52 35.0000000  0  6G01G14G15G02G29G31
  22452195.547    22452197.773     -104593.38301    -62309.69609      -324.719  
  22210200.758    22210202.059    -1109049.52101   -757878.58809     -4196.766  
  20226499.641    20226500.754     -540908.25201   -332897.07301     -2011.844  
  24696490.594    24696492.129     -208957.66409   -129064.53709      -754.844  
  22549570.281    22549572.625    -1205886.45009   -813217.66809     -4564.734  
  22579118.367    22579120.242      438126.33109    295306.06609      1705.844  
 97  6 24 14 52 36.0000000  0  6G01G14G15G02G29G31
  22452133.820    22452136.117     -104917.91301    -62562.57609      -324.531  
  22209402.258    22209403.477    -1113246.23801   -761148.75709     -4196.875  
  20226116.836    20226117.938     -542919.98901   -334464.66001     -2011.813  
  24696347.078    24696348.004     -209712.36409   -129652.61109      -754.766  
  22548701.680    22548704.117    -1210451.13309   -816774.56109     -4564.813  
  22579442.898    22579444.844      439832.21809    296635.32809      1705.750  
 97  6 24 14 52 37.0000000  0  6G01G14G15G02G29G31
  22452072.000    22452074.273     -105242.16701    -62815.24209      -323.906  
  22208603.570    22208604.871    -1117442.97201   -764418.93809     -4196.531  
  20225733.984    20225735.121     -544931.60701   -336032.15501     -2011.359  
  24696203.664    24696204.414     -210466.86809   -130240.53509      -754.203  
  22547833.133    22547835.523    -1215015.80709   -820331.44609     -4564.453  
  22579767.406    22579769.340      441538.10209    297964.58709      1706.078  
 97  6 24 14 52 38.0000000  0  6G01G14G15G02G29G31
  22452010.563    22452012.848     -105565.79401    -63067.42009      -323.047  
  22207804.961    22207806.203    -1121639.36201   -767688.85209     -4195.953  
  20225351.313    20225352.473     -546942.76601   -337599.29101     -2010.641  
  24696060.141    24696061.078     -211220.86409   -130828.06609      -753.469  
  22546964.695    22546967.074    -1219580.10209   -823888.03809     -4563.844  
  22580092.078    22580094.117      443244.32809    299294.11309      1706.688  
 97  6 24 14 52 39.0000000  0  6G01G14G15G02G29G31
  22451949.023    22451951.332     -105888.22401    -63318.66309      -322.266  
  22207006.625    22207007.797    -1125834.84101   -770958.05609     -4195.469  
  20224968.797    20224969.992     -548952.88301   -339165.61701     -2010.031  
  24695916.906    24695917.773     -211973.74109   -131414.72609      -752.766  
  22546096.172    22546098.422    -1224143.47109   -827443.90609     -4563.328  
  22580417.117    22580419.215      444951.46309    300624.34609      1707.141  
 97  6 24 14 52 40.0000000  0  6G01G14G15G02G29G31
  22451887.727    22451890.000     -106210.63001    -63569.88909      -322.219  
  22206208.156    22206209.270    -1130030.58301   -774227.46509     -4195.703  
  20224586.266    20224587.531     -550963.12601   -340732.04001     -2010.141  
  24695773.859    24695774.902     -212726.67009   -132001.42409      -752.797  
  22545227.836    22545230.109    -1228707.04209   -830999.93509     -4563.531  
  22580742.008    22580744.023      446658.33309    301954.37109      1706.906  
 97  6 24 14 52 41.0000000  0  6G01G14G15G02G29G31
  22451826.547    22451828.809     -106532.47301    -63820.67509      -321.406  
  22205409.750    22205410.910    -1134226.04201   -777496.65309     -4195.172  
  20224203.688    20224204.965     -552972.96301   -342298.14601     -2009.469  
  24695630.664    24695631.965     -213479.10209   -132587.73109      -752.031  
  22544359.484    22544361.793    -1233270.30309   -834555.72009     -4562.938  
  22581066.414    22581068.395      448365.48509    303284.61709      1707.484  
 97  6 24 14 52 42.0000000  0  6G01G14G15G02G29G31
  22451765.438    22451767.758     -106853.60801    -64070.90909      -320.766  
  22204611.688    22204612.789    -1138421.07001   -780765.50709     -4194.828  
  20223821.406    20223822.707     -554982.23901   -343863.81501     -2009.000  
  24695487.617    24695489.059     -214230.90909   -133173.55709      -751.484  
  22543491.109    22543493.523    -1237833.10809   -838111.15109     -4562.563  
  22581391.594    22581393.656      450073.07509    304615.20709      1707.813  
 97  6 24 14 52 43.0000000  0  6G01G14G15G02G29G31
  22451704.477    22451706.750     -107174.13001    -64320.66709      -320.359  
  22203813.266    22203814.309    -1142615.79401   -784034.12409     -4194.703  
  20223439.320    20223440.551     -556991.06201   -345429.13101     -2008.734  
  24695344.391    24695346.277     -214982.19609   -133758.97309      -751.141  
  22542623.000    22542625.309    -1242395.54909   -841666.30109     -4562.406  
  22581716.813    22581718.805      451781.00109    305946.05709      1707.953  
 97  6 24 14 52 44.0000000  0  6G01G14G15G02G29G31
  22451643.461    22451645.746     -107494.34601    -64570.18709      -319.875  
  22203015.055    22203015.992    -1146810.49601   -787302.72309     -4194.531  
  20223057.063    20223058.258     -558999.72301   -346994.32201     -2008.406  
  24695201.617    24695203.984     -215733.24009   -134344.19909      -750.750  
  22541754.836    22541757.215    -1246957.92409   -845221.39709     -4562.172  
  22582041.867    22582043.859      453488.96409    307276.93709      1708.172  
 97  6 24 14 52 45.0000000  0  6G01G14G15G02G29G31
  22451582.602    22451584.887     -107814.14401    -64819.37909      -320.000  
  22202216.805    22202217.789    -1151005.07601   -790571.22709     -4194.922  
  20222674.922    20222676.129     -561008.12101   -348559.30709     -2008.672  
  24695058.602    24695060.840     -216483.95909   -134929.17309      -750.938  
  22540886.703    22540889.211    -1251520.14309   -848776.37109     -4562.547  
  22582366.852    22582368.773      455197.05909    308607.91909      1707.750  
 97  6 24 14 52 46.0000000  0  6G01G14G15G02G29G31
  22451521.844    22451524.035     -108133.89701    -65068.53709      -319.203  
  22201418.563    22201419.676    -1155199.91001   -793839.92709     -4194.422  
  20222292.734    20222294.000     -563016.63101   -350124.37809     -2008.047  
  24694915.766    24694917.336     -217234.71009   -135514.16709      -750.250  
  22540018.531    22540021.051    -1256082.57109   -852331.50209     -4562.016  
  22582691.898    22582693.926      456904.93509    309938.73309      1708.281  
 97  6 24 14 52 47.0000000  0  6G01G14G15G02G29G31
  22451461.086    22451463.219     -108452.78301    -65317.02009      -318.734  
  22200620.234    22200621.359    -1159394.16801   -797108.18209     -4194.266  
  20221910.555    20221911.855     -565024.42501   -351688.89201     -2007.719  
  24694772.500    24694774.258     -217984.66509   -136098.54509      -749.828  
  22539150.430    22539152.949    -1260644.39609   -855886.17109     -4561.797  
  22583016.922    22583019.090      458613.39709    311270.00109      1708.484  
 97  6 24 14 52 48.0000000  0  6G01G14G15G02G29G31
  22451400.391    22451402.559     -108771.25201    -65565.17909      -318.344  
  22199822.102    22199823.332    -1163588.29301   -800376.33109     -4194.156  
  20221528.547    20221529.859     -567031.95801   -353253.20201     -2007.469  
  24694630.688    24694632.785     -218734.27309   -136682.65609      -749.516  
  22538282.297    22538284.805    -1265206.02909   -859440.68809     -4561.641  
  22583341.977    22583344.086      460322.02109    312601.39409      1708.609  
 97  6 24 14 52 49.0000000  0  6G01G14G15G02G29G31
  22451339.828    22451342.008     -109089.36401    -65813.05709      -317.797  
  22199023.977    22199025.301    -1167782.36001   -803644.43409     -4193.891  
  20221146.617    20221147.848     -569039.27301   -354817.34601     -2007.078  
  24694487.898    24694490.324     -219483.60309   -137266.54909      -749.047  
  22537414.422    22537416.871    -1269767.56009   -862995.12609     -4561.328  
  22583667.133    22583669.453      462030.74509    313932.86309      1708.906  
 97  6 24 14 52 50.0000000  0  6G01G14G15G02G29G31
  22451279.570    22451281.844     -109406.97601    -66060.54809      -317.484  
  22198226.117    22198227.430    -1171976.20501   -806912.36509     -4193.859  
  20220764.695    20220765.914     -571046.23801   -356381.21401     -2006.906  
  24694345.648    24694347.887     -220232.50809   -137850.11309      -748.813  
  22536546.344    22536548.934    -1274328.83409   -866549.36209     -4561.266  
  22583992.297    22583994.594      463739.71509    315264.52709      1708.984  
 97  6 24 14 52 51.0000000  0  6G01G14G15G02G29G31
  22451219.125    22451221.422     -109724.12901    -66307.68009      -316.750  
  22197428.078    22197429.531    -1176169.88101   -810180.16309     -4193.406  
  20220382.938    20220384.145     -573052.89701   -357944.84301     -2006.328  
  24694202.953    24694205.332     -220981.03509   -138433.38409      -748.172  
  22535678.594    22535681.090    -1278889.88609   -870103.42609     -4560.750  
  22584317.727    22584320.141      465448.87809    316596.34409      1709.438  
 97  6 24 14 52 52.0000000  0  6G01G14G15G02G29G31
  22451158.922    22451161.230     -110040.38101    -66554.10909      -315.859  
  22196630.055    22196631.555    -1180362.93401   -813447.47509     -4192.813  
  20220000.945    20220002.188     -575058.79701   -359507.87901     -2005.578  
  24694060.750    24694063.234     -221728.72109   -139016.00409      -747.328  
  22534810.477    22534812.938    -1283450.26409   -873656.96709     -4560.094  
  22584642.688    22584644.984      467158.70009    317928.67209      1710.094  
 97  6 24 14 52 53.0000000  0  6G01G14G15G02G29G31
  22451099.016    22451101.207     -110355.87601    -66799.95009      -315.344  
  22195832.297    22195833.832    -1184555.51801   -816714.42209     -4192.578  
  20219619.555    20219620.820     -577064.08901   -361070.44501     -2005.219  
  24693918.398    24693920.871     -222475.71309   -139598.08009      -746.859  
  22533942.711    22533945.090    -1288010.11009   -877210.09109     -4559.813  
  22584968.367    22584970.605      468869.03209    319261.39409      1710.359  
 97  6 24 14 52 54.0000000  0  6G01G14G15G02G29G31
  22451038.883    22451041.133     -110671.05701    -67045.54609      -314.969  
  22195034.289    22195035.813    -1188748.06501   -819981.34209     -4192.469  
  20219237.930    20219239.219     -579069.19902   -362632.86901     -2004.969  
  24693776.664    24693779.289     -223222.45409   -140179.96209      -746.563  
  22533074.945    22533077.406    -1292569.87109   -880763.15209     -4559.641  
  22585293.875    22585296.125      470579.41809    320594.16109      1710.484  
 97  6 24 14 52 55.0000000  0  6G01G14G15G02G29G31
  22450979.109    22450981.289     -110985.65201    -67290.68509      -314.125  
  22194236.820    22194238.414    -1192940.30401   -823248.02009     -4191.922  
  20218856.469    20218857.758     -581073.86202   -364194.94401     -2004.266  
  24693634.633    24693637.316     -223968.68309   -140761.44509      -745.781  
  22532207.375    22532209.695    -1297129.25509   -884315.91709     -4559.047  
  22585619.508    22585621.758      472290.15409    321927.20009      1711.063  
 97  6 24 14 52 56.0000000  0  6G01G14G15G02G29G31
  22450919.500    22450921.738     -111299.36601    -67535.13709      -313.563  
  22193439.164    22193440.875    -1197131.94201   -826514.22909     -4191.625  
  20218475.094    20218476.359     -583077.79003   -365756.44801     -2003.844  
  24693492.336    24693495.020     -224714.08909   -141342.28709      -745.281  
  22531339.766    22531342.027    -1301687.96009   -887868.15709     -4558.641  
  22585945.234    22585947.520      474001.51709    323260.72809      1711.422  
 97  6 24 14 52 57.0000000  0  6G01G14G15G02G29G31
  22450859.789    22450862.051     -111612.91701    -67779.46509      -313.328  
  22192641.313    22192643.059    -1201323.69101   -829780.52709     -4191.656  
  20218093.914    20218095.180     -585081.69204   -367317.93001     -2003.734  
  24693350.906    24693353.742     -225459.40409   -141923.05709      -745.125  
  22530472.391    22530474.629    -1306246.72609   -891420.44109     -4558.656  
  22586270.914    22586273.152      475712.79309    324594.18709      1711.391  
 97  6 24 14 52 58.0000000  0  6G01G14G15G02G29G31
  22450800.344    22450802.617     -111926.01501    -68023.43909      -312.750  
  22191843.820    22191845.555    -1205515.23701   -833046.66709     -4191.344  
  20217712.578    20217713.797     -587085.26404   -368879.15601     -2003.313  
  24693209.305    24693211.883     -226204.33309   -142503.52809      -744.625  
  22529604.922    22529607.102    -1310805.23209   -894972.52609     -4558.297  
  22586596.719    22586598.828      477424.30509    325927.82809      1711.703  
 97  6 24 14 52 59.0000000  0  6G01G14G15G02G29G31
  22450740.688    22450742.938     -112238.45401    -68266.90009      -312.125  
  22191046.102    22191047.930    -1209706.40901   -836312.51509     -4191.000  
  20217331.445    20217332.688     -589088.33104   -370439.98701     -2002.828  
  24693067.695    24693071.070     -226948.69109   -143083.54809      -744.078  
  22528737.781    22528739.996    -1315363.32909   -898524.28909     -4557.906  
  22586922.750    22586924.730      479136.20809    327261.77409      1712.094  
 97  6 24 14 53  0.0000000  0  6G01G14G15G02G29G31
  22450681.414    22450683.652     -112550.19601    -68509.81809      -311.391  
  22190248.680    22190250.578    -1213897.15201   -839578.02809     -4190.531  
  20216950.492    20216951.734     -591090.84104   -372000.38601     -2002.234  
  24692926.063    24692928.875     -227692.41009   -143663.06009      -743.406  
  22527870.164    22527872.320    -1319920.95409   -902075.68509     -4557.391  
  22587248.297    22587250.195      480848.54309    328596.05909      1712.563  
 97  6 24 14 53  1.0000000  0  6G01G14G15G02G29G31
  22450622.141    22450624.426     -112861.15201    -68752.12209      -310.422  
  22189451.336    22189453.176    -1218087.38901   -842843.14809     -4189.844  
  20216569.500    20216570.707     -593092.70005   -373560.27701     -2001.406  
  24692784.797    24692787.340     -228435.42309   -144242.02809      -742.516  
  22527003.227    22527005.418    -1324477.99709   -905626.62809     -4556.641  
  22587574.523    22587576.375      482561.43009    329930.77309      1713.266  
 97  6 24 14 53  2.0000000  0  6G01G14G15G02G29G31
  22450563.133    22450565.324     -113171.11301    -68993.65209      -309.828  
  22188653.961    22188655.777    -1222276.90701   -846107.70709     -4189.531  
  20216188.891    20216190.168     -595093.70305   -375119.50101     -2000.938  
  24692643.336    24692646.207     -229177.50709   -144820.27409      -741.984  
  22526136.133    22526138.371    -1329034.26609   -909176.96609     -4556.250  
  22587900.406    22587902.246      484275.04109    331266.05309      1713.625  
 97  6 24 14 53  3.0000000  0  6G01G14G15G02G29G31
  22450504.117    22450506.262     -113480.77701    -69234.95009      -309.531  
  22187856.969    22187858.832    -1226466.40201   -849372.25009     -4189.500  
  20215808.063    20215809.352     -597094.55205   -376678.60501     -2000.781  
  24692502.594    24692505.570     -229919.37509   -145398.35209      -741.766  
  22525268.977    22525271.227    -1333590.46609   -912727.25309     -4556.188  
  22588226.398    22588228.238      485988.69809    332601.36909      1713.641  
 97  6 24 14 53  4.0000000  0  6G01G14G15G02G29G31
  22450445.250    22450447.418     -113790.15701    -69476.02609      -308.859  
  22187059.617    22187061.516    -1230655.89001   -852636.78709     -4189.109  
  20215427.320    20215428.609     -599095.24905   -378237.59101     -2000.266  
  24692361.086    24692363.934     -230660.99009   -145976.23109      -741.141  
  22524402.055    22524404.445    -1338146.58409   -916277.47609     -4555.719  
  22588552.438    22588554.207      487702.40109    333936.72209      1714.078  
 97  6 24 14 53  5.0000000  0  6G01G14G15G02G29G31
  22450386.633    22450388.789     -114098.77401    -69716.50709      -308.594  
  22186262.250    22186264.148    -1234844.88501   -855900.93909     -4189.109  
  20215046.594    20215047.813     -601095.32505   -379796.09301     -2000.109  
  24692220.172    24692223.090     -231401.92409   -146553.58009      -740.922  
  22523534.859    22523537.285    -1342702.15809   -919827.27509     -4555.641  
  22588878.383    22588880.188      489416.60409    335272.46209      1714.125  
 97  6 24 14 53  6.0000000  0  6G01G14G15G02G29G31
  22450327.969    22450330.066     -114407.04901    -69956.72109      -308.188  
  22185465.383    22185467.305    -1239033.81801   -859165.04309     -4188.984  
  20214665.891    20214667.074     -603095.20705   -381354.44301     -1999.859  
  24692079.117    24692082.281     -232142.61709   -147130.74409      -740.625  
  22522668.078    22522670.621    -1347257.60109   -923376.97209     -4555.469  
  22589205.078    22589206.859      491130.88109    336608.26109      1714.234  
 97  6 24 14 53  7.0000000  0  6G01G14G15G02G29G31
  22450269.352    22450271.379     -114715.28201    -70196.90009      -307.969  
  22184668.000    22184670.004    -1243222.97001   -862429.31809     -4189.031  
  20214285.625    20214286.855     -605095.16604   -382912.85201     -1999.781  
  24691937.859    24691940.824     -232883.27709   -147707.88509      -740.469  
  22521801.367    22521803.734    -1351813.20509   -926926.79209     -4555.453  
  22589531.063    22589532.762      492844.96809    337943.91109      1714.203  
 97  6 24 14 53  8.0000000  0  6G01G14G15G02G29G31
  22450210.969    22450212.949     -115022.48601    -70436.27809      -306.703  
  22183871.039    22183873.066    -1247411.37401   -865693.00909     -4188.031  
  20213905.164    20213906.406     -607094.24804   -384470.57801     -1998.641  
  24691797.047    24691800.703     -233623.01309   -148284.30309      -739.250  
  22520934.633    22520937.059    -1356368.00309   -930475.98109     -4554.391  
  22589856.992    22589858.785      494559.81009    339280.14809      1715.250  
 97  6 24 14 53  9.0000000  0  6G01G14G15G02G29G31
  22450152.531    22450154.547     -115328.94801    -70675.08009      -306.094  
  22183074.289    22183076.293    -1251599.30901   -868956.33509     -4187.703  
  20213524.844    20213526.086     -609092.71904   -386027.83101     -1998.172  
  24691656.195    24691659.676     -234362.06609   -148860.18909      -738.719  
  22520068.148    22520070.656    -1360922.28309   -934024.76909     -4554.000  
  22590183.602    22590185.488      496275.15309    340616.77909      1715.578  
 97  6 24 14 53 10.0000000  0  6G01G14G15G02G29G31
  22450094.164    22450096.133     -115635.04501    -70913.59709      -306.078  
  22182277.422    22182279.484    -1255787.16701   -872219.60009     -4187.969  
  20213144.688    20213145.953     -611090.97604   -387584.91401     -1998.313  
  24691515.680    24691518.785     -235100.84509   -149435.86209      -738.781  
  22519201.461    22519203.969    -1365476.41809   -937573.44209     -4554.234  
  22590509.953    22590511.816      497990.60109    341953.49109      1715.328  
 97  6 24 14 53 11.0000000  0  6G01G14G15G02G29G31
  22450035.992    22450038.078     -115940.90101    -71151.92709      -305.516  
  22181480.273    22181482.348    -1259975.06801   -875482.89809     -4187.703  
  20212764.039    20212765.234     -613089.13004   -389141.91701     -1997.875  
  24691376.133    24691379.543     -235839.46009   -150011.40509      -738.328  
  22518334.594    22518337.113    -1370030.53509   -941122.10509     -4553.875  
  22590836.641    22590838.516      499706.01909    343290.18109      1715.656  
 97  6 24 14 53 12.0000000  0  6G01G14G15G02G29G31
  22449977.891    22449979.965     -116245.87101    -71389.56509      -304.625  
  22180683.547    22180685.668    -1264162.36401   -878745.72609     -4187.078  
  20212384.094    20212385.254     -615086.54103   -390698.34101     -1997.125  
  24691234.953    24691237.941     -236577.27809   -150586.32709      -737.516  
  22517468.047    22517470.590    -1374583.98909   -944670.24909     -4553.203  
  22591163.016    22591164.984      501422.08009    344627.37209      1716.297  
 97  6 24 14 53 13.0000000  0  6G01G14G15G02G29G31
  22449920.180    22449922.313     -116549.88601    -71626.45909      -303.219  
  22179886.813    22179889.016    -1268348.96801   -882008.01209     -4185.953  
  20212004.273    20212005.422     -617083.12802   -392254.12401     -1995.859  
  24691094.563    24691098.219     -237314.21109   -151160.56109      -736.172  
  22516601.859    22516604.426    -1379136.68109   -948217.79909     -4552.016  
  22591490.016    22591491.984      503138.86009    345965.12309      1717.422  
 97  6 24 14 53 14.0000000  0  6G01G14G15G02G29G31
  22449862.695    22449864.781     -116852.28501    -71862.09509      -301.922  
  22179090.570    22179092.750    -1272534.22701   -885269.25309     -4184.906  
  20211624.617    20211625.789     -619078.23302   -393808.75101     -1994.672  
  24690954.805    24690958.238     -238049.59709   -151733.59309      -734.969  
  22515735.766    22515738.297    -1383687.97609   -951764.26109     -4550.906  
  22591816.750    22591818.648      504857.00509    347303.93709      1718.516  
 97  6 24 14 53 15.0000000  0  6G01G14G15G02G29G31
  22449805.039    22449807.113     -117154.45501    -72097.55109      -302.344  
  22178294.164    22178296.391    -1276719.52401   -888530.52209     -4185.609  
  20211245.023    20211246.219     -621073.23702   -395363.30101     -1995.250  
  24690815.672    24690819.188     -238784.83909   -152306.50909      -735.469  
  22514869.883    22514872.414    -1388239.25209   -955310.70909     -4551.563  
  22592143.836    22592145.758      506575.13909    348642.74309      1717.844  
 97  6 24 14 53 16.0000000  0  6G01G14G15G02G29G31
  22449747.375    22449749.414     -117456.60401    -72332.99209      -301.766  
  22177497.633    22177499.930    -1280905.07401   -891791.98709     -4185.297  
  20210865.281    20210866.500     -623068.35902   -396917.94101     -1994.813  
  24690675.133    24690678.707     -239520.12909   -152879.46209      -734.953  
  22514003.734    22514006.336    -1392790.70809   -958857.29509     -4551.188  
  22592470.563    22592472.355      508293.08209    349981.39909      1718.188  
 97  6 24 14 53 17.0000000  0  6G01G14G15G02G29G31
  22449690.164    22449692.250     -117758.21801    -72568.01409      -301.516  
  22176701.242    22176703.609    -1285090.35101   -895053.24009     -4185.328  
  20210485.672    20210486.891     -625063.07902   -398472.26901     -1994.703  
  24690535.523    24690538.688     -240254.98509   -153452.07509      -734.797  
  22513137.711    22513140.219    -1397341.85609   -962403.64209     -4551.172  
  22592797.547    22592799.410      510011.29509    351320.26609      1718.203  
 97  6 24 14 53 18.0000000  0  6G01G14G15G02G29G31
  22449632.898    22449634.973     -118059.44101    -72802.73309      -300.719  
  22175904.773    22175907.129    -1289275.50701   -898314.39909     -4184.781  
  20210106.211    20210107.430     -627057.55401   -400026.40401     -1994.047  
  24690394.914    24690398.148     -240989.50809   -154024.43009      -734.078  
  22512271.398    22512273.836    -1401892.84009   -965949.86309     -4550.594  
  22593124.914    22593126.754      511729.64809    352659.24009      1718.734  
 97  6 24 14 53 19.0000000  0  6G01G14G15G02G29G31
  22449575.781    22449577.879     -118359.89501    -73036.85509      -300.313  
  22175108.547    22175111.043    -1293460.16701   -901575.17109     -4184.656  
  20209726.656    20209727.770     -629051.40401   -401580.05201     -1993.781  
  24690255.570    24690258.852     -241723.36109   -154596.26709      -733.750  
  22511405.500    22511407.996    -1406443.25409   -969495.64009     -4550.391  
  22593451.852    22593453.703      513448.55109    353998.64509      1718.891  
 97  6 24 14 53 20.0000000  0  6G01G14G15G02G29G31
  22449518.617    22449520.680     -118660.04201    -73270.73509      -300.344  
  22174312.055    22174314.598    -1297644.77501   -904835.90309     -4184.938  
  20209347.281    20209348.453     -631045.08701   -403133.57201     -1993.953  
  24690115.633    24690118.352     -242456.98109   -155167.91409      -733.875  
  22510539.570    22510542.172    -1410993.58309   -973041.34909     -4550.625  
  22593779.164    22593781.098      515167.50409    355338.08909      1718.641  
 97  6 24 14 53 21.0000000  0  6G01G14G15G02G29G31
  22449461.523    22449463.820     -118960.25101    -73504.66709      -299.781  
  22173515.695    22173518.238    -1301829.70701   -908096.88709     -4184.641  
  20208967.805    20208969.012     -633038.97301   -404687.24801     -1993.531  
  24689976.555    24689979.426     -243190.74409   -155739.67709      -733.406  
  22509674.117    22509676.707    -1415544.17909   -976587.26809     -4550.281  
  22594106.094    22594107.969      516886.14909    356677.29309      1718.938  
 97  6 24 14 53 22.0000000  0  6G01G14G15G02G29G31
  22449404.633    22449407.012     -119259.83501    -73738.10809      -299.375  
  22172719.313    22172721.914    -1306014.26001   -911357.57809     -4184.484  
  20208588.586    20208589.758     -635032.35801   -406240.53501     -1993.266  
  24689836.945    24689839.465     -243923.97209   -156311.02809      -733.063  
  22508807.805    22508810.465    -1420094.33909   -980132.84509     -4550.063  
  22594433.242    22594434.977      518605.19409    358016.80709      1719.125  
 97  6 24 14 53 23.0000000  0  6G01G14G15G02G29G31
  22449347.680    22449349.965     -119558.76101    -73971.03709      -298.375  
  22171923.188    22171925.836    -1310198.42101   -914617.96209     -4183.719  
  20208209.359    20208210.496     -637025.23102   -407793.42301     -1992.391  
  24689697.242    24689699.949     -244656.63209   -156881.93709      -732.141  
  22507942.109    22507944.652    -1424644.04909   -983678.07509     -4549.234  
  22594760.367    22594762.195      520324.65109    359356.64409      1719.906  
 97  6 24 14 53 24.0000000  0  6G01G14G15G02G29G31
  22449290.945    22449293.125     -119856.82501    -74203.29709      -297.781  
  22171126.969    22171129.699    -1314381.96401   -917877.86409     -4183.391  
  20207830.203    20207831.316     -639017.38402   -409345.74901     -1991.938  
  24689558.219    24689561.465     -245388.50409   -157452.23509      -731.641  
  22507076.633    22507079.164    -1429193.11509   -987222.80209     -4548.891  
  22595087.656    22595089.438      522044.72909    360696.96509      1720.250  
 97  6 24 14 53 25.0000000  0  6G01G14G15G02G29G31
  22449234.422    22449236.613     -120154.44901    -74435.21309      -297.500  
  22170330.961    22170333.773    -1318565.29501   -921137.60209     -4183.344  
  20207451.148    20207452.273     -641009.21502   -410897.82501     -1991.781  
  24689418.547    24689421.512     -246119.99209   -158022.23209      -731.406  
  22506210.766    22506213.227    -1433741.93009   -990767.33409     -4548.781  
  22595415.039    22595416.750      523765.03609    362037.46409      1720.281  
 97  6 24 14 53 26.0000000  0  6G01G14G15G02G29G31
  22449177.766    22449179.898     -120451.75101    -74666.87909      -296.813  
  22169535.094    22169537.883    -1322748.55601   -924397.28409     -4182.875  
  20207072.250    20207073.340     -643000.85802   -412449.75302     -1991.219  
  24689279.750    24689283.430     -246851.24009   -158592.03109      -730.781  
  22505345.156    22505347.629    -1438290.60109   -994311.75309     -4548.250  
  22595742.398    22595744.063      525485.40109    363378.00609      1720.797  
 97  6 24 14 53 27.0000000  0  6G01G14G15G02G29G31
  22449121.516    22449123.602     -120748.09501    -74897.79609      -296.031  
  22168738.891    22168741.750    -1326931.10701   -927656.41309     -4182.344  
  20206693.406    20206694.555     -644991.67602   -414001.03903     -1990.563  
  24689140.828    24689144.109     -247581.59309   -159161.13209      -730.047  
  22504479.891    22504482.398    -1442838.51209   -997855.57909     -4547.703  
  22596069.523    22596071.176      527206.52209    364719.13809      1721.328  
 97  6 24 14 53 28.0000000  0  6G01G14G15G02G29G31
  22449065.031    22449067.035     -121044.18301    -75128.51509      -295.859  
  22167943.133    22167946.051    -1331113.61601   -930915.50809     -4182.406  
  20206314.617    20206315.813     -646982.35204   -415552.21403     -1990.516  
  24689002.227    24689005.789     -248311.74109   -159730.07509      -729.938  
  22503614.359    22503616.949    -1447386.37109  -1001399.36409     -4547.734  
  22596397.328    22596399.074      528927.71109    366060.32309      1721.281  
 97  6 24 14 53 29.0000000  0  6G01G14G15G02G29G31
  22449008.484    22449010.512     -121339.82201    -75358.88309      -295.563  
  22167147.305    22167150.223    -1335295.93101   -934174.45409     -4182.344  
  20205935.797    20205937.004     -648972.70604   -417103.14103     -1990.344  
  24688862.875    24688866.156     -249041.51909   -160298.73509      -729.734  
  22502749.195    22502751.785    -1451933.97509  -1004942.95309     -4547.609  
  22596724.844    22596726.590      530649.11309    367401.67609      1721.391  
 97  6 24 14 53 30.0000000  0  6G01G14G15G02G29G31
  22448952.633    22448954.672     -121634.98301    -75588.88209      -294.422  
  22166351.383    22166354.383    -1339478.00401   -937433.21209     -4181.453  
  20205557.125    20205558.344     -650962.71404   -418653.79503     -1989.328  
  24688724.461    24688727.719     -249770.88109   -160867.07109      -728.656  
  22501883.727    22501886.398    -1456481.30209  -1008486.32309     -4546.672  
  22597052.641    22597054.480      532370.75109    368743.21309      1722.297  
 97  6 24 14 53 31.0000000  0  6G01G14G15G02G29G31
  22448896.570    22448898.551     -121928.95801    -75817.95309      -293.734  
  22165555.719    22165558.766    -1343659.11501   -940691.22009     -4181.000  
  20205178.695    20205179.926     -652951.64604   -420203.61201     -1988.766  
  24688586.016    24688589.203     -250499.14209   -161434.55309      -728.047  
  22501018.789    22501021.496    -1461027.60509  -1012028.89309     -4546.172  
  22597380.398    22597382.285      534093.39109    370085.53109      1722.719  
 97  6 24 14 53 32.0000000  0  6G01G14G15G02G29G31
  22448840.820    22448842.801     -122222.46801    -76046.66309      -293.422  
  22164760.102    22164763.113    -1347840.00801   -943949.05609     -4180.922  
  20204800.313    20204801.531     -654940.24904   -421753.17101     -1988.578  
  24688447.172    24688450.535     -251226.99609   -162001.71809      -727.813  
  22500153.641    22500156.371    -1465573.63509  -1015571.25009     -4546.031  
  22597708.211    22597710.016      535816.22909    371428.00109      1722.828  
 97  6 24 14 53 33.0000000  0  6G01G14G15G02G29G31
  22448784.883    22448786.934     -122515.65701    -76275.12109      -293.047  
  22163964.789    22163967.836    -1352020.83701   -947206.84409     -4180.797  
  20204422.016    20204423.211     -656928.66705   -423302.58801     -1988.328  
  24688308.563    24688311.738     -251954.62209   -162568.70509      -727.516  
  22499288.523    22499291.184    -1470119.54609  -1019113.51609     -4545.844  
  22598035.813    22598037.852      537539.15409    372770.53709      1722.969  
 97  6 24 14 53 34.0000000  0  6G01G14G15G02G29G31
  22448729.367    22448731.418     -122808.64001    -76503.41909      -292.672  
  22163169.078    22163172.160    -1356201.68501   -950464.64609     -4180.672  
  20204043.711    20204044.953     -658916.99605   -424851.93601     -1988.094  
  24688170.195    24688173.441     -252682.12109   -163135.59209      -727.219  
  22498423.234    22498425.906    -1474665.41009  -1022655.74509     -4545.688  
  22598364.094    22598365.957      539262.07909    374113.07409      1723.094  
 97  6 24 14 53 35.0000000  0  6G01G14G15G02G29G31
  22448673.664    22448675.703     -123100.82401    -76731.09709      -291.922  
  22162373.633    22162376.680    -1360381.99501   -953722.03009     -4180.172  
  20203665.344    20203666.563     -660904.66905   -426400.77001     -1987.469  
  24688032.156    24688035.309     -253408.89009   -163701.91709      -726.531  
  22497558.219    22497560.820    -1479210.68009  -1026197.50909     -4545.078  
  22598692.000    22598693.828      540985.54509    375456.03409      1723.641  
 97  6 24 14 53 36.0000000  0  6G01G14G15G02G29G31
  22448617.984    22448619.977     -123392.71101    -76958.54109      -291.578  
  22161578.117    22161581.246    -1364562.24801   -956979.36909     -4180.063  
  20203287.219    20203288.426     -662892.16006   -427949.46401     -1987.250  
  24687893.617    24687897.332     -254135.42909   -164268.05209      -726.266  
  22496693.391    22496695.934    -1483755.83409  -1029739.18409     -4544.953  
  22599019.844    22599021.660      542709.09009    376799.05509      1723.750  
 97  6 24 14 53 37.0000000  0  6G01G14G15G02G29G31
  22448562.594    22448564.539     -123684.04501    -77185.55309      -291.063  
  22160782.719    22160785.824    -1368742.18401   -960236.46109     -4179.781  
  20202909.195    20202910.402     -664879.20806   -429497.81501     -1986.844  
  24687755.703    24687758.633     -254861.47209   -164833.79409      -725.797  
  22495828.688    22495831.324    -1488300.64609  -1033280.59109     -4544.656  
  22599348.195    22599349.941      544432.97009    378142.33809      1724.016  
 97  6 24 14 53 38.0000000  0  6G01G14G15G02G29G31
  22448507.078    22448509.023     -123974.82201    -77412.13009      -290.422  
  22159987.367    22159990.496    -1372921.81901   -963493.32009     -4179.406  
  20202531.000    20202532.172     -666865.84106   -431045.83901     -1986.344  
  24687617.281    24687620.012     -255587.03309   -165399.16209      -725.250  
  22494963.953    22494966.531    -1492845.10909  -1036821.72909     -4544.203  
  22599676.016    22599677.914      546157.15409    379485.85509      1724.438  
 97  6 24 14 53 39.0000000  0  6G01G14G15G02G29G31
  22448452.063    22448454.043     -124264.67701    -77637.99109      -289.516  
  22159192.000    22159195.141    -1377100.79601   -966749.66509     -4178.766  
  20202153.031    20202154.191     -668851.67707   -432593.24301     -1985.563  
  24687479.391    24687482.379     -256311.76309   -165963.88409      -724.422  
  22494099.141    22494101.836    -1497388.84309  -1040362.29909     -4543.484  
  22600004.164    22600006.098      547882.02409    380829.90909      1725.094  
 97  6 24 14 53 40.0000000  0  6G01G14G15G02G29G31
  22448397.023    22448398.969     -124554.26001    -77863.63909      -289.500  
  22158396.836    22158399.953    -1381279.75101   -970005.99309     -4179.000  
  20201775.266    20201776.473     -670837.35507   -434140.52601     -1985.672  
  24687341.742    24687344.156     -257036.28209   -166528.43809      -724.469  
  22493234.695    22493237.414    -1501932.46109  -1043902.77809     -4543.625  
  22600332.594    22600334.574      549606.96009    382174.01209      1724.891  
 97  6 24 14 53 41.0000000  0  6G01G14G15G02G29G31
  22448342.125    22448344.082     -124843.51201    -78089.03009      -288.828  
  22157601.695    22157604.848    -1385458.63201   -973262.26409     -4178.578  
  20201397.422    20201398.570     -672822.83807   -435687.65701     -1985.109  
  24687203.805    24687206.676     -257760.53609   -167092.78709      -723.875  
  22492370.078    22492372.727    -1506475.95309  -1047443.16109     -4543.156  
  22600660.680    22600662.672      551331.99209    383518.19209      1725.375  
 97  6 24 14 53 42.0000000  0  6G01G14G15G02G29G31
  22448287.094    22448289.016     -125132.00101    -78313.82709      -288.297  
  22156806.305    22156809.492    -1389637.00201   -976518.13509     -4178.297  
  20201019.672    20201020.879     -674807.68607   -437234.29201     -1984.703  
  24687066.086    24687068.102     -258484.10509   -167656.60509      -723.406  
  22491505.492    22491508.152    -1511018.87509  -1050983.09909     -4542.828  
  22600989.172    22600991.152      553057.54909    384862.78109      1725.641  
 97  6 24 14 53 43.0000000  0  6G01G14G15G02G29G31
  22448232.328    22448234.121     -125420.16201    -78538.36709      -287.875  
  22156011.344    22156014.566    -1393815.28401   -979773.93709     -4178.141  
  20200642.086    20200643.305     -676792.32306   -438780.76201     -1984.438  
  24686928.734    24686930.938     -259207.42109   -168220.23309      -723.078  
  22490640.906    22490643.449    -1515561.63109  -1054522.90709     -4542.609  
  22601317.742    22601319.652      554783.22309    386207.46309      1725.828  
 97  6 24 14 53 44.0000000  0  6G01G14G15G02G29G31
  22448177.477    22448179.434     -125707.73301    -78762.44809      -287.156  
  22155216.469    22155219.645    -1397993.24501   -983029.48909     -4177.656  
  20200264.523    20200265.695     -678776.51306   -440326.88401     -1983.828  
  24686790.852    24686793.770     -259930.22709   -168783.46109      -722.422  
  22489776.539    22489779.082    -1520104.02009  -1058062.43009     -4542.047  
  22601646.055    22601647.906      556509.24309    387552.41209      1726.344  
 97  6 24 14 53 45.0000000  0  6G01G14G15G02G29G31
  22448122.906    22448124.898     -125994.58101    -78985.96609      -286.688  
  22154421.297    22154424.531    -1402170.73301   -986284.67409     -4177.469  
  20199886.898    20199888.117     -680760.11306   -441872.54801     -1983.516  
  24686653.898    24686656.816     -260652.40409   -169346.20009      -722.031  
  22488912.250    22488914.816    -1524645.89509  -1061601.55109     -4541.797  
  22601974.523    22601976.316      558235.72809    388897.72209      1726.531  
 97  6 24 14 53 46.0000000  0  6G01G14G15G02G29G31
  22448068.414    22448070.477     -126280.91801    -79209.08509      -285.984  
  22153626.422    22153629.609    -1406347.97301   -989539.66709     -4177.031  
  20199509.523    20199510.766     -682743.33606   -443417.91701     -1982.938  
  24686516.164    24686519.586     -261374.14209   -169908.59509      -721.422  
  22488048.445    22488051.047    -1529187.42709  -1065140.40609     -4541.297  
  22602303.102    22602304.918      559962.48609    390243.24509      1726.984  
 97  6 24 14 53 47.0000000  0  6G01G14G15G02G29G31
  22448014.023    22448016.191     -126566.79501    -79431.84509      -285.609  
  22152831.516    22152834.727    -1410525.00701   -992794.49609     -4176.891  
  20199132.188    20199133.430     -684726.23106   -444963.02901     -1982.688  
  24686379.023    24686382.375     -262095.50109   -170470.69709      -721.125  
  22487184.070    22487186.719    -1533728.70209  -1068679.06009     -4541.078  
  22602631.875    22602633.797      561689.47509    391588.95009      1727.156  
 97  6 24 14 53 48.0000000  0  6G01G14G15G02G29G31
  22447959.797    22447961.977     -126851.89801    -79654.00209      -284.938  
  22152036.797    22152040.043    -1414701.53101   -996048.92809     -4176.469  
  20198755.219    20198756.484     -686708.49606   -446507.65201     -1982.156  
  24686241.484    24686244.789     -262816.16009   -171032.25609      -720.516  
  22486320.172    22486322.844    -1538269.39909  -1072217.26309     -4540.609  
  22602960.492    22602962.402      563416.98709    392935.06309      1727.563  
 97  6 24 14 53 49.0000000  0  6G01G14G15G02G29G31
  22447905.477    22447907.633     -127136.62301    -79875.86509      -284.453  
  22151242.016    22151245.227    -1418877.90601   -999303.24509     -4176.234  
  20198377.992    20198379.258     -688690.50106   -448052.07001     -1981.813  
  24686104.641    24686107.805     -263536.48809   -171593.55109      -720.125  
  22485456.148    22485458.727    -1542809.86909  -1075755.29109     -4540.313  
  22603289.133    22603290.949      565144.67609    394281.31209      1727.813  
 97  6 24 14 53 50.0000000  0  6G01G14G15G02G29G31
  22447851.523    22447853.645     -127420.96501    -80097.43009      -284.141  
  22150447.336    22150450.570    -1423054.14201  -1002557.45409     -4176.141  
  20198000.727    20198001.969     -690672.24605   -449596.28801     -1981.594  
  24685967.477    24685970.992     -264256.50909   -172154.59709      -719.828  
  22484592.016    22484594.582    -1547350.14409  -1079293.16909     -4540.141  
  22603617.930    22603619.770      566872.49709    395627.66509      1727.953  
 97  6 24 14 53 51.0000000  0  6G01G14G15G02G29G31
  22447797.672    22447799.910     -127705.01201    -80318.76709      -283.813  
  22149652.789    22149656.035    -1427230.32701  -1005811.62309     -4176.063  
  20197623.563    20197624.805     -692653.82305   -451140.37601     -1981.406  
  24685830.523    24685833.934     -264976.30109   -172715.46209      -719.594  
  22483728.016    22483730.500    -1551890.31709  -1082830.96909     -4540.031  
  22603946.953    22603948.887      568600.38109    396974.06609      1728.016  
 97  6 24 14 53 52.0000000  0  6G01G14G15G02G29G31
  22447743.539    22447745.813     -127988.48801    -80539.65709      -283.172  
  22148857.992    22148861.273    -1431406.17601  -1009065.53309     -4175.688  
  20197246.680    20197247.910     -694634.95205   -452684.11301     -1980.891  
  24685693.742    24685697.211     -265695.58509   -173275.93809      -718.984  
  22482864.352    22482866.813    -1556430.08209  -1086368.44909     -4539.563  
  22604275.719    22604277.758      570328.61809    398320.74309      1728.375  
 97  6 24 14 53 53.0000000  0  6G01G14G15G02G29G31
  22447689.617    22447691.938     -128271.64701    -80760.30209      -282.828  
  22148063.313    22148066.617    -1435581.95301  -1012319.38309     -4175.547  
  20196869.578    20196870.797     -696615.88804   -454227.70001     -1980.656  
  24685556.898    24685560.039     -266414.60709   -173836.21209      -718.719  
  22482000.297    22482002.676    -1560969.70909  -1089905.82209     -4539.375  
  22604604.656    22604606.707      572056.91909    399667.46809      1728.531  
 97  6 24 14 53 54.0000000  0  6G01G14G15G02G29G31
  22447635.664    22447637.984     -128554.27401    -80980.53009      -282.594  
  22147268.836    22147272.141    -1439757.43101  -1015573.00109     -4175.578  
  20196492.852    20196494.059     -698596.41504   -455770.96801     -1980.563  
  24685420.867    24685423.855     -267133.17609   -174396.13609      -718.563  
  22481136.734    22481139.137    -1565508.99809  -1093442.93109     -4539.359  
  22604933.500    22604935.598      573785.51609    401014.42409      1728.516  
 97  6 24 14 53 55.0000000  0  6G01G14G15G02G29G31
  22447582.219    22447584.527     -128836.65301    -81200.56709      -282.313  
  22146474.461    22146477.766    -1443932.89601  -1018826.61009     -4175.531  
  20196115.930    20196117.137     -700576.81003   -457314.13301     -1980.391  
  24685284.094    24685286.848     -267851.54009   -174955.89809      -718.344  
  22480272.625    22480275.016    -1570048.22909  -1096979.99309     -4539.266  
  22605262.711    22605264.844      575514.16509    402361.42109      1728.578  
 97  6 24 14 53 56.0000000  0  6G01G14G15G02G29G31
  22447528.547    22447530.832     -129118.89801    -81420.49909      -281.906  
  22145679.961    22145683.324    -1448108.48101  -1022080.31209     -4175.359  
  20195739.148    20195740.379     -702557.20102   -458857.29601     -1980.109  
  24685147.219    24685150.031     -268569.84109   -175515.61309      -718.016  
  22479408.820    22479411.293    -1574587.50509  -1100517.09209     -4539.031  
  22605591.383    22605593.480      577242.67409    403708.31209      1728.734  
 97  6 24 14 53 57.0000000  0  6G01G14G15G02G29G31
  22447474.969    22447477.184     -129400.40501    -81639.85709      -281.063  
  22144885.375    22144888.727    -1452283.57701  -1025333.63209     -4174.781  
  20195362.344    20195363.586     -704536.98202   -460399.98301     -1979.406  
  24685010.203    24685012.477     -269287.48009   -176074.81509      -717.203  
  22478545.359    22478547.844    -1579126.22909  -1104053.76109     -4538.391  
  22605920.438    22605922.512      578971.67409    405055.58309      1729.313  
 97  6 24 14 53 58.0000000  0  6G01G14G15G02G29G31
  22447421.516    22447423.707     -129681.23401    -81858.68609      -280.516  
  22144090.844    22144094.277    -1456458.21701  -1028586.59909     -4174.469  
  20194985.586    20194986.828     -706516.21002   -461942.23901     -1978.984  
  24684873.805    24684876.254     -270004.47509   -176633.52209      -716.750  
  22477681.828    22477684.500    -1583664.46709  -1107590.05209     -4538.016  
  22606249.773    22606251.906      580701.12909    406403.20809      1729.609  
 97  6 24 14 53 59.0000000  0  6G01G14G15G02G29G31
  22447367.977    22447370.262     -129961.54901    -82077.11409      -280.094  
  22143296.531    22143299.906    -1460632.59701  -1031839.36309     -4174.297  
  20194609.242    20194610.484     -708495.06402   -463484.20101     -1978.703  
  24684738.594    24684740.586     -270721.03209   -177191.88709      -716.375  
  22476818.148    22476820.691    -1588202.38209  -1111126.09209     -4537.781  
  22606579.055    22606581.199      582430.81809    407751.01609      1729.781  
 97  6 24 14 54  0.0000000  0  6G01G14G15G02G29G31
  22447314.922    22447317.160     -130241.19301    -82295.01809      -279.063  
  22142502.234    22142505.621    -1464806.56501  -1035091.80409     -4173.500  
  20194232.555    20194233.785     -710473.38602   -465025.75201     -1977.797  
  24684601.266    24684603.340     -271436.98809   -177749.77809      -715.391  
  22475954.531    22475957.039    -1592739.83909  -1114661.77409     -4536.969  
  22606908.320    22606910.477      584160.91809    409099.14309      1730.563  
 97  6 24 14 54  1.0000000  0  6G01G14G15G02G29G31
  22447261.656    22447263.836     -130519.76401    -82512.08909      -278.438  
  22141707.992    22141711.320    -1468979.70601  -1038343.60309     -4173.156  
  20193856.227    20193857.434     -712450.77102   -466566.57001     -1977.344  
  24684465.422    24684467.965     -272151.92209   -178306.86809      -714.875  
  22475091.555    22475093.969    -1597276.41509  -1118196.76909     -4536.578  
  22607237.391    22607239.500      585891.84809    410447.91609      1730.906  
 97  6 24 14 54  2.0000000  0  6G01G14G15G02G29G31
  22447208.695    22447210.969     -130798.07801    -82728.95909      -278.063  
  22140913.875    22140917.250    -1473152.85401  -1041595.40609     -4173.016  
  20193480.000    20193481.301     -714428.05002   -468107.30601     -1977.094  
  24684328.820    24684331.984     -272866.69809   -178863.84309      -714.547  
  22474228.320    22474230.617    -1601812.95409  -1121731.73409     -4536.375  
  22607566.906    22607568.969      587622.76709    411796.68209      1731.063  
 97  6 24 14 54  3.0000000  0  6G01G14G15G02G29G31
  22447155.820    22447157.941     -131075.97301    -82945.50109      -277.500  
  22140119.789    22140123.293    -1477325.83109  -1044847.07509     -4172.719  
  20193103.945    20193105.234     -716405.04402   -469647.82201     -1976.672  
  24684193.352    24684196.270     -273581.10009   -179420.52509      -714.063  
  22473364.914    22473367.199    -1606349.28509  -1125266.53909     -4536.016  
  22607896.352    22607898.426      589353.85409    413145.58009      1731.328  
 97  6 24 14 54  4.0000000  0  6G01G14G15G02G29G31
  22447103.047    22447105.215     -131353.27201    -83161.57809      -276.969  
  22139325.828    22139329.344    -1481498.47201  -1048098.48309     -4172.438  
  20192727.656    20192728.945     -718381.59102   -471187.98801     -1976.266  
  24684057.828    24684060.652     -274295.00009   -179976.81409      -713.594  
  22472501.844    22472504.023    -1610885.20909  -1128801.02309     -4535.703  
  22608225.789    22608227.922      591085.25209    414494.71909      1731.625  
 97  6 24 14 54  5.0000000  0  6G01G14G15G02G29G31
  22447050.445    22447052.637     -131629.94801    -83377.17009      -276.406  
  22138531.930    22138535.551    -1485670.74901  -1051349.60509     -4172.125  
  20192351.945    20192353.188     -720357.66002   -472727.78201     -1975.875  
  24683921.992    24683924.711     -275008.34009   -180532.67009      -713.109  
  22471638.609    22471640.836    -1615420.72309  -1132335.18909     -4535.328  
  22608555.469    22608557.543      592817.01309    415844.14309      1731.891  
 97  6 24 14 54  6.0000000  0  6G01G14G15G02G29G31
  22446997.641    22446999.914     -131906.03001    -83592.30009      -275.922  
  22137737.867    22137741.512    -1489842.69101  -1054600.46809     -4171.922  
  20191975.805    20191977.094     -722333.28302   -474267.22701     -1975.547  
  24683786.711    24683789.383     -275721.16409   -181088.11809      -712.719  
  22470775.695    22470777.875    -1619955.83809  -1135869.04309     -4535.047  
  22608884.680    22608886.789      594549.07309    417193.79809      1732.094  
 97  6 24 14 54  7.0000000  0  6G01G14G15G02G29G31
  22446945.531    22446947.816     -132181.68101    -83807.09309      -275.281  
  22136944.180    22136947.859    -1494014.45601  -1057851.19209     -4171.531  
  20191599.914    20191601.215     -724308.61402   -475806.44601     -1975.031  
  24683651.172    24683653.703     -276433.64509   -181643.29709      -712.141  
  22469912.531    22469914.676    -1624490.72609  -1139402.72209     -4534.625  
  22609214.313    22609216.480      596281.31109    418543.59209      1732.469  
 97  6 24 14 54  8.0000000  0  6G01G14G15G02G29G31
  22446893.031    22446895.375     -132456.79601    -84021.46909      -274.969  
  22136150.109    22136153.754    -1498185.94401  -1061101.69809     -4171.469  
  20191224.031    20191225.320     -726283.55402   -477345.36001     -1974.859  
  24683516.180    24683518.113     -277145.66209   -182198.11809      -711.906  
  22469049.773    22469052.012    -1629025.27909  -1142936.13709     -4534.469  
  22609544.250    22609546.324      598013.79409    419893.57809      1732.500  
 97  6 24 14 54  9.0000000  0  6G01G14G15G02G29G31
  22446840.781    22446843.102     -132731.40801    -84235.45409      -274.031  
  22135356.500    22135360.203    -1502357.20301  -1064352.02909     -4170.813  
  20190848.359    20190849.625     -728258.13902   -478883.99901     -1974.078  
  24683379.711    24683381.656     -277857.24209   -182752.60009      -711.047  
  22468186.836    22468189.016    -1633559.53209  -1146469.32009     -4533.766  
  22609873.867    22609876.105      599746.50809    421243.74209      1733.156  
 97  6 24 14 54 10.0000000  0  6G01G14G15G02G29G31
  22446788.648    22446790.969     -133005.35701    -84448.91909      -273.984  
  22134562.711    22134566.367    -1506528.04701  -1067602.03409     -4171.031  
  20190472.570    20190473.836     -730232.19102   -480422.22001     -1974.172  
  24683244.039    24683246.980     -278568.23709   -183306.61709      -711.078  
  22467324.141    22467326.191    -1638093.27009  -1150002.10009     -4533.906  
  22610203.656    22610205.766      601479.63609    422594.23209      1732.922  
 97  6 24 14 54 11.0000000  0  6G01G14G15G02G29G31
  22446736.758    22446739.102     -133279.20401    -84662.30709      -273.672  
  22133768.891    22133772.523    -1510699.04801  -1070852.16409     -4170.969  
  20190097.164    20190098.430     -732206.28502   -481960.47401     -1974.000  
  24683109.484    24683113.000     -279279.20609   -183860.61209      -710.844  
  22466461.688    22466463.703    -1642627.11409  -1153534.96309     -4533.766  
  22610533.383    22610535.527      603212.60009    423944.59109      1732.984  
 97  6 24 14 54 12.0000000  0  6G01G14G15G02G29G31
  22446684.750    22446687.117     -133552.53701    -84875.29209      -272.922  
  22132975.188    22132978.879    -1514869.80801  -1074102.10609     -4170.500  
  20189721.398    20189722.688     -734180.00803   -483498.44001     -1973.406  
  24682973.813    24682978.078     -279989.73009   -184414.26409      -710.188  
  22465598.828    22465600.832    -1647160.65609  -1157067.59109     -4533.250  
  22610863.055    22610865.305      604945.78809    425295.12609      1733.422  
 97  6 24 14 54 13.0000000  0  6G01G14G15G02G29G31
  22446632.922    22446635.266     -133825.45801    -85087.95709      -272.828  
  22132181.719    22132185.422    -1519040.41601  -1077351.93009     -4170.641  
  20189345.828    20189347.129     -736153.46203   -485036.19701     -1973.422  
  24682839.273    24682843.328     -280699.92309   -184967.65409      -710.125  
  22464736.188    22464738.262    -1651693.97109  -1160600.04409     -4533.344  
  22611193.086    22611195.395      606679.09909    426645.75709      1733.266  
 97  6 24 14 54 14.0000000  0  6G01G14G15G02G29G31
  22446580.789    22446583.133     -134098.14801    -85300.44209      -272.313  
  22131387.977    22131391.645    -1523211.05401  -1080601.77809     -4170.375  
  20188970.383    20188971.648     -738126.82503   -486573.88301     -1973.047  
  24682703.664    24682707.004     -281409.93909   -185520.91209      -709.672  
  22463873.453    22463875.434    -1656227.26809  -1164132.48109     -4533.000  
  22611522.789    22611525.133      608412.35409    427996.34409      1733.500  
 97  6 24 14 54 15.0000000  0  6G01G14G15G02G29G31
  22446529.094    22446531.449     -134370.20101    -85512.43109      -271.844  
  22130594.516    22130598.172    -1527381.31001  -1083851.32709     -4170.188  
  20188594.922    20188596.129     -740099.68403   -488111.17601     -1972.734  
  24682569.102    24682572.266     -282119.39209   -186073.73409      -709.297  
  22463010.727    22463012.555    -1660760.13609  -1167664.58509     -4532.766  
  22611852.844    22611855.188      610145.98509    429347.22509      1733.672  
 97  6 24 14 54 16.0000000  0  6G01G14G15G02G29G31
  22446477.180    22446479.652     -134641.79001    -85724.05909      -271.328  
  22129801.164    22129804.855    -1531551.36601  -1087100.72109     -4169.938  
  20188219.578    20188220.832     -742072.22704   -489648.22301     -1972.375  
  24682434.758    24682437.688     -282828.47909   -186626.27109      -708.875  
  22462148.281    22462150.133    -1665292.73209  -1171196.47709     -4532.453  
  22612182.578    22612184.922      611879.77709    430698.23209      1733.922  
 97  6 24 14 54 17.0000000  0  6G01G14G15G02G29G31
  22446425.758    22446428.242     -134912.73801    -85935.18609      -270.750  
  22129007.484    22129011.211    -1535721.05701  -1090349.82809     -4169.625  
  20187844.219    20187845.543     -744044.28404   -491184.88901     -1971.938  
  24682298.859    24682301.660     -283536.99109   -187178.35909      -708.344  
  22461285.789    22461287.605    -1669824.89209  -1174728.02709     -4532.063  
  22612512.656    22612515.105      613613.91609    432049.50909      1734.188  
 97  6 24 14 54 18.0000000  0  6G01G14G15G02G29G31
  22446374.461    22446376.992     -135183.52501    -86146.18609      -270.391  
  22128213.844    22128217.582    -1539890.85201  -1093599.01809     -4169.547  
  20187469.125    20187470.426     -746016.32105   -492721.54001     -1971.719  
  24682164.234    24682166.836     -284245.41809   -187730.37709      -708.094  
  22460423.336    22460425.012    -1674357.09409  -1178259.61209     -4531.906  
  22612842.695    22612845.379      615347.92709    433400.68709      1734.234  
 97  6 24 14 54 19.0000000  0  6G01G14G15G02G29G31
  22446322.805    22446325.395     -135453.52001    -86356.57109      -269.563  
  22127420.820    22127424.418    -1544060.14001  -1096847.81309     -4169.000  
  20187094.031    20187095.367     -747987.72504   -494257.69701     -1971.047  
  24682029.219    24682032.207     -284953.15909   -188281.86309      -707.344  
  22459561.211    22459562.816    -1678888.70409  -1181790.73409     -4531.297  
  22613172.727    22613175.527      617082.42509    434752.24409      1734.766  
 97  6 24 14 54 20.0000000  0  6G01G14G15G02G29G31
  22446271.703    22446274.199     -135722.86901    -86566.45109      -269.438  
  22126627.195    22126630.805    -1548229.05701  -1100096.31709     -4169.156  
  20186718.906    20186720.195     -749958.63404   -495793.47001     -1971.109  
  24681895.508    24681898.895     -285660.31209   -188832.88809      -707.328  
  22458698.828    22458700.516    -1683419.88909  -1185321.52309     -4531.391  
  22613502.852    22613505.488      618817.28509    436104.08109      1734.578  
 97  6 24 14 54 21.0000000  0  6G01G14G15G02G29G31
  22446220.242    22446222.797     -135992.25701    -86776.36509      -269.109  
  22125834.016    22125837.660    -1552398.30101  -1103345.07609     -4169.094  
  20186343.727    20186345.004     -751929.75204   -497329.40601     -1970.906  
  24681760.469    24681763.809     -286367.60809   -189384.02709      -707.047  
  22457836.516    22457838.238    -1687951.33109  -1188852.51609     -4531.250  
  22613832.719    22613835.203      620551.76909    437455.62509      1734.656  
 97  6 24 14 54 22.0000000  0  6G01G14G15G02G29G31
  22446169.305    22446171.859     -136260.95201    -86985.73909      -268.172  
  22125040.586    22125044.277    -1556567.12201  -1106593.50709     -4168.422  
  20185968.719    20185970.043     -753900.33204   -498864.92201     -1970.125  
  24681624.859    24681628.844     -287074.30009   -189934.70509      -706.188  
  22456974.250    22456975.961    -1692482.26209  -1192383.11009     -4530.516  
  22614162.898    22614165.313      622286.66909    438807.49609      1735.297  
 97  6 24 14 54 23.0000000  0  6G01G14G15G02G29G31
  22446118.078    22446120.598     -136528.84401    -87194.48809      -267.641  
  22124247.414    22124251.082    -1560735.41401  -1109841.52609     -4168.203  
  20185593.977    20185595.301     -755870.25904   -500399.93201     -1969.781  
  24681491.602    24681495.539     -287780.26709   -190484.82009      -705.766  
  22456112.242    22456113.988    -1697012.60509  -1195913.24709     -4530.203  
  22614493.234    22614495.695      624022.10009    440159.77909      1735.516  
 97  6 24 14 54 24.0000000  0  6G01G14G15G02G29G31
  22446067.211    22446069.707     -136796.05901    -87402.70909      -266.844  
  22123454.219    22123457.910    -1564903.33201  -1113089.25409     -4167.688  
  20185219.156    20185220.492     -757839.70003   -501934.56001     -1969.141  
  24681356.250    24681359.941     -288485.67209   -191034.49009      -705.078  
  22455250.281    22455251.945    -1701542.52409  -1199443.05409     -4529.656  
  22614823.688    22614826.102      625757.85609    441512.31509      1735.984  
 97  6 24 14 54 25.0000000  0  6G01G14G15G02G29G31
  22446016.453    22446018.996     -137062.70801    -87610.48809      -266.734  
  22122661.320    22122665.012    -1569070.94601  -1116336.74609     -4167.844  
  20184844.359    20184845.707     -759808.71403   -503468.85801     -1969.188  
  24681222.648    24681226.563     -289190.57709   -191583.76609      -705.063  
  22454388.313    22454389.977    -1706072.05909  -1202972.56309     -4529.750  
  22615153.992    22615156.289      627493.92309    442865.09409      1735.797  
 97  6 24 14 54 26.0000000  0  6G01G14G15G02G29G31
  22445965.625    22445968.262     -137329.39401    -87818.29609      -266.547  
  22121868.328    22121872.008    -1573238.88801  -1119584.49109     -4167.938  
  20184469.648    20184471.031     -761777.93903   -505003.31901     -1969.172  
  24681088.820    24681092.898     -289895.64009   -192133.16509      -704.969  
  22453526.344    22453527.961    -1710601.86109  -1206502.27609     -4529.766  
  22615484.297    22615486.605      629229.63109    444217.59209      1735.688  
 97  6 24 14 54 27.0000000  0  6G01G14G15G02G29G31
  22445915.117    22445917.672     -137595.36101    -88025.54209      -265.328  
  22121075.125    22121078.758    -1577406.35901  -1122831.87009     -4166.984  
  20184094.930    20184096.383     -763746.59403   -506537.33601     -1968.109  
  24680954.602    24680958.891     -290600.06009   -192682.06509      -703.844  
  22452664.406    22452666.059    -1715131.15009  -1210031.59109     -4528.781  
  22615814.805    22615817.043      630965.76609    445570.42109      1736.594  
 97  6 24 14 54 28.0000000  0  6G01G14G15G02G29G31
  22445864.742    22445867.262     -137860.32201    -88232.00509      -265.031  
  22120282.156    22120285.836    -1581573.12301  -1126078.69709     -4166.938  
  20183720.781    20183722.164     -765714.41502   -508070.70401     -1967.953  
  24680820.719    24680824.609     -291303.60009   -193230.27809      -703.625  
  22451802.547    22451804.234    -1719659.65609  -1213560.29509     -4528.672  
  22616145.297    22616147.535      632702.59109    446923.78909      1736.625  
 97  6 24 14 54 29.0000000  0  6G01G14G15G02G29G31
  22445814.672    22445817.285     -138125.35001    -88438.52009      -264.734  
  22119489.422    22119493.031    -1585740.19201  -1129325.76109     -4166.906  
  20183346.039    20183347.422     -767682.44402   -509604.23501     -1967.813  
  24680687.156    24680690.555     -292007.27309   -193778.60209      -703.438  
  22450940.828    22450942.527    -1724188.45309  -1217089.22909     -4528.609  
  22616475.398    22616477.578      634439.07909    448276.89409      1736.625  
 97  6 24 14 54 30.0000000  0  6G01G14G15G02G29G31
  22445764.141    22445766.684     -138389.67301    -88644.48809      -263.984  
  22118696.383    22118700.027    -1589906.80701  -1132572.47409     -4166.406  
  20182971.680    20182973.051     -769649.91502   -511137.33001     -1967.203  
  24680553.148    24680556.195     -292710.32609   -194326.44109      -702.766  
  22450079.211    22450080.840    -1728716.73909  -1220617.76309     -4528.031  
  22616806.297    22616808.570      636175.99109    449630.32909      1737.109  
 97  6 24 14 54 31.0000000  0  6G01G14G15G02G29G31
  22445713.797    22445716.270     -138653.47801    -88850.05009      -263.375  
  22117903.320    22117906.953    -1594073.16501  -1135818.98509     -4166.047  
  20182597.305    20182598.734     -771617.01502   -512670.13501     -1966.734  
  24680419.797    24680423.746     -293412.94609   -194873.93409      -702.219  
  22449217.523    22449219.117    -1733244.69009  -1224146.03609     -4527.609  
  22617136.789    22617139.168      637913.13009    450983.94009      1737.422  
 97  6 24 14 54 32.0000000  0  6G01G14G15G02G29G31
  22445663.945    22445666.488     -138916.51201    -89055.01309      -262.766  
  22117110.602    22117114.188    -1598239.02401  -1139065.10709     -4165.703  
  20182223.258    20182224.664     -773583.49202   -514202.45401     -1966.266  
  24680285.438    24680290.207     -294114.91509   -195420.92309      -701.703  
  22448356.039    22448357.609    -1737772.06609  -1227673.86209     -4527.172  
  22617467.570    22617470.102      639650.72509    452337.91009      1737.750  
 97  6 24 14 54 33.0000000  0  6G01G14G15G02G29G31
  22445613.883    22445616.473     -139178.98301    -89259.53609      -262.203  
  22116318.055    22116321.629    -1602404.56701  -1142310.98309     -4165.422  
  20181849.078    20181850.461     -775549.54001   -515734.44101     -1965.859  
  24680152.344    24680156.727     -294816.35509   -195967.50409      -701.234  
  22447494.656    22447496.344    -1742299.06709  -1231201.39509     -4526.828  
  22617798.125    22617800.598      641388.61509    453692.10809      1738.000  
 97  6 24 14 54 34.0000000  0  6G01G14G15G02G29G31
  22445564.078    22445566.551     -139440.75701    -89463.51609      -261.531  
  22115525.453    22115529.027    -1606569.67601  -1145556.52209     -4165.000  
  20181474.969    20181476.328     -777515.03401   -517265.99601     -1965.328  
  24680018.992    24680022.965     -295517.20309   -196513.62009      -700.625  
  22446633.016    22446634.809    -1746825.54909  -1234728.52309     -4526.344  
  22618128.922    22618131.453      643126.92209    455046.63009      1738.391  
 97  6 24 14 54 35.0000000  0  6G01G14G15G02G29G31
  22445514.516    22445517.035     -139701.98001    -89667.06809      -260.922  
  22114732.906    22114736.516    -1610734.49201  -1148801.83309     -4164.641  
  20181101.070    20181102.430     -779480.12801   -518797.23801     -1964.859  
  24679885.336    24679889.578     -296217.56709   -197059.35509      -700.109  
  22445771.914    22445773.707    -1751351.67209  -1238255.37509     -4525.906  
  22618459.625    22618462.180      644865.48309    456401.35109      1738.734  
 97  6 24 14 54 36.0000000  0  6G01G14G15G02G29G31
  22445464.570    22445467.148     -139963.04801    -89870.49809      -261.000  
  22113940.484    22113944.094    -1614899.39801  -1152047.21509     -4164.969  
  20180727.125    20180728.473     -781445.20101   -520328.46301     -1965.078  
  24679752.531    24679756.316     -296917.84809   -197605.03209      -700.281  
  22444910.422    22444912.227    -1755877.85809  -1241782.27109     -4526.219  
  22618790.438    22618792.969      646603.93709    457755.99009      1738.375  
 97  6 24 14 54 37.0000000  0  6G01G14G15G02G29G31
  22445415.242    22445417.938     -140223.62801    -90073.54709      -260.203  
  22113147.844    22113151.465    -1619064.08901  -1155292.42709     -4164.438  
  20180353.133    20180354.445     -783409.92701   -521859.41701     -1964.422  
  24679619.758    24679622.547     -297617.74909   -198150.41109      -699.547  
  22444049.078    22444050.906    -1760403.72409  -1245308.91909     -4525.578  
  22619121.164    22619123.719      648342.59209    459110.78409      1738.891  
 97  6 24 14 54 38.0000000  0  6G01G14G15G02G29G31
  22445365.516    22445368.117     -140483.65701    -90276.16609      -259.938  
  22112355.344    22112358.930    -1623228.48601  -1158537.41009     -4164.422  
  20179979.375    20179980.723     -785374.24301   -523390.05301     -1964.297  
  24679486.570    24679488.855     -298317.18009   -198695.41209      -699.391  
  22443188.016    22443189.949    -1764929.22709  -1248835.28509     -4525.500  
  22619452.258    22619455.047      650081.51009    460465.78509      1738.891  
 97  6 24 14 54 39.0000000  0  6G01G14G15G02G29G31
  22445316.250    22445318.863     -140743.13901    -90478.35909      -259.141  
  22111562.898    22111566.461    -1627392.58001  -1161782.15709     -4163.891  
  20179605.664    20179607.047     -787338.14601   -524920.36701     -1963.641  
  24679353.664    24679355.961     -299016.14709   -199240.05309      -698.672  
  22442327.039    22442329.113    -1769454.38409  -1252361.38209     -4524.922  
  22619783.250    22619786.027      651820.71809    461821.01109      1739.406  
 97  6 24 14 54 40.0000000  0  6G01G14G15G02G29G31
  22445267.047    22445269.625     -141001.95601    -90680.03409      -258.266  
  22110770.695    22110774.211    -1631556.26901  -1165026.58709     -4163.266  
  20179232.180    20179233.551     -789301.53601   -526450.28101     -1962.906  
  24679220.219    24679222.750     -299714.54809   -199784.25309      -697.891  
  22441465.859    22441467.957    -1773979.09909  -1255887.13309     -4524.281  
  22620114.219    22620116.996      653560.29409    463176.52609      1740.000  
 97  6 24 14 54 41.0000000  0  6G01G14G15G02G29G31
  22445217.781    22445220.465     -141260.13801    -90881.21409      -258.016  
  22109978.602    22109982.117    -1635719.57701  -1168270.72209     -4163.250  
  20178858.578    20178859.949     -791264.43801   -527979.81401     -1962.797  
  24679087.766    24679090.777     -300412.41809   -200328.04409      -697.719  
  22440605.031    22440607.082    -1778503.39209  -1259412.55309     -4524.203  
  22620445.141    22620447.953      655300.23609    464532.32509      1740.000  
 97  6 24 14 54 42.0000000  0  6G01G14G15G02G29G31
  22445168.859    22445171.414     -141517.84001    -91082.02009      -257.344  
  22109186.281    22109189.773    -1639882.64801  -1171514.67109     -4162.828  
  20178485.086    20178486.457     -793226.99501   -529509.07801     -1962.266  
  24678955.617    24678958.898     -301109.88809   -200871.52509      -697.172  
  22439744.047    22439746.051    -1783027.38009  -1262937.73609     -4523.719  
  22620776.625    22620779.426      657040.39509    465888.29409      1740.391  
 97  6 24 14 54 43.0000000  0  6G01G14G15G02G29G31
  22445119.977    22445122.508     -141774.82301    -91282.26409      -257.031  
  22108394.422    22108397.938    -1644045.23901  -1174758.24609     -4162.766  
  20178111.719    20178113.102     -795188.98701   -531037.90201     -1962.109  
  24678822.625    24678825.602     -301806.76309   -201414.55109      -696.969  
  22438883.477    22438885.328    -1787550.84801  -1266462.51609     -4523.625  
  22621107.633    22621110.480      658781.00909    467244.61509      1740.406  
 97  6 24 14 54 44.0000000  0  6G01G14G15G02G29G31
  22445070.969    22445073.547     -142031.65401    -91482.39209      -256.328  
  22107602.156    22107605.719    -1648207.92901  -1178001.90009     -4162.328  
  20177738.469    20177739.852     -797150.96502   -532566.71601     -1961.563  
  24678690.070    24678692.719     -302503.57509   -201957.53109      -696.391  
  22438022.539    22438024.461    -1792074.38401  -1269987.34709     -4523.141  
  22621438.953    22621441.777      660521.47709    468600.82309      1740.828  
 97  6 24 14 54 45.0000000  0  6G01G14G15G02G29G31
  22445022.344    22445024.945     -142287.59501    -91681.82809      -255.406  
  22106810.219    22106813.770    -1652369.99001  -1181245.06409     -4161.656  
  20177365.352    20177366.816     -799112.20902   -534094.95801     -1960.797  
  24678557.758    24678560.500     -303199.61509   -202499.90209      -695.578  
  22437161.875    22437163.715    -1796597.24201  -1273511.65009     -4522.422  
  22621770.258    22621773.152      662262.56209    469957.51209      1741.469  
 97  6 24 14 54 46.0000000  0  6G01G14G15G02G29G31
  22444973.883    22444976.578     -142542.77501    -91880.66809      -254.891  
  22106018.125    22106021.629    -1656531.53401  -1184487.82109     -4161.406  
  20176992.172    20176993.590     -801072.83602   -535622.71901     -1960.422  
  24678425.156    24678427.043     -303895.00909   -203041.76309      -695.141  
  22436301.219    22436303.094    -1801119.53909  -1277035.51609     -4522.141  
  22622101.797    22622104.586      664004.12709    471314.57409      1741.672  
 97  6 24 14 54 47.0000000  0  6G01G14G15G02G29G31
  22444925.430    22444928.254     -142796.77501    -92078.58809      -253.063  
  22105226.406    22105229.922    -1660692.14301  -1187729.85309     -4159.797  
  20176619.266    20176620.602     -803032.42202   -537149.66901     -1958.734  
  24678292.820    24678294.848     -304589.31309   -203582.77509      -693.438  
  22435440.789    22435442.594    -1805640.85709  -1280558.62109     -4520.484  
  22622433.234    22622435.988      665746.60309    472672.34709      1743.281  
 97  6 24 14 54 48.0000000  0  6G01G14G15G02G29G31
  22444877.617    22444880.348     -143049.33401    -92275.38809      -251.750  
  22104435.086    22104438.590    -1664851.57201  -1190970.96609     -4158.719  
  20176246.641    20176247.965     -804990.71402   -538675.61001     -1957.531  
  24678161.016    24678163.371     -305282.27509   -204122.74909      -692.203  
  22434580.750    22434582.613    -1810160.95409  -1284080.77509     -4519.375  
  22622764.898    22622767.535      667490.24209    474031.02409      1744.328  
 97  6 24 14 54 49.0000000  0  6G01G14G15G02G29G31
  22444829.648    22444832.414     -143300.90801    -92471.42109      -251.406  
  22103643.672    22103647.199    -1669010.24301  -1194211.48909     -4158.641  
  20175874.063    20175875.375     -806948.15903   -540200.89201     -1957.344  
  24678029.617    24678032.137     -305974.35609   -204662.03809      -691.969  
  22433720.914    22433722.719    -1814680.24709  -1287602.30409     -4519.219  
  22623096.992    22623099.629      669234.57709    475390.24309      1744.359  
 97  6 24 14 54 50.0000000  0  6G01G14G15G02G29G31
  22444781.922    22444784.535     -143552.07601    -92667.13709      -251.719  
  22102852.195    22102855.734    -1673168.75001  -1197451.88109     -4159.172  
  20175501.648    20175503.008     -808905.33503   -541725.96209     -1957.797  
  24677898.070    24677900.238     -306666.12609   -205201.07509      -692.344  
  22432860.734    22432862.410    -1819199.31609  -1291123.65509     -4519.703  
  22623428.891    22623431.527      670979.05009    476749.57109      1743.813  
 97  6 24 14 54 51.0000000  0  6G01G14G15G02G29G31
  22444733.695    22444736.332     -143804.41101    -92863.76409      -252.031  
  22102060.641    22102064.133    -1677328.67201  -1200693.37609     -4159.734  
  20175129.055    20175130.414     -810863.82104   -543252.05301     -1958.250  
  24677766.063    24677767.551     -307359.16309   -205741.09609      -692.766  
  22432000.359    22432002.059    -1823719.76309  -1294646.08309     -4520.234  
  22623760.633    22623763.281      672722.06509    478107.76409      1743.188  
 97  6 24 14 54 52.0000000  0  6G01G14G15G02G29G31
  22444685.680    22444688.398     -144056.44201    -93060.15309      -251.797  
  22101268.914    22101272.500    -1681488.50801  -1203934.80609     -4159.734  
  20174756.313    20174757.648     -812822.13504   -544778.01301     -1958.156  
  24677634.008    24677636.527     -308051.96609   -206280.94309      -692.625  
  22431140.359    22431142.059    -1828240.07909  -1298168.40909     -4520.188  
  22624092.297    22624094.840      674465.14909    479466.00909      1743.141  
 97  6 24 14 54 53.0000000  0  6G01G14G15G02G29G31
  22444637.789    22444640.531     -144307.98701    -93256.16209      -251.203  
  22100477.430    22100481.039    -1685648.10201  -1207176.04909     -4159.375  
  20174383.906    20174385.254     -814780.10204   -546303.70201     -1957.688  
  24677501.633    24677504.129     -308744.39109   -206820.49809      -692.125  
  22430280.016    22430281.797    -1832760.11209  -1301690.51509     -4519.781  
  22624424.156    22624426.629      676208.40509    480824.38909      1743.469  
 97  6 24 14 54 54.0000000  0  6G01G14G15G02G29G31
  22444590.172    22444592.879     -144558.29701    -93451.20909      -249.813  
  22099686.195    22099689.816    -1689806.70101  -1210416.51509     -4158.219  
  20174011.539    20174012.910     -816736.97904   -547828.54201     -1956.438  
  24677371.016    24677373.734     -309435.66309   -207359.15809      -690.828  
  22429420.273    22429422.043    -1837279.11809  -1305211.82009     -4518.609  
  22624755.828    22624758.324      677952.61109    482183.50909      1744.547  
 97  6 24 14 54 55.0000000  0  6G01G14G15G02G29G31
  22444542.703    22444545.410     -144808.13901    -93645.89109      -249.797  
  22098894.844    22098898.441    -1693965.06001  -1213656.79709     -4158.438  
  20173639.156    20173640.527     -818693.51205   -549353.11501     -1956.563  
  24677239.156    24677241.277     -310126.55809   -207897.51809      -690.875  
  22428560.297    22428562.172    -1841797.82309  -1308732.88809     -4518.766  
  22625087.680    22625090.340      679697.02009    483542.78809      1744.313  
 97  6 24 14 54 56.0000000  0  6G01G14G15G02G29G31
  22444495.047    22444497.672     -145057.76501    -93840.40609      -249.469  
  22098103.563    22098107.148    -1698123.44901  -1216897.09709     -4158.328  
  20173266.844    20173268.273     -820649.98106   -550877.63401     -1956.375  
  24677108.406    24677111.488     -310817.31709   -208435.76509      -690.641  
  22427700.414    22427702.242    -1846316.50709  -1312253.94109     -4518.609  
  22625419.594    22625422.184      681441.35609    484902.01209      1744.359  
 97  6 24 14 54 57.0000000  0  6G01G14G15G02G29G31
  22444447.766    22444450.367     -145306.94101    -94034.56609      -248.938  
  22097312.273    22097315.848    -1702281.64201  -1220137.24509     -4158.047  
  20172894.570    20172895.965     -822606.13806   -552401.91101     -1955.969  
  24676976.031    24676978.270     -311507.72409   -208973.73909      -690.172  
  22426840.820    22426842.566    -1850834.96109  -1315774.81209     -4518.297  
  22625751.805    22625754.406      683185.84709    486261.35709      1744.625  
 97  6 24 14 54 58.0000000  0  6G01G14G15G02G29G31
  22444400.430    22444402.961     -145555.78401    -94228.47109      -248.906  
  22096521.000    22096524.551    -1706439.71601  -1223377.30409     -4158.266  
  20172522.289    20172523.625     -824562.09806   -553926.03501     -1956.078  
  24676845.234    24676847.578     -312197.86709   -209511.51509      -690.250  
  22425980.859    22425982.477    -1855353.26209  -1319295.56609     -4518.469  
  22626083.836    22626086.578      684930.41809    487620.76209      1744.359  
 97  6 24 14 54 59.0000000  0  6G01G14G15G02G29G31
  22444353.227    22444355.781     -145804.12901    -94421.98809      -247.875  
  22095729.781    22095733.320    -1710597.52301  -1226617.15409     -4157.438  
  20172150.266    20172151.590     -826517.68106   -555449.86801     -1955.172  
  24676714.242    24676716.234     -312887.57909   -210048.95509      -689.281  
  22425121.141    22425122.840    -1859871.26509  -1322816.08709     -4517.609  
  22626415.953    22626418.660      686675.21409    488980.34209      1745.156  
 97  6 24 14 55  0.0000000  0  6G01G14G15G02G29G31
  22444305.969    22444308.523     -146051.74701    -94614.93809      -247.234  
  22094938.602    22094942.105    -1714754.85101  -1229856.63001     -4157.063  
  20171778.391    20171779.773     -828472.69206   -556973.25501     -1954.703  
  24676583.125    24676585.891     -313576.64309   -210585.88709      -688.719  
  22424261.508    22424263.359    -1864388.74609  -1326336.20109     -4517.188  
  22626747.891    22626750.715      688420.43609    490340.25209      1745.469  
 97  6 24 14 55  1.0000000  0  6G01G14G15G02G29G31
  22444258.961    22444261.516     -146298.92101    -94807.54309      -247.063  
  22094147.547    22094151.086    -1718911.94901  -1233095.92801     -4157.109  
  20171406.359    20171407.730     -830427.38606   -558496.39501     -1954.656  
  24676451.711    24676454.723     -314265.33009   -211122.52509      -688.609  
  22423401.961    22423403.836    -1868905.96109  -1329856.10909     -4517.219  
  22627080.227    22627083.109      690165.84909    491700.31109      1745.375  
 97  6 24 14 55  2.0000000  0  6G01G14G15G02G29G31
  22444211.914    22444214.434     -146545.56901    -94999.73709      -246.094  
  22093356.523    22093359.992    -1723068.75601  -1236334.99901     -4156.375  
  20171034.570    20171035.930     -832381.69406   -560019.23201     -1953.828  
  24676320.258    24676323.609     -314953.57109   -211658.81009      -687.719  
  22422542.586    22422544.438    -1873422.84709  -1333375.75809     -4516.422  
  22627412.211    22627414.883      691911.49809    493060.55509      1746.063  
 97  6 24 14 55  3.0000000  0  6G01G14G15G02G29G31
  22444165.211    22444167.730     -146791.31801    -95191.23009      -245.578  
  22092565.625    22092569.117    -1727224.90201  -1239573.55401     -4156.078  
  20170662.688    20170664.000     -834335.23906   -561541.47601     -1953.453  
  24676190.313    24676193.230     -315640.96909   -212194.44109      -687.266  
  22421682.922    22421684.902    -1877939.02809  -1336894.85709     -4516.109  
  22627744.500    22627747.184      693657.77209    494421.28509      1746.297  
 97  6 24 14 55  4.0000000  0  6G01G14G15G02G29G31
  22444118.648    22444121.191     -147036.86301    -95382.56409      -245.141  
  22091774.719    22091778.211    -1731381.05201  -1242812.11001     -4155.875  
  20170290.906    20170292.219     -836288.71806   -563063.66801     -1953.141  
  24676059.203    24676061.594     -316328.24109   -212729.98309      -686.906  
  22420823.461    22420825.512    -1882455.18809  -1340413.94109     -4515.891  
  22628076.953    22628079.578      695403.97309    495781.95709      1746.438  
 97  6 24 14 55  5.0000000  0  6G01G14G15G02G29G31
  22444071.945    22444074.512     -147281.83201    -95573.45009      -244.953  
  22090983.930    22090987.410    -1735536.86801  -1246050.40609     -4155.891  
  20169919.414    20169920.762     -838241.76406   -564585.52401     -1953.094  
  24675928.422    24675930.719     -317015.03009   -213265.15109      -686.797  
  22419964.414    22419966.441    -1886970.98609  -1343932.74409     -4515.844  
  22628409.305    22628411.895      697150.44809    497142.84309      1746.375  
 97  6 24 14 55  6.0000000  0  6G01G14G15G02G29G31
  22444025.570    22444028.102     -147526.38401    -95764.01109      -244.016  
  22090193.125    22090196.629    -1739692.49601  -1249288.55701     -4155.203  
  20169547.695    20169548.996     -840194.53006   -566107.16001     -1952.313  
  24675798.234    24675801.891     -317701.47409   -213800.05209      -685.969  
  22419105.086    22419107.090    -1891486.55709  -1347451.36809     -4515.125  
  22628741.539    22628744.152      698897.06909    498503.84509      1747.016  
 97  6 24 14 55  7.0000000  0  6G01G14G15G02G29G31
  22443979.313    22443981.926     -147769.19501    -95953.21609      -241.516  
  22089402.734    22089406.168    -1743846.58401  -1252525.50609     -4152.922  
  20169176.266    20169177.578     -842145.69506   -567627.54701     -1949.938  
  24675667.313    24675670.770     -318386.25709   -214333.65209      -683.531  
  22418246.000    22418248.004    -1896000.57609  -1350968.78509     -4512.828  
  22629074.227    22629076.770      700645.15009    499865.98409      1749.234  
 97  6 24 14 55  8.0000000  0  6G01G14G15G02G29G31
  22443933.203    22443935.781     -148011.18301    -96141.77809      -242.125  
  22088612.219    22088615.594    -1748000.07801  -1255761.99409     -4153.719  
  20168805.125    20168806.461     -844096.18205   -569147.40901     -1950.688  
  24675537.688    24675540.934     -319070.30209   -214866.67809      -684.203  
  22417387.344    22417389.336    -1900513.95809  -1354485.70509     -4513.594  
  22629407.133    22629409.605      702393.77109    501228.54609      1748.328  
 97  6 24 14 55  9.0000000  0  6G01G14G15G02G29G31
  22443887.266    22443889.820     -148252.64101    -96329.92209      -241.922  
  22087822.039    22087825.379    -1752153.26001  -1258998.23609     -4153.766  
  20168433.992    20168435.340     -846046.26905   -570666.95501     -1950.625  
  24675407.688    24675410.828     -319753.89609   -215399.34709      -684.094  
  22416528.406    22416530.551    -1905026.99909  -1358002.35609     -4513.609  
  22629740.055    22629742.410      704142.63309    502591.29509      1748.250  
 97  6 24 14 55 10.0000000  0  6G01G14G15G02G29G31
  22443840.938    22443843.539     -148494.90901    -96518.69909      -242.250  
  22087031.617    22087034.922    -1756307.46101  -1262235.27109     -4154.313  
  20168062.805    20168064.188     -847997.31405   -572187.24701     -1951.094  
  24675276.891    24675280.102     -320438.38609   -215932.70909      -684.516  
  22415669.281    22415671.520    -1909541.02409  -1361519.77409     -4514.109  
  22630072.211    22630074.672      705890.39809    503953.19109      1747.641  
 97  6 24 14 55 11.0000000  0  6G01G14G15G02G29G31
  22443795.180    22443797.875     -148736.95601    -96707.30709      -241.781  
  22086240.953    22086244.223    -1760461.67201  -1265472.31709     -4154.031  
  20167691.531    20167692.949     -849948.26605   -573707.46901     -1950.750  
  24675146.992    24675149.137     -321122.71909   -216465.95709      -684.125  
  22414810.438    22414812.664    -1914055.02009  -1365037.17209     -4513.813  
  22630404.922    22630407.395      707638.10409    505315.03909      1747.813  
 97  6 24 14 55 12.0000000  0  6G01G14G15G02G29G31
  22443749.242    22443751.879     -148978.20801    -96895.29609      -240.875  
  22085450.656    22085453.926    -1764615.31501  -1268708.92109     -4153.375  
  20167320.188    20167321.559     -851898.57004   -575227.18701     -1950.000  
  24675017.211    24675018.992     -321806.36909   -216998.67209      -683.297  
  22413951.445    22413953.707    -1918568.42309  -1368554.10909     -4513.141  
  22630737.820    22630740.316      709386.30609    506677.27209      1748.438  
 97  6 24 14 55 13.0000000  0  6G01G14G15G02G29G31
  22443703.430    22443706.102     -149218.66401    -97082.66609      -240.234  
  22084660.469    22084663.598    -1768768.37101  -1271945.06809     -4152.953  
  20166949.414    20166950.832     -853848.21604   -576746.39101     -1949.500  
  24674887.359    24674888.473     -322489.28309   -217530.81109      -682.734  
  22413092.813    22413094.992    -1923081.22109  -1372070.57409     -4512.688  
  22631070.555    22631073.109      711135.01309    508039.89909      1748.781  
 97  6 24 14 55 14.0000000  0  6G01G14G15G02G29G31
  22443657.813    22443660.496     -149458.46501    -97269.52409      -239.609  
  22083870.063    22083873.168    -1772921.00101  -1275180.88309     -4152.547  
  20166578.570    20166579.953     -855797.34705   -578265.19401     -1949.016  
  24674756.938    24674758.215     -323171.64809   -218062.52609      -682.203  
  22412234.070    22412236.145    -1927593.57409  -1375586.69109     -4512.266  
  22631403.172    22631405.645      712884.06909    509402.79609      1749.109  
 97  6 24 14 55 15.0000000  0  6G01G14G15G02G29G31
  22443612.078    22443614.809     -149698.14301    -97456.28809      -238.938  
  22083079.813    22083082.965    -1777073.73701  -1278416.78109     -4152.109  
  20166207.625    20166208.984     -857746.49705   -579784.01301     -1948.484  
  24674627.578    24674628.762     -323853.95909   -218594.20009      -681.625  
  22411375.320    22411377.418    -1932106.03609  -1379102.89409     -4511.813  
  22631735.836    22631738.332      714632.97409    510765.57509      1749.484  
 97  6 24 14 55 16.0000000  0  6G01G14G15G02G29G31
  22443566.938    22443569.574     -149936.08101    -97641.69409      -237.875  
  22082289.633    22082292.809    -1781224.94101  -1281651.48709     -4151.266  
  20165836.938    20165838.297     -859694.05005   -581301.58701     -1947.547  
  24674498.039    24674500.043     -324534.62709   -219124.60009      -680.641  
  22410516.805    22410518.891    -1936616.91709  -1382617.86409     -4510.938  
  22632069.039    22632071.395      716383.32309    512129.48309      1750.281  
 97  6 24 14 55 17.0000000  0  6G01G14G15G02G29G31
  22443521.656    22443524.305     -150173.99201    -97827.07909      -237.453  
  22081499.836    22081502.988    -1785376.35801  -1284886.35609     -4151.047  
  20165466.242    20165467.590     -861641.72305   -582819.25401     -1947.281  
  24674368.234    24674369.969     -325215.35709   -219655.04709      -680.313  
  22409658.258    22409660.449    -1941128.00709  -1386132.99709     -4510.719  
  22632401.945    22632404.359      718133.40409    513493.18109      1750.406  
 97  6 24 14 55 18.0000000  0  6G01G14G15G02G29G31
  22443476.461    22443479.098     -150411.38201    -98012.06009      -237.656  
  22080709.922    22080713.039    -1789527.48401  -1288120.99809     -4151.500  
  20165095.992    20165097.340     -863589.01504   -584336.62301     -1947.625  
  24674238.453    24674240.070     -325895.67409   -220185.16909      -680.625  
  22408799.977    22408802.168    -1945638.78309  -1389647.88409     -4511.156  
  22632735.398    22632737.777      719883.72809    514857.06809      1749.891  
 97  6 24 14 55 19.0000000  0  6G01G14G15G02G29G31
  22443431.508    22443434.051     -150648.68301    -98196.96909      -236.734  
  22079919.758    22079922.805    -1793678.73901  -1291355.74009     -4150.813  
  20164725.148    20164726.508     -865536.36704   -585854.03901     -1946.844  
  24674109.430    24674110.848     -326575.99009   -220715.28709      -679.766  
  22407941.742    22407943.957    -1950149.68709  -1393162.86809     -4510.438  
  22633068.289    22633070.621      721633.85309    516220.80109      1750.531  
 97  6 24 14 55 20.0000000  0  6G01G14G15G02G29G31
  22443386.516    22443389.070     -150884.99801    -98381.11009      -236.047  
  22079130.055    22079133.102    -1797829.25701  -1294589.90809     -4150.344  
  20164354.773    20164356.086     -867482.88504   -587370.80701     -1946.313  
  24673979.586    24673981.332     -327255.42109   -221244.71709      -679.188  
  22407083.430    22407085.750    -1954659.84309  -1396677.27309     -4509.984  
  22633401.172    22633403.469      723384.64409    517585.05509      1750.922  
 97  6 24 14 55 21.0000000  0  6G01G14G15G02G29G31
  22443341.836    22443344.367     -151120.50401    -98564.62209      -235.250  
  22078340.500    22078343.547    -1801979.18601  -1297823.62009     -4149.797  
  20163984.406    20163985.695     -869428.72504   -588887.04701     -1945.672  
  24673850.211    24673851.945     -327934.10409   -221773.56209      -678.469  
  22406225.188    22406227.461    -1959169.39909  -1400191.21209     -4509.406  
  22633734.695    22633736.910      725135.96709    518949.71909      1751.438  
 97  6 24 14 55 22.0000000  0  6G01G14G15G02G29G31
  22443296.898    22443299.359     -151355.75601    -98747.93609      -235.297  
  22077550.664    22077553.699    -1806129.07801  -1301057.30209     -4150.063  
  20163614.063    20163615.387     -871374.45504   -590403.20001     -1945.844  
  24673721.523    24673723.023     -328612.62809   -222302.28409      -678.594  
  22405367.328    22405369.602    -1963678.89601  -1403705.10609     -4509.656  
  22634067.711    22634069.785      726887.25209    520314.35609      1751.109  
 97  6 24 14 55 23.0000000  0  6G01G14G15G02G29G31
  22443252.258    22443254.813     -151590.89601    -98931.16309      -234.797  
  22076761.016    22076764.016    -1810279.09701  -1304291.08309     -4149.750  
  20163243.992    20163245.316     -873320.21504   -591919.37901     -1945.484  
  24673592.453    24673594.035     -329291.09509   -222830.96209      -678.156  
  22404508.930    22404511.250    -1968188.49409  -1407219.07809     -4509.359  
  22634401.078    22634403.293      728638.38409    521678.87209      1751.344  
 97  6 24 14 55 24.0000000  0  6G01G14G15G02G29G31
  22443207.508    22443210.086     -151825.26701    -99113.78909      -234.094  
  22075971.297    22075974.344    -1814428.56601  -1307524.43609     -4149.297  
  20162873.797    20162875.133     -875265.34205   -593435.06501     -1944.922  
  24673463.555    24673464.902     -329968.87209   -223359.10309      -677.531  
  22403651.008    22403653.352    -1972697.53609  -1410732.61809     -4508.844  
  22634734.602    22634736.805      730389.99209    523043.76109      1751.734  
 97  6 24 14 55 25.0000000  0  6G01G14G15G02G29G31
  22443162.844    22443165.457     -152059.10501    -99296.00209      -233.250  
  22075181.773    22075184.867    -1818577.70101  -1310757.52809     -4148.656  
  20162503.930    20162505.230     -877210.08305   -594950.44801     -1944.219  
  24673335.016    24673336.445     -330646.20509   -223886.89709      -676.781  
  22402792.883    22402795.168    -1977206.24409  -1414245.89909     -4508.219  
  22635067.703    22635069.824      732141.83209    524408.83009      1752.297  
 97  6 24 14 55 26.0000000  0  6G01G14G15G02G29G31
  22443118.523    22443121.055     -152291.77501    -99477.30209      -232.609  
  22074392.492    22074395.621    -1822725.89701  -1313989.88709     -4148.219  
  20162134.039    20162135.352     -879153.79005   -596465.02401     -1943.719  
  24673205.563    24673207.156     -331322.44709   -224413.84109      -676.219  
  22401935.227    22401937.441    -1981713.99109  -1417758.42909     -4507.781  
  22635401.516    22635403.719      733894.59009    525774.61509      1752.688  
 97  6 24 14 55 27.0000000  0  6G01G14G15G02G29G31
  22443074.500    22443077.043     -152524.19801    -99658.41009      -231.875  
  22073602.977    22073606.070    -1826874.05501  -1317222.21809     -4147.719  
  20161764.078    20161765.355     -881097.39505   -597979.52201     -1943.125  
  24673077.547    24673079.316     -331998.52609   -224940.65409      -675.563  
  22401077.477    22401079.563    -1986221.70909  -1421270.93709     -4507.281  
  22635734.773    22635737.012      735647.31509    527140.37309      1753.125  
 97  6 24 14 55 28.0000000  0  6G01G14G15G02G29G31
  22443030.375    22443032.930     -152755.92801    -99838.98109      -231.547  
  22072813.789    22072816.906    -1831021.73101  -1320454.17301     -4147.609  
  20161394.250    20161395.492     -883040.45106   -599493.59301     -1942.938  
  24672948.125    24672949.813     -332673.98109   -225466.97909      -675.328  
  22400219.758    22400221.844    -1990728.95301  -1424783.07609     -4507.156  
  22636068.570    22636070.844      737400.43809    528506.44109      1753.172  
 97  6 24 14 55 29.0000000  0  6G01G14G15G02G29G31
  22442986.500    22442988.996     -152987.18501   -100019.18209      -230.969  
  22072024.617    22072027.770    -1835169.15701  -1323685.93301     -4147.250  
  20161024.750    20161026.004     -884983.17206   -601007.40303     -1942.516  
  24672820.930    24672822.547     -333349.06009   -225993.00709      -674.844  
  22399362.352    22399364.426    -1995235.91701  -1428294.99609     -4506.813  
  22636402.227    22636404.512      739153.76309    529872.66409      1753.453  
 97  6 24 14 55 30.0000000  0  6G01G14G15G02G29G31
  22442942.461    22442944.922     -153217.54101   -100198.68209      -230.094  
  22071235.430    22071238.547    -1839315.91101  -1326917.17001     -4146.578  
  20160655.203    20160656.504     -886925.14106   -602520.62504     -1941.766  
  24672691.648    24672693.465     -334023.30409   -226518.38809      -674.000  
  22398504.602    22398506.594    -1999742.22401  -1431806.40409     -4506.125  
  22636735.898    22636738.207      740907.69509    531239.36209      1754.047  
 97  6 24 14 55 31.0000000  0  6G01G14G15G02G29G31
  22442898.797    22442901.234     -153447.88601   -100378.17209      -230.375  
  22070446.156    22070449.215    -1843462.85001  -1330148.55101     -4147.094  
  20160285.484    20160286.785     -888867.23506   -604033.94604     -1942.188  
  24672562.625    24672564.664     -334697.60609   -227043.81809      -674.375  
  22397647.250    22397649.266    -2004248.72201  -1435317.96409     -4506.625  
  22637069.586    22637071.777      742661.36909    532605.85909      1753.516  
 97  6 24 14 55 32.0000000  0  6G01G14G15G02G29G31
  22442854.836    22442857.297     -153677.76601   -100557.29909      -229.500  
  22069657.422    22069660.457    -1847609.54001  -1333379.73801     -4146.391  
  20159916.172    20159917.438     -890808.99906   -605547.01002     -1941.453  
  24672434.898    24672436.809     -335371.51309   -227568.93509      -673.563  
  22396789.719    22396791.711    -2008754.94301  -1438829.30409     -4505.938  
  22637403.445    22637405.496      744415.23209    533972.50209      1754.109  
 97  6 24 14 55 33.0000000  0  6G01G14G15G02G29G31
  22442811.445    22442813.848     -153907.13101   -100736.02509      -229.203  
  22068868.203    22068871.227    -1851755.92501  -1336610.68501     -4146.328  
  20159546.727    20159548.016     -892750.37706   -607059.77101     -1941.281  
  24672306.836    24672308.699     -336044.97809   -228093.71109      -673.328  
  22395932.031    22395934.070    -2013260.85109  -1442340.40209     -4505.828  
  22637737.141    22637739.262      746169.33509    535339.33309      1754.125  
 97  6 24 14 55 34.0000000  0  6G01G14G15G02G29G31
  22442767.773    22442770.223     -154136.11501   -100914.45409      -228.547  
  22068079.273    22068082.262    -1855902.10501  -1339841.47301     -4145.859  
  20159177.211    20159178.559     -894691.50306   -608572.33601     -1940.734  
  24672179.727    24672181.684     -336718.08509   -228618.20909      -672.703  
  22395074.609    22395076.578    -2017766.56509  -1445851.34809     -4505.375  
  22638070.914    22638073.023      747923.55609    536706.25709      1754.531  
 97  6 24 14 55 35.0000000  0  6G01G14G15G02G29G31
  22442724.289    22442726.633     -154364.00201   -101092.02909      -227.672  
  22067290.273    22067293.273    -1860047.40501  -1343071.57601     -4145.172  
  20158807.977    20158809.324     -896631.65106   -610084.13902     -1940.000  
  24672051.828    24672054.219     -337390.16109   -229141.90709      -671.875  
  22394217.320    22394219.301    -2022271.36709  -1449361.58409     -4504.672  
  22638404.891    22638407.035      749678.59809    538073.82009      1755.125  
 97  6 24 14 55 36.0000000  0  6G01G14G15G02G29G31
  22442681.094    22442683.531     -154591.38001   -101269.20709      -227.359  
  22066501.688    22066504.711    -1864192.40101  -1346301.44201     -4145.078  
  20158438.914    20158440.227     -898571.42506   -611595.65203     -1939.828  
  24671923.594    24671926.348     -338061.78109   -229665.24909      -671.625  
  22393360.375    22393362.320    -2026775.86209  -1452871.58109     -4504.578  
  22638739.047    22638741.098      751433.86609    539441.56109      1755.141  
 97  6 24 14 55 37.0000000  0  6G01G14G15G02G29G31
  22442637.844    22442640.281     -154818.62501   -101446.28109      -226.844  
  22065712.898    22065716.027    -1868337.45801  -1349531.35701     -4144.797  
  20158069.836    20158071.160     -900511.19106   -613107.15804     -1939.438  
  24671795.164    24671798.152     -338733.31009   -230188.52009      -671.172  
  22392502.953    22392504.922    -2031280.40109  -1456381.61109     -4504.250  
  22639072.727    22639074.719      753189.00009    540809.19509      1755.375  
 97  6 24 14 55 38.0000000  0  6G01G14G15G02G29G31
  22442594.914    22442597.375     -155044.97601   -101622.65809      -226.094  
  22064923.820    22064926.879    -1872481.85701  -1352760.75901     -4144.234  
  20157700.836    20157702.207     -902450.21006   -614618.08404     -1938.828  
  24671667.867    24671670.551     -339404.01109   -230711.14509      -670.484  
  22391646.055    22391647.988    -2035784.24009  -1459891.09509     -4503.703  
  22639406.930    22639408.875      754944.74509    542177.30709      1755.828  
 97  6 24 14 55 39.0000000  0  6G01G14G15G02G29G31
  22442551.742    22442554.273     -155270.93401   -101798.73009      -225.719  
  22064135.430    22064138.488    -1876626.07801  -1355990.02101     -4144.078  
  20157331.922    20157333.293     -904388.96706   -616128.80205     -1938.594  
  24671540.516    24671543.270     -340074.38409   -231233.51009      -670.156  
  22390788.938    22390790.895    -2040287.90009  -1463400.44009     -4503.531  
  22639741.367    22639743.348      756700.58009    543545.48909      1755.938  
 97  6 24 14 55 40.0000000  0  6G01G14G15G02G29G31
  22442508.984    22442511.504     -155496.34601   -101974.37509      -225.188  
  22063346.914    22063349.938    -1880769.95601  -1359219.01501     -4143.766  
  20156962.930    20156964.277     -906327.31706   -617639.20504     -1938.188  
  24671412.977    24671415.930     -340744.27009   -231755.49309      -669.688  
  22389931.852    22389933.738    -2044791.21709  -1466909.51809     -4503.188  
  22640075.266    22640077.199      758456.66409    544913.86609      1756.156  
 97  6 24 14 55 41.0000000  0  6G01G14G15G02G29G31
  22442466.109    22442468.664     -155721.36201   -102149.71109      -224.563  
  22062558.500    22062561.477    -1884913.65701  -1362447.87309     -4143.344  
  20156594.148    20156595.484     -908265.39606   -619149.39501     -1937.688  
  24671285.375    24671288.574     -341413.80709   -232277.20909      -669.094  
  22389074.961    22389076.930    -2049294.33909  -1470418.44209     -4502.766  
  22640409.398    22640411.227      760212.85609    546282.32709      1756.484  
 97  6 24 14 55 42.0000000  0  6G01G14G15G02G29G31
  22442423.461    22442426.027     -155945.59801   -102324.43709      -224.125  
  22061769.930    22061772.848    -1889056.80701  -1365676.29909     -4143.141  
  20156225.523    20156226.824     -910202.82607   -620659.08001     -1937.391  
  24671157.883    24671160.637     -342082.63009   -232798.37609      -668.734  
  22388218.375    22388220.391    -2053796.88209  -1473926.91409     -4502.531  
  22640743.844    22640745.484      761969.52009    547651.15609      1756.641  
 97  6 24 14 55 43.0000000  0  6G01G14G15G02G29G31
  22442380.680    22442383.223     -156169.61301   -102498.99209      -223.906  
  22060981.484    22060984.402    -1893199.93701  -1368904.71009     -4143.141  
  20155856.930    20155858.242     -912140.16107   -622168.69001     -1937.297  
  24671030.922    24671035.141     -342751.25709   -233319.38809      -668.563  
  22387361.336    22387363.328    -2058299.39309  -1477435.36209     -4502.516  
  22641078.133    22641079.879      763726.12209    549019.93809      1756.563  
 97  6 24 14 55 44.0000000  0  6G01G14G15G02G29G31
  22442338.219    22442340.680     -156393.23801   -102673.24609      -223.359  
  22060193.211    22060196.117    -1897342.89201  -1372132.98609     -4142.781  
  20155488.266    20155489.566     -914077.23307   -623678.09801     -1936.859  
  24670903.305    24670907.816     -343419.53909   -233840.12609      -668.016  
  22386504.727    22386506.730    -2062801.72709  -1480943.67309     -4502.156  
  22641412.305    22641414.016      765482.85809    550388.82309      1756.859  
 97  6 24 14 55 45.0000000  0  6G01G14G15G02G29G31
  22442295.805    22442298.301     -156616.21901   -102846.99709      -222.641  
  22059405.078    22059407.961    -1901485.43601  -1375360.94209     -4142.328  
  20155119.758    20155121.023     -916013.79307   -625187.10501     -1936.281  
  24670776.953    24670781.828     -344087.23409   -234360.40809      -667.359  
  22385648.156    22385650.254    -2067303.61809  -1484451.64009     -4501.656  
  22641746.938    22641748.824      767239.93509    551757.97209      1757.281  
 97  6 24 14 55 46.0000000  0  6G01G14G15G02G29G31
  22442253.633    22442256.152     -156838.71601   -103020.37309      -222.297  
  22058616.742    22058619.684    -1905627.71701  -1378588.69209     -4142.188  
  20154751.523    20154752.813     -917949.99507   -626695.83401     -1936.063  
  24670649.781    24670654.422     -344754.48109   -234880.34409      -667.078  
  22384791.414    22384793.582    -2071805.22009  -1487959.38009     -4501.500  
  22642081.398    22642083.285      768997.20009    553127.26909      1757.328  
 97  6 24 14 55 47.0000000  0  6G01G14G15G02G29G31
  22442211.375    22442213.883     -157060.60101   -103193.26909      -221.344  
  22057828.539    22057831.445    -1909769.61901  -1381816.14609     -4141.469  
  20154382.891    20154384.145     -919885.71306   -628204.18501     -1935.234  
  24670522.922    24670527.223     -345421.14809   -235399.82609      -666.156  
  22383935.008    22383937.164    -2076306.41409  -1491466.80109     -4500.734  
  22642415.938    22642417.766      770754.79309    554496.81809      1757.984  
 97  6 24 14 55 48.0000000  0  6G01G14G15G02G29G31
  22442169.156    22442171.688     -157281.32601   -103365.26009      -220.531  
  22057040.664    22057043.570    -1913910.59801  -1385042.88209     -4140.906  
  20154014.727    20154015.980     -921820.40205   -629711.73501     -1934.563  
  24670396.617    24670401.117     -346086.72509   -235918.45809      -665.406  
  22383078.586    22383080.754    -2080806.62809  -1494973.45909     -4500.141  
  22642750.320    22642752.102      772513.23209    555867.03109      1758.469  
 97  6 24 14 55 49.0000000  0  6G01G14G15G02G29G31
  22442127.289    22442129.773     -157501.76001   -103537.02709      -219.797  
  22056252.625    22056255.508    -1918051.51501  -1388269.56909     -4140.406  
  20153646.609    20153647.840     -923754.93805   -631219.16601     -1933.969  
  24670269.602    24670274.020     -346752.05109   -236436.90109      -664.719  
  22382222.430    22382224.703    -2085306.78209  -1498480.07109     -4499.625  
  22643085.031    22643086.824      774271.63609    557237.21409      1758.906  
 97  6 24 14 55 50.0000000  0  6G01G14G15G02G29G31
  22442085.563    22442088.059     -157721.35201   -103708.13909      -219.641  
  22055464.594    22055467.477    -1922191.82501  -1391495.78401     -4140.469  
  20153278.500    20153279.801     -925688.76305   -632726.04301     -1933.938  
  24670143.094    24670147.301     -347416.59309   -236954.73609      -664.625  
  22381366.086    22381368.512    -2089806.29209  -1501986.18109     -4499.656  
  22643419.695    22643421.605      776030.61209    558607.84209      1758.766  
 97  6 24 14 55 51.0000000  0  6G01G14G15G02G29G31
  22442043.766    22442046.203     -157940.76701   -103879.11509      -219.063  
  22054676.617    22054679.535    -1926332.20801  -1394722.05501     -4140.156  
  20152910.797    20152912.121     -927622.54405   -634232.88602     -1933.500  
  24670016.734    24670020.707     -348081.02009   -237472.47809      -664.125  
  22380509.797    22380512.328    -2094305.83609  -1505492.31909     -4499.281  
  22643754.547    22643756.645      777789.45609    559978.36809      1759.031  
 97  6 24 14 55 52.0000000  0  6G01G14G15G02G29G31
  22442002.289    22442004.715     -158159.47001   -104049.53409      -218.266  
  22053888.898    22053891.934    -1930472.11701  -1397947.95801     -4139.609  
  20152542.617    20152543.883     -929555.76704   -635739.29303     -1932.844  
  24669890.148    24669893.770     -348744.80509   -237989.72009      -663.359  
  22379653.828    22379656.406    -2098804.88309  -1508998.07009     -4498.719  
  22644089.078    22644091.176      779548.67009    561349.18109      1759.500  
 97  6 24 14 55 53.0000000  0  6G01G14G15G02G29G31
  22441960.688    22441963.125     -158377.16301   -104219.16609      -217.484  
  22053101.273    22053104.344    -1934611.27501  -1401173.27601     -4139.078  
  20152174.992    20152176.293     -931488.11504   -637245.01904     -1932.219  
  24669763.594    24669766.852     -349407.63609   -238506.21409      -662.656  
  22378797.695    22378800.473    -2103303.12609  -1512503.19209     -4498.141  
  22644424.086    22644426.055      781308.58309    562720.54109      1759.953  
 97  6 24 14 55 54.0000000  0  6G01G14G15G02G29G31
  22441919.430    22441921.844     -158594.52901   -104388.54309      -216.875  
  22052313.461    22052316.531    -1938750.35701  -1404398.53301     -4138.719  
  20151807.219    20151808.473     -933420.28004   -638750.60204     -1931.750  
  24669638.117    24669641.352     -350070.21609   -239022.50809      -662.094  
  22377941.570    22377944.406    -2107801.23809  -1516008.21209     -4497.719  
  22644759.188    22644761.109      783068.51109    564091.91409      1760.266  
 97  6 24 14 55 55.0000000  0  6G01G14G15G02G29G31
  22441878.148    22441880.469     -158810.89901   -104557.14309      -216.297  
  22051526.211    22051529.176    -1942888.67401  -1407623.19501     -4138.375  
  20151439.867    20151441.098     -935351.60004   -640255.52604     -1931.313  
  24669512.281    24669515.152     -350731.82509   -239538.04609      -661.578  
  22377085.945    22377088.793    -2112298.56509  -1519512.62109     -4497.375  
  22645093.883    22645095.781      784829.13709    565463.83109      1760.547  
 97  6 24 14 55 56.0000000  0  6G01G14G15G02G29G31
  22441837.141    22441839.531     -159027.12301   -104725.63109      -216.281  
  22050738.492    22050741.492    -1947027.08701  -1410847.93201     -4138.578  
  20151072.289    20151073.496     -937282.90705   -641760.44203     -1931.438  
  24669386.180    24669389.426     -351393.35109   -240053.51409      -661.578  
  22376229.898    22376232.699    -2116795.96809  -1523017.09009     -4497.563  
  22645428.898    22645430.656      786589.59309    566835.61709      1760.234  
 97  6 24 14 55 57.0000000  0  6G01G14G15G02G29G31
  22441796.023    22441798.344     -159243.35401   -104894.12409      -215.828  
  22049950.898    22049953.840    -1951165.74601  -1414072.86101     -4138.359  
  20150704.859    20150706.020     -939214.36104   -643265.47104     -1931.125  
  24669260.219    24669262.797     -352054.92109   -240569.01609      -661.203  
  22375374.141    22375376.953    -2121293.57809  -1526521.72009     -4497.297  
  22645764.070    22645765.875      788349.73709    568207.15609      1760.406  
 97  6 24 14 55 58.0000000  0  6G01G14G15G02G29G31
  22441754.781    22441757.066     -159458.76901   -105061.98109      -215.484  
  22049163.570    22049166.535    -1955303.81601  -1417297.33001     -4138.250  
  20150337.359    20150338.508     -941145.14105   -644769.97504     -1930.906  
  24669135.102    24669137.539     -352715.73109   -241083.93109      -660.906  
  22374518.500    22374521.266    -2125790.59109  -1530025.88409     -4497.172  
  22646098.906    22646100.605      790110.40409    569579.10109      1760.438  
 97  6 24 14 55 59.0000000  0  6G01G14G15G02G29G31
  22441713.797    22441716.059     -159674.12801   -105229.79109      -214.969  
  22048376.031    22048378.973    -1959442.05301  -1420521.93101     -4137.969  
  20149969.891    20149971.039     -943075.99404   -646274.53604     -1930.547  
  24669008.844    24669011.328     -353376.53709   -241598.84609      -660.422  
  22373662.594    22373665.242    -2130287.74209  -1533530.15709     -4496.875  
  22646434.180    22646435.961      791870.81709    570950.85109      1760.641  
 97  6 24 14 56  0.0000000  0  6G01G14G15G02G29G31
  22441673.000    22441675.215     -159888.78001   -105397.05509      -214.250  
  22047588.742    22047591.707    -1963579.82301  -1423746.16601     -4137.484  
  20149602.531    20149603.609     -945006.28804   -647778.66305     -1929.953  
  24668883.109    24668885.559     -354036.67709   -242113.24009      -659.781  
  22372806.813    22372809.555    -2134784.41609  -1537034.05609     -4496.359  
  22646768.820    22646770.531      793631.63109    572322.91409      1761.063  
 97  6 24 14 56  1.0000000  0  6G01G14G15G02G29G31
  22441632.313    22441634.574     -160102.87401   -105563.88009      -213.875  
  22046801.578    22046804.531    -1967717.25601  -1426970.14101     -4137.344  
  20149235.297    20149236.387     -946936.15904   -649282.45905     -1929.734  
  24668757.898    24668759.727     -354696.30109   -242627.23809      -659.438  
  22371951.172    22371953.844    -2139280.73109  -1540537.67909     -4496.203  
  22647104.414    22647106.066      795392.70309    573695.17909      1761.156  
 97  6 24 14 56  2.0000000  0  6G01G14G15G02G29G31
  22441591.680    22441593.918     -160316.50301   -105730.34509      -213.375  
  22046014.242    22046017.172    -1971854.46201  -1430193.93601     -4137.047  
  20148868.172    20148869.250     -948865.70904   -650786.00405     -1929.359  
  24668632.273    24668633.879     -355355.51109   -243140.91409      -658.984  
  22371095.414    22371097.992    -2143776.80609  -1544041.11309     -4495.922  
  22647439.469    22647441.250      797153.95209    575067.57909      1761.328  
 97  6 24 14 56  3.0000000  0  6G01G14G15G02G29G31
  22441551.242    22441553.516     -160529.47301   -105896.29609      -212.672  
  22045226.953    22045229.824    -1975991.23801  -1433417.39701     -4136.578  
  20148501.086    20148502.258     -950794.73004   -652289.13805     -1928.797  
  24668507.320    24668508.984     -356014.12809   -243654.12509      -658.344  
  22370239.867    22370242.480    -2148272.44309  -1547544.20509     -4495.453  
  22647774.547    22647776.375      798915.55309    576440.25409      1761.750  
 97  6 24 14 56  4.0000000  0  6G01G14G15G02G29G31
  22441510.680    22441512.988     -160741.81201   -106061.75609      -211.688  
  22044440.023    22044442.988    -1980127.59401  -1436640.53101     -4135.828  
  20148134.125    20148135.309     -952723.25804   -653791.88705     -1927.953  
  24668381.898    24668383.375     -356672.14109   -244166.86109      -657.406  
  22369384.547    22369387.160    -2152767.66209  -1551046.97209     -4494.672  
  22648109.805    22648111.645      800677.47609    577813.17909      1762.422  
 97  6 24 14 56  5.0000000  0  6G01G14G15G02G29G31
  22441470.461    22441472.840     -160953.06401   -106226.37109      -210.984  
  22043652.703    22043655.727    -1984263.10401  -1439863.00501     -4135.344  
  20147767.164    20147768.348     -954650.84204   -655293.90106     -1927.375  
  24668256.977    24668258.770     -357329.12909   -244678.79609      -656.719  
  22368529.523    22368532.160    -2157261.98709  -1554549.04309     -4494.141  
  22648445.398    22648447.250      802440.18109    579186.71609      1762.828  
 97  6 24 14 56  6.0000000  0  6G01G14G15G02G29G31
  22441430.453    22441432.809     -161163.69801   -106390.50409      -210.344  
  22042865.984    22042869.043    -1988398.21501  -1443085.16701     -4134.953  
  20147400.461    20147401.680     -956577.94205   -656795.53706     -1926.891  
  24668131.852    24668133.527     -357985.54109   -245190.28109      -656.141  
  22367674.594    22367677.195    -2161755.89609  -1558050.78809     -4493.734  
  22648780.789    22648782.559      804203.20809    580560.50209      1763.125  
 97  6 24 14 56  7.0000000  0  6G01G14G15G02G29G31
  22441390.516    22441392.824     -161373.88501   -106554.28609      -209.813  
  22042079.055    22042082.113    -1992533.11601  -1446307.16601     -4134.641  
  20147033.914    20147035.133     -958504.73005   -658296.93006     -1926.484  
  24668007.375    24668009.625     -358641.53109   -245701.44309      -655.656  
  22366819.492    22366822.070    -2166249.56609  -1561552.34509     -4493.406  
  22649116.258    22649118.027      805966.34909    581934.37809      1763.375  
 97  6 24 14 56  8.0000000  0  6G01G14G15G02G29G31
  22441350.469    22441352.883     -161583.47901   -106717.60709      -209.484  
  22041292.203    22041295.180    -1996667.65601  -1449528.88601     -4134.516  
  20146667.523    20146668.777     -960431.06105   -659797.96706     -1926.281  
  24667882.719    24667885.895     -359296.99009   -246212.19809      -655.344  
  22365964.328    22365966.789    -2170742.86009  -1565053.61109     -4493.297  
  22649451.813    22649453.477      807729.77509    583308.47609      1763.375  
 97  6 24 14 56  9.0000000  0  6G01G14G15G02G29G31
  22441310.680    22441312.988     -161792.82601   -106880.73509      -208.781  
  22040505.414    22040508.332    -2000802.16501  -1452750.57901     -4134.047  
  20146300.930    20146302.137     -962357.27505   -661298.91305     -1925.703  
  24667757.805    24667760.992     -359952.23709   -246722.79009      -654.672  
  22365109.430    22365112.020    -2175236.10701  -1568554.84209     -4492.766  
  22649787.438    22649789.219      809493.15409    584682.53509      1763.813  
 97  6 24 14 56 10.0000000  0  6G01G14G15G02G29G31
  22441271.055    22441273.445     -162001.36401   -107043.23409      -208.578  
  22039718.805    22039721.652    -2004936.07701  -1455971.81101     -4134.078  
  20145934.461    20145935.738     -964282.80406   -662799.32506     -1925.641  
  24667632.680    24667635.879     -360606.69909   -247232.76309      -654.516  
  22364254.492    22364257.023    -2179728.74001  -1572055.59209     -4492.781  
  22650123.203    22650124.902      811257.05209    586056.99909      1763.703  
 97  6 24 14 56 11.0000000  0  6G01G14G15G02G29G31
  22441231.492    22441233.895     -162209.71801   -107205.58809      -208.250  
  22038932.180    22038935.063    -2009070.04301  -1459193.08101     -4133.984  
  20145568.203    20145569.480     -966208.28206   -664299.69705     -1925.453  
  24667508.773    24667511.094     -361261.03909   -247742.63909      -654.266  
  22363399.570    22363402.043    -2184221.40101  -1575556.36409     -4492.688  
  22650458.555    22650460.172      813020.82709    587431.37109      1763.719  
 97  6 24 14 56 12.0000000  0  6G01G14G15G02G29G31
  22441191.906    22441194.379     -162417.69001   -107367.64509      -207.578  
  22038145.469    22038148.281    -2013203.85601  -1462414.23301     -4133.547  
  20145201.617    20145202.883     -968133.51006   -665799.87403     -1924.906  
  24667384.383    24667386.703     -361915.03909   -248252.25109      -653.656  
  22362544.586    22362547.070    -2188713.89401  -1579057.00709     -4492.219  
  22650794.156    22650795.727      814784.69509    588805.81209      1764.109  
 97  6 24 14 56 13.0000000  0  6G01G14G15G02G29G31
  22441152.344    22441154.699     -162624.79901   -107529.02809      -206.656  
  22037359.070    22037361.918    -2017337.04501  -1465634.89809     -4132.859  
  20144835.516    20144836.770     -970058.00606   -667299.48001     -1924.109  
  24667259.891    24667262.398     -362568.22909   -248761.22709      -652.781  
  22361689.813    22361692.168    -2193205.74001  -1582557.14409     -4491.484  
  22651130.016    22651131.598      816549.13509    590180.69809      1764.766  
 97  6 24 14 56 14.0000000  0  6G01G14G15G02G29G31
  22441113.102    22441115.398     -162831.16101   -107689.82809      -205.938  
  22036572.555    22036575.426    -2021469.72201  -1468855.16509     -4132.375  
  20144469.328    20144470.559     -971981.89006   -668798.60901     -1923.547  
  24667136.063    24667138.887     -363220.73909   -249269.67209      -652.109  
  22360834.945    22360837.254    -2197697.02101  -1586056.83909     -4490.984  
  22651465.828    22651467.422      818314.02209    591555.93509      1765.125  
 97  6 24 14 56 15.0000000  0  6G01G14G15G02G29G31
  22441074.039    22441076.371     -163036.78501   -107850.05609      -205.297  
  22035786.219    22035789.020    -2025601.91901  -1472075.05709     -4131.984  
  20144103.375    20144104.605     -973905.18407   -670297.28001     -1923.031  
  24667011.141    24667013.836     -363872.55609   -249777.57909      -651.516  
  22359980.492    22359982.801    -2202187.81701  -1589556.15809     -4490.578  
  22651801.703    22651803.215      820079.30409    592931.47809      1765.469  
 97  6 24 14 56 16.0000000  0  6G01G14G15G02G29G31
  22441034.922    22441037.219     -163242.04601   -108010.00109      -205.313  
  22035000.164    22035003.070    -2029733.99101  -1475294.85209     -4132.250  
  20143737.492    20143738.746     -975828.25107   -671795.77401     -1923.188  
  24666887.555    24666890.063     -364524.07909   -250285.26609      -651.609  
  22359126.141    22359128.484    -2206678.47201  -1593055.36809     -4490.813  
  22652137.680    22652139.016      821844.64609    594307.07009      1765.156  
 97  6 24 14 56 17.0000000  0  6G01G14G15G02G29G31
  22440995.969    22440998.324     -163446.89601   -108169.62609      -204.578  
  22034213.859    22034216.730    -2033865.89401  -1478514.51509     -4131.766  
  20143371.484    20143372.715     -977751.03207   -673294.04401     -1922.594  
  24666763.867    24666766.516     -365175.23809   -250792.67509      -650.922  
  22358271.375    22358273.730    -2211168.92301  -1596554.42109     -4490.297  
  22652473.656    22652474.992      823610.13009    595682.77409      1765.578  
 97  6 24 14 56 18.0000000  0  6G01G14G15G02G29G31
  22440957.125    22440959.398     -163651.15301   -108328.78609      -203.641  
  22033427.555    22033430.461    -2037997.45801  -1481733.91409     -4131.063  
  20143005.805    20143007.012     -979673.36407   -674791.96501     -1921.781  
  24666640.070    24666642.496     -365825.87709   -251299.66209      -650.047  
  22357417.031    22357419.328    -2215658.98201  -1600053.16909     -4489.547  
  22652809.453    22652810.859      825375.88609    597058.68709      1766.234  
 97  6 24 14 56 19.0000000  0  6G01G14G15G02G29G31
  22440918.617    22440920.973     -163854.30601   -108487.08809      -202.953  
  22032641.430    22032644.371    -2042128.14501  -1484952.63009     -4130.609  
  20142640.195    20142641.402     -981594.71307   -676289.12102     -1921.219  
  24666516.273    24666518.652     -366475.44609   -251805.81609      -649.406  
  22356562.742    22356564.980    -2220148.14401  -1603551.21709     -4489.063  
  22653145.883    22653147.371      827142.47509    598435.24909      1766.641  
 97  6 24 14 56 20.0000000  0  6G01G14G15G02G29G31
  22440879.789    22440882.074     -164057.11001   -108645.11709      -202.891  
  22031855.445    22031858.445    -2046258.72601  -1488171.26501     -4130.766  
  20142274.617    20142275.813     -983515.84407   -677786.10703     -1921.281  
  24666392.992    24666394.984     -367124.72509   -252311.74909      -649.391  
  22355708.578    22355710.840    -2224637.16901  -1607049.15909     -4489.203  
  22653482.289    22653483.719      828909.12509    599811.85709      1766.406  
 97  6 24 14 56 21.0000000  0  6G01G14G15G02G29G31
  22440841.313    22440843.539     -164259.83801   -108803.08709      -202.219  
  22031069.430    22031072.418    -2050389.47401  -1491390.02809     -4130.344  
  20141909.016    20141910.176     -985437.03807   -679283.14302     -1920.734  
  24666269.422    24666271.625     -367773.99909   -252817.68009      -648.797  
  22354854.242    22354856.363    -2229126.32501  -1610547.20309     -4488.750  
  22653818.117    22653819.582      830675.53409    601188.27809      1766.781  
 97  6 24 14 56 22.0000000  0  6G01G14G15G02G29G31
  22440802.805    22440805.043     -164461.80401   -108960.46209      -201.609  
  22030283.453    22030286.453    -2054519.68101  -1494608.37009     -4129.984  
  20141543.461    20141544.586     -987357.59307   -680779.68001     -1920.266  
  24666145.766    24666148.086     -368422.56209   -253323.05609      -648.234  
  22354000.063    22354002.219    -2233614.92401  -1614044.81209     -4488.328  
  22654154.516    22654156.051      832442.42209    602565.07309      1767.094  
 97  6 24 14 56 23.0000000  0  6G01G14G15G02G29G31
  22440764.391    22440766.594     -164662.94901   -109117.19609      -200.750  
  22029497.609    22029500.598    -2058649.30901  -1497826.26009     -4129.344  
  20141178.258    20141179.383     -989277.46107   -682275.68101     -1919.531  
  24666022.297    24666024.582     -369070.37409   -253827.84709      -647.438  
  22353146.227    22353148.348    -2238102.88701  -1617541.92709     -4487.672  
  22654490.648    22654492.254      834209.83709    603942.28009      1767.672  
 97  6 24 14 56 24.0000000  0  6G01G14G15G02G29G31
  22440726.578    22440728.875     -164863.63701   -109273.57609      -200.484  
  22028711.883    22028714.789    -2062778.71701  -1501043.97909     -4129.313  
  20140812.938    20140814.121     -991197.00007   -683771.42601     -1919.391  
  24665898.688    24665901.371     -369717.80609   -254332.34109      -647.250  
  22352292.031    22352294.047    -2242590.60601  -1621038.85109     -4487.609  
  22654827.180    22654828.680      835977.43309    605319.62809      1767.656  
 97  6 24 14 56 25.0000000  0  6G01G14G15G02G29G31
  22440688.375    22440690.660     -165063.80701   -109429.55209      -199.828  
  22027926.242    22027929.160    -2066907.82301  -1504261.46409     -4128.891  
  20140447.844    20140448.992     -993116.13807   -685266.85801     -1918.859  
  24665776.156    24665778.594     -370364.74009   -254836.44909      -646.641  
  22351437.938    22351440.023    -2247077.98709  -1624535.51209     -4487.141  
  22655163.328    22655164.746      837745.27109    606697.16309      1768.047  
 97  6 24 14 56 26.0000000  0  6G01G14G15G02G29G31
  22440650.227    22440652.453     -165263.32001   -109585.01709      -199.391  
  22027140.258    22027143.117    -2071036.49801  -1507478.61209     -4128.672  
  20140082.711    20140083.871     -995034.73706   -686761.87002     -1918.531  
  24665653.727    24665656.457     -371011.08109   -255340.09409      -646.234  
  22350584.133    22350586.289    -2251564.88909  -1628031.80009     -4486.875  
  22655500.008    22655501.367      839513.47809    608074.98509      1768.172  
 97  6 24 14 56 27.0000000  0  6G01G14G15G02G29G31
  22440612.422    22440614.648     -165462.60801   -109740.30609      -199.109  
  22026354.609    22026357.527    -2075165.18601  -1510695.77109     -4128.625  
  20139717.508    20139718.586     -996953.24006   -688256.80801     -1918.391  
  24665530.430    24665532.844     -371657.25009   -255843.60309      -646.031  
  22349730.445    22349732.531    -2256051.78309  -1631528.08109     -4486.844  
  22655836.305    22655837.723      841281.62509    609452.76109      1768.172  
 97  6 24 14 56 28.0000000  0  6G01G14G15G02G29G31
  22440574.492    22440576.742     -165661.40301   -109895.21009      -198.172  
  22025569.008    22025571.914    -2079293.59901  -1513912.71409     -4127.906  
  20139352.492    20139353.570     -998871.36607   -689751.45302     -1917.563  
  24665407.633    24665410.117     -372302.98109   -256346.76909      -645.125  
  22348876.516    22348878.637    -2260538.37509  -1635024.12709     -4486.063  
  22656172.828    22656174.070      843049.99009    610830.70709      1768.859  
 97  6 24 14 56 29.0000000  0  6G01G14G15G02G29G31
  22440536.969    22440539.160     -165859.17801   -110049.32009      -197.328  
  22024783.484    22024786.438    -2083421.22201  -1517129.04409     -4127.281  
  20138987.719    20138988.785    -1000788.58906   -691245.39302     -1916.844  
  24665284.508    24665287.379     -372947.73709   -256849.17209      -644.344  
  22348023.125    22348025.305    -2265024.12809  -1638519.51809     -4485.391  
  22656509.414    22656510.563      844819.10809    612209.24009      1769.422  
 97  6 24 14 56 30.0000000  0  6G01G14G15G02G29G31
  22440499.383    22440501.574     -166056.26401   -110202.89309      -196.859  
  22023998.375    22024001.188    -2087548.38401  -1520345.01409     -4127.047  
  20138622.969    20138624.047    -1002705.24407   -692738.89102     -1916.484  
  24665162.797    24665165.223     -373591.85809   -257351.08509      -643.922  
  22347169.734    22347171.961    -2269509.37209  -1642014.51309     -4485.109  
  22656846.313    22656847.391      846588.62309    613588.08309      1769.609  
 97  6 24 14 56 31.0000000  0  6G01G14G15G02G29G31
  22440461.906    22440464.016     -166252.61701   -110355.89509      -195.844  
  22023212.883    22023215.730    -2091675.04201  -1523560.59209     -4126.281  
  20138258.289    20138259.344    -1004621.28807   -694231.91303     -1915.609  
  24665039.563    24665042.199     -374235.31509   -257852.48409      -643.000  
  22346316.133    22346318.383    -2273994.07109  -1645509.08309     -4484.313  
  22657183.156    22657184.305      848358.57609    614967.26609      1770.313  
 97  6 24 14 56 32.0000000  0  6G01G14G15G02G29G31
  22440424.766    22440426.758     -166448.14101   -110508.25309      -195.172  
  22022427.914    22022430.773    -2095801.11401  -1526775.71309     -4125.813  
  20137893.805    20137894.930    -1006536.63107   -695724.38802     -1915.031  
  24664916.898    24664919.535     -374877.99609   -258353.27509      -642.328  
  22345462.813    22345464.934    -2278478.15409  -1649003.17309     -4483.813  
  22657520.047    22657521.289      850129.09309    616346.88909      1770.750  
 97  6 24 14 56 33.0000000  0  6G01G14G15G02G29G31
  22440387.914    22440389.836     -166642.86701   -110659.98809      -194.484  
  22021642.805    22021645.699    -2099926.60701  -1529990.38209     -4125.359  
  20137529.328    20137530.453    -1008451.28407   -697216.32603     -1914.469  
  24664795.094    24664797.578     -375519.93109   -258853.48209      -641.719  
  22344609.609    22344611.754    -2282961.63509  -1652496.79309     -4483.344  
  22657857.281    22657858.500      851900.13309    617726.91909      1771.156  
 97  6 24 14 56 34.0000000  0  6G01G14G15G02G29G31
  22440350.758    22440352.762     -166837.14001   -110811.37009      -193.938  
  22020857.844    22020860.727    -2104051.87901  -1533204.87909     -4125.078  
  20137165.227    20137166.398    -1010365.60506   -698708.00304     -1914.063  
  24664673.258    24664675.180     -376161.47609   -259353.38209      -641.266  
  22343756.359    22343758.574    -2287444.86109  -1655990.21409     -4483.000  
  22658194.430    22658195.496      853671.36509    619107.09909      1771.406  
 97  6 24 14 56 35.0000000  0  6G01G14G15G02G29G31
  22440314.070    22440316.133     -167030.89801   -110962.35109      -193.563  
  22020072.992    22020075.758    -2108176.87301  -1536419.16209     -4124.906  
  20136800.891    20136802.063    -1012279.52206   -700199.36905     -1913.781  
  24664551.234    24664552.641     -376802.56609   -259852.93509      -640.906  
  22342903.531    22342905.805    -2291927.77209  -1659483.39009     -4482.813  
  22658531.266    22658532.520      855442.82609    620487.45909      1771.531  
 97  6 24 14 56 36.0000000  0  6G01G14G15G02G29G31
  22440277.094    22440279.180     -167224.55001   -111113.24909      -193.484  
  22019287.781    22019290.512    -2112301.99801  -1539633.54509     -4125.078  
  20136436.672    20136437.809    -1014193.46306   -701690.75305     -1913.828  
  24664429.031    24664430.121     -377443.61109   -260352.45809      -640.922  
  22342050.352    22342052.613    -2296410.78509  -1662976.64409     -4482.922  
  22658868.234    22658869.453      857214.13009    621867.69609      1771.344  
 97  6 24 14 56 37.0000000  0  6G01G14G15G02G29G31
  22440240.313    22440242.305     -167417.65801   -111263.72309      -192.672  
  22018502.977    22018505.648    -2116426.79301  -1542847.67109     -4124.484  
  20136072.516    20136073.629    -1016106.95706   -703181.78602     -1913.125  
  24664307.375    24664309.004     -378084.16409   -260851.59609      -640.156  
  22341197.313    22341199.609    -2300893.38709  -1666469.58009     -4482.297  
  22659205.547    22659206.801      858985.73009    623248.16109      1771.875  
 97  6 24 14 56 38.0000000  0  6G01G14G15G02G29G31
  22440203.688    22440205.797     -167609.88001   -111413.50609      -192.063  
  22017718.078    22017720.809    -2120550.95601  -1546061.30309     -4124.109  
  20135708.688    20135709.766    -1018019.69006   -704672.22802     -1912.625  
  24664186.031    24664187.719     -378723.90309   -261350.09509      -639.609  
  22340344.578    22340346.852    -2305375.32009  -1669961.99309     -4481.859  
  22659542.547    22659543.684      860757.90809    624629.07809      1772.219  
 97  6 24 14 56 39.0000000  0  6G01G14G15G02G29G31
  22440167.203    22440169.172     -167801.40801   -111562.75009      -190.813  
  22016933.281    22016935.988    -2124674.66401  -1549274.58009     -4123.109  
  20135344.594    20135345.684    -1019931.84905   -706162.22101     -1911.516  
  24664063.891    24664065.414     -379363.01309   -261848.10309      -638.422  
  22339491.773    22339494.070    -2309856.76109  -1673454.02309     -4480.828  
  22659880.023    22659881.230      862530.53109    626010.34409      1773.203  
 97  6 24 14 56 40.0000000  0  6G01G14G15G02G29G31
  22440131.063    22440133.055     -167991.90701   -111711.19209      -190.438  
  22016148.688    22016151.383    -2128797.58401  -1552487.24209     -4122.984  
  20134981.148    20134982.273    -1021843.09205   -707651.50001     -1911.250  
  24663942.820    24663944.789     -380001.16509   -262345.36209      -638.141  
  22338639.039    22338641.289    -2314337.35109  -1676945.38909     -4480.609  
  22660217.711    22660219.059      864303.92909    627392.21409      1773.313  
 97  6 24 14 56 41.0000000  0  6G01G14G15G02G29G31
  22440094.891    22440096.918     -168182.49201   -111859.69809      -190.375  
  22015364.375    22015367.035    -2132920.81601  -1555700.14909     -4123.141  
  20134617.305    20134618.465    -1023754.53205   -709140.93401     -1911.281  
  24663821.508    24663823.547     -380639.45809   -262842.73009      -638.125  
  22337786.414    22337788.688    -2318818.20609  -1680436.96209     -4480.734  
  22660554.836    22660556.125      866076.98609    628773.81409      1773.156  
 97  6 24 14 56 42.0000000  0  6G01G14G15G02G29G31
  22440058.742    22440060.734     -168372.86501   -112008.04009      -190.313  
  22014579.563    22014582.246    -2137044.07601  -1558913.08009     -4123.297  
  20134253.773    20134254.910    -1025665.88205   -710630.29801     -1911.328  
  24663699.578    24663701.723     -381277.62609   -263340.00809      -638.109  
  22336933.656    22336935.965    -2323299.03309  -1683928.51409     -4480.859  
  22660892.383    22660893.836      867849.98909    630155.37409      1772.953  
 97  6 24 14 56 43.0000000  0  6G01G14G15G02G29G31
  22440022.484    22440024.441     -168562.79001   -112156.03409      -189.516  
  22013795.086    22013797.711    -2141167.09801  -1562125.82309     -4122.750  
  20133890.031    20133891.133    -1027576.87105   -712119.38001     -1910.656  
  24663578.188    24663581.094     -381915.36509   -263836.95409      -637.391  
  22336081.188    22336083.461    -2327779.59001  -1687419.85609     -4480.266  
  22661229.523    22661231.059      869623.21409    631537.10809      1773.484  
 97  6 24 14 56 44.0000000  0  6G01G14G15G02G29G31
  22439986.688    22439988.680     -168751.50301   -112303.08309      -188.219  
  22013010.563    22013013.223    -2145289.14701  -1565337.80709     -4121.656  
  20133526.484    20133527.586    -1029486.76305   -713607.60701     -1909.438  
  24663456.984    24663459.984     -382551.95309   -264332.99909      -636.109  
  22335228.469    22335230.754    -2332259.12101  -1690910.39809     -4479.109  
  22661567.352    22661568.781      871397.38209    632919.57309      1774.547  
 97  6 24 14 56 45.0000000  0  6G01G14G15G02G29G31
  22439950.578    22439952.500     -168939.72301   -112449.74609      -188.047  
  22012226.078    22012228.715    -2149410.94001  -1568549.59209     -4121.734  
  20133163.188    20133164.266    -1031396.27705   -715095.54101     -1909.391  
  24663336.227    24663338.992     -383188.11309   -264828.70909      -636.016  
  22334376.180    22334378.465    -2336738.35001  -1694400.70509     -4479.125  
  22661904.930    22661906.359      873171.77409    634302.21109      1774.438  
 97  6 24 14 56 46.0000000  0  6G01G14G15G02G29G31
  22439914.984    22439916.836     -169127.58101   -112596.12709      -187.578  
  22011441.797    22011444.445    -2153532.57801  -1571761.25709     -4121.484  
  20132799.977    20132801.043    -1033305.51005   -716583.25401     -1909.016  
  24663215.391    24663218.438     -383823.93309   -265324.15509      -635.563  
  22333524.008    22333526.234    -2341217.36009  -1697890.84109     -4478.828  
  22662242.680    22662244.063      874946.28809    635684.94609      1774.656  
 97  6 24 14 56 47.0000000  0  6G01G14G15G02G29G31
  22439879.344    22439881.160     -169314.82401   -112742.03109      -186.922  
  22010657.500    22010660.137    -2157653.82901  -1574972.62209     -4121.016  
  20132436.742    20132437.879    -1035214.23705   -718070.57501     -1908.438  
  24663094.445    24663097.094     -384459.20209   -265819.17209      -634.953  
  22332671.539    22332673.754    -2345695.93609  -1701380.64009     -4478.328  
  22662580.617    22662582.234      876721.17309    637067.97009      1775.078  
 97  6 24 14 56 48.0000000  0  6G01G14G15G02G29G31
  22439843.555    22439845.535     -169501.57901   -112887.55509      -186.141  
  22009873.320    22009875.945    -2161774.81201  -1578183.77709     -4120.484  
  20132073.430    20132074.566    -1037122.57405   -719557.59101     -1907.766  
  24662973.484    24662975.852     -385094.01309   -266313.83209      -634.219  
  22331819.508    22331821.734    -2350174.19201  -1704870.18909     -4477.703  
  22662918.367    22662919.879      878496.27509    638451.16409      1775.578  
 97  6 24 14 56 49.0000000  0  6G01G14G15G02G29G31
  22439808.352    22439810.238     -169687.00301   -113032.04309      -184.750  
  22009089.234    22009091.813    -2165894.70301  -1581394.08109     -4119.344  
  20131710.531    20131711.668    -1039029.68405   -721043.65103     -1906.500  
  24662853.430    24662855.586     -385727.55109   -266807.50009      -632.906  
  22330967.383    22330969.703    -2354651.27801  -1708358.82709     -4476.531  
  22663256.117    22663257.570      880272.44909    639835.19409      1776.719  
 97  6 24 14 56 50.0000000  0  6G01G14G15G02G29G31
  22439773.250    22439775.137     -169872.13901   -113176.30709      -185.141  
  22008305.414    22008308.086    -2170014.54901  -1584604.35109     -4119.969  
  20131347.797    20131348.934    -1040936.62405   -722529.58003     -1906.984  
  24662733.094    24662735.039     -386360.86109   -267300.98709      -633.313  
  22330115.547    22330117.867    -2359128.28901  -1711847.40609     -4477.094  
  22663594.133    22663595.738      882048.63909    641219.23909      1776.063  
 97  6 24 14 56 51.0000000  0  6G01G14G15G02G29G31
  22439738.117    22439740.051     -170056.66101   -113320.09209      -184.453  
  22007521.563    22007524.246    -2174134.01801  -1587814.32509     -4119.516  
  20130984.961    20130986.074    -1042843.05506   -724015.11104     -1906.422  
  24662612.289    24662614.445     -386993.60409   -267794.03509      -632.688  
  22329263.398    22329265.695    -2363604.86609  -1715335.64609     -4476.594  
  22663932.266    22663933.895      883825.18409    642603.56109      1776.484  
 97  6 24 14 56 52.0000000  0  6G01G14G15G02G29G31
  22439703.039    22439705.043     -170240.99801   -113463.73009      -184.203  
  22006737.547    22006740.172    -2178253.53001  -1591024.33309     -4119.516  
  20130622.289    20130623.426    -1044749.39706   -725500.57002     -1906.266  
  24662491.859    24662493.711     -387626.17209   -268286.94109      -632.469  
  22328411.773    22328414.094    -2368081.43309  -1718823.87909     -4476.547  
  22664270.508    22664272.242      885601.67309    643987.83609      1776.469  
 97  6 24 14 56 53.0000000  0  6G01G14G15G02G29G31
  22439667.938    22439669.988     -170424.91401   -113607.04109      -183.391  
  22005953.773    22005956.387    -2182372.87701  -1594234.21009     -4118.938  
  20130259.602    20130260.820    -1046655.43306   -726985.79401     -1905.547  
  24662371.797    24662374.246     -388258.37009   -268779.56309      -631.672  
  22327559.867    22327562.211    -2372557.75909  -1722311.92409     -4475.875  
  22664608.695    22664610.383      887378.30109    645372.22109      1777.031  
 97  6 24 14 56 54.0000000  0  6G01G14G15G02G29G31
  22439633.273    22439635.383     -170607.77701   -113749.53209      -182.344  
  22005170.148    22005172.762    -2186491.41301  -1597443.45509     -4118.156  
  20129897.094    20129898.301    -1048560.51506   -728470.27401     -1904.625  
  24662251.531    24662254.098     -388889.55209   -269271.39309      -630.688  
  22326708.555    22326710.957    -2377033.20009  -1725799.27909     -4475.031  
  22664946.906    22664948.723      889155.70909    646757.21409      1777.797  
 97  6 24 14 56 55.0000000  0  6G01G14G15G02G29G31
  22439598.641    22439600.773     -170789.90401   -113891.44609      -181.781  
  22004386.438    22004389.109    -2190609.46101  -1600652.32309     -4117.828  
  20129534.664    20129535.883    -1050464.98106   -729954.27101     -1904.172  
  24662131.328    24662133.824     -389520.02809   -269762.67209      -630.172  
  22325856.945    22325859.359    -2381508.09709  -1729286.20909     -4474.641  
  22665285.039    22665287.160      890933.59509    648142.57909      1778.094  
 97  6 24 14 56 56.0000000  0  6G01G14G15G02G29G31
  22439563.875    22439566.066     -170971.40401   -114032.87509      -181.641  
  22003602.789    22003605.391    -2194727.12201  -1603860.88809     -4117.922  
  20129172.305    20129173.488    -1052368.93007   -731437.86801     -1904.141  
  24662011.625    24662013.875     -390149.93009   -270253.51209      -630.063  
  22325005.461    22325007.805    -2385982.55509  -1732772.79909     -4474.703  
  22665623.656    22665625.766      892711.85209    649528.23309      1777.984  
 97  6 24 14 56 57.0000000  0  6G01G14G15G02G29G31
  22439529.484    22439531.617     -171152.66601   -114174.11609      -180.969  
  22002819.313    22002821.891    -2198844.78901  -1607069.45809     -4117.500  
  20128809.891    20128811.016    -1054272.75706   -732921.36701     -1903.594  
  24661891.938    24661894.152     -390779.64609   -270744.20709      -629.453  
  22324153.875    22324156.219    -2390456.96709  -1736259.35109     -4474.219  
  22665961.742    22665963.758      894490.06709    650913.85609      1778.375  
 97  6 24 14 56 58.0000000  0  6G01G14G15G02G29G31
  22439494.992    22439497.160     -171333.70301   -114315.18509      -180.406  
  22002035.578    22002038.215    -2202962.46401  -1610278.03409     -4117.156  
  20128447.906    20128449.020    -1056176.46107   -734404.77201     -1903.125  
  24661771.961    24661775.781     -391409.15809   -271234.73309      -628.906  
  22323302.320    22323304.570    -2394931.34109  -1739745.87509     -4473.844  
  22666300.203    22666301.949      896268.26209    652299.46309      1778.703  
 97  6 24 14 56 59.0000000  0  6G01G14G15G02G29G31
  22439461.000    22439463.309     -171513.39801   -114455.20909      -179.281  
  22001252.195    22001254.809    -2207079.04001  -1613485.75509     -4116.281  
  20128085.727    20128086.887    -1058078.94007   -735887.22301     -1902.125  
  24661652.586    24661656.746     -392037.38909   -271724.26509      -627.813  
  22322451.297    22322453.582    -2399404.56809  -1743231.50409     -4472.922  
  22666638.875    22666640.832      898047.51309    653685.89409      1779.531  
 97  6 24 14 57  0.0000000  0  6G01G14G15G02G29G31
  22439426.859    22439429.133     -171692.34109   -114594.64609      -178.656  
  22000468.875    22000471.453    -2211195.10101  -1616693.07509     -4115.875  
  20127723.906    20127725.031    -1059980.78507   -737369.18001     -1901.594  
  24661533.727    24661537.465     -392664.90909   -272213.24309      -627.234  
  22321599.891    22321602.000    -2403877.24609  -1746716.70909     -4472.469  
  22666977.422    22666979.332      899827.24409    655072.69709      1779.906  
 97  6 24 14 57  1.0000000  0  6G01G14G15G02G29G31
  22439392.844    22439394.977     -171870.94709   -114733.82109      -178.266  
  21999685.688    21999688.184    -2215311.03801  -1619900.29809     -4115.703  
  20127362.070    20127363.184    -1061882.38606   -738850.94701     -1901.313  
  24661413.516    24661417.605     -393292.10209   -272701.95809      -626.875  
  22320748.875    22320750.996    -2408349.74509  -1750201.77209     -4472.266  
  22667316.070    22667317.910      901607.06409    656459.57109      1780.016  
 97  6 24 14 57  2.0000000  0  6G01G14G15G02G29G31
  22439359.000    22439361.098     -172048.78709   -114872.39709      -177.953  
  21998902.734    21998905.277    -2219426.45401  -1623107.11209     -4115.641  
  20127000.242    20127001.344    -1063783.33806   -740332.20701     -1901.125  
  24661294.758    24661297.676     -393918.57609   -273190.11109      -626.578  
  22319897.875    22319900.031    -2412821.67909  -1753686.39309     -4472.141  
  22667654.836    22667656.758      903387.37809    657846.83109      1780.063  
 97  6 24 14 57  3.0000000  0  6G01G14G15G02G29G31
  22439325.305    22439327.379     -172226.70809   -115011.03409      -177.531  
  21998119.398    21998121.988    -2223542.19101  -1626314.18009     -4115.469  
  20126638.461    20126639.621    -1065684.49006   -741813.62301     -1900.813  
  24661175.766    24661179.305     -394545.16609   -273678.36409      -626.219  
  22319046.859    22319049.016    -2417293.87309  -1757171.21609     -4471.906  
  22667993.555    22667995.383      905167.33609    659233.81109      1780.188  
 97  6 24 14 57  4.0000000  0  6G01G14G15G02G29G31
  22439291.320    22439293.465     -172404.32109   -115149.43509      -177.250  
  21997336.250    21997338.816    -2227657.85001  -1629521.18409     -4115.438  
  20126276.938    20126278.109    -1067585.44006   -743294.88201     -1900.656  
  24661056.227    24661059.391     -395171.47209   -274166.40009      -625.984  
  22318196.016    22318198.230    -2421765.94709  -1760655.94809     -4471.813  
  22668332.266    22668333.930      906947.31809    660620.80909      1780.203  
 97  6 24 14 57  5.0000000  0  6G01G14G15G02G29G31
  22439257.711    22439259.762     -172580.74009   -115286.90309      -176.016  
  21996553.430    21996556.031    -2231772.55601  -1632727.44609     -4114.422  
  20125915.188    20125916.395    -1069485.30806   -744775.29809     -1899.516  
  24660937.227    24660940.695     -395796.62009   -274653.52909      -624.750  
  22317345.305    22317347.637    -2426237.00509  -1764139.88909     -4470.750  
  22668671.273    22668673.102      908728.21009    662008.51709      1781.156  
 97  6 24 14 57  6.0000000  0  6G01G14G15G02G29G31
  22439224.422    22439226.496     -172756.24209   -115423.65609      -175.266  
  21995770.484    21995773.109    -2235886.59801  -1635933.19209     -4113.922  
  20125553.703    20125554.887    -1071384.37606   -746255.09109     -1898.891  
  24660818.375    24660821.949     -396420.89709   -275139.97809      -624.063  
  22316494.336    22316496.586    -2430707.34609  -1767623.27209     -4470.203  
  22669010.070    22669011.875      910509.74509    663396.72509      1781.609  
 97  6 24 14 57  7.0000000  0  6G01G14G15G02G29G31
  22439191.070    22439193.133     -172931.49309   -115560.21809      -175.219  
  21994987.828    21994990.488    -2240000.63701  -1639138.93609     -4114.125  
  20125192.375    20125193.594    -1073283.29806   -747734.77201     -1898.953  
  24660699.359    24660702.793     -397044.93209   -275626.23809      -624.016  
  22315643.758    22315645.984    -2435177.63009  -1771106.61209     -4470.328  
  22669349.258    22669351.297      912291.23309    664784.89409      1781.375  
 97  6 24 14 57  8.0000000  0  6G01G14G15G02G29G31
  22439157.836    22439159.887     -173106.43401   -115696.53909      -174.734  
  21994204.719    21994207.414    -2244114.60801  -1642344.62909     -4113.875  
  20124831.109    20124832.281    -1075182.02406   -749214.30101     -1898.563  
  24660580.633    24660583.832     -397668.68409   -276112.27909      -623.531  
  22314793.094    22314795.203    -2439647.78909  -1774589.85209     -4470.047  
  22669688.430    22669690.387      914072.74009    666173.07909      1781.563  
 97  6 24 14 57  9.0000000  0  6G01G14G15G02G29G31
  22439124.703    22439126.684     -173280.49501   -115832.17109      -173.203  
  21993421.930    21993424.555    -2248227.94201  -1645549.82309     -4112.594  
  20124469.867    20124471.004    -1077079.97406   -750693.22309     -1897.156  
  24660462.125    24660465.582     -398291.57409   -276597.64909      -622.047  
  22313942.531    22313944.512    -2444117.26609  -1778072.55909     -4468.719  
  22670027.234    22670029.168      915854.84209    667561.72809      1782.828  
 97  6 24 14 57 10.0000000  0  6G01G14G15G02G29G31
  22439091.727    22439093.637     -173454.02501   -115967.38809      -173.703  
  21992639.266    21992641.773    -2252340.98401  -1648754.79109     -4113.344  
  20124108.750    20124109.816    -1078977.49905   -752171.81309     -1897.766  
  24660344.156    24660347.543     -398913.93909   -277082.60609      -622.578  
  22313092.305    22313094.250    -2448586.39309  -1781554.99509     -4469.391  
  22670366.672    22670368.535      917637.19909    668950.57809      1782.047  
 97  6 24 14 57 11.0000000  0  7G01G14G07G15G02G29G31
  22439058.688    22439060.914     -173627.70001   -116102.71709      -173.328  
  21991856.555    21991859.074    -2256454.42001  -1651960.06409     -4113.203  
  24899563.719                           0.00019         0.00000     -4994.281  
  20123747.578    20123748.703    -1080875.27705   -753650.59909     -1897.469  
  24660225.508    24660229.047     -399536.48909   -277567.70509      -622.172  
  22312241.766    22312243.805    -2453055.84909  -1785037.68509     -4469.188  
  22670705.594    22670707.223      919419.12609    670339.09109      1782.141  
 97  6 24 14 57 12.0000000  0  7G01G14G07G15G02G29G31
  22439025.609    22439027.777     -173800.59309   -116237.44009      -172.516  
  21991073.672    21991076.109    -2260567.31701  -1655164.91809     -4112.656  
  24898613.953                           0.00009         0.00000     -4993.844  
  20123386.695    20123387.902    -1082772.38905   -755128.86909     -1896.781  
  24660106.859    24660110.469     -400158.27109   -278052.21009      -621.406  
  22311391.227    22311393.125    -2457524.72109  -1788519.91909     -4468.594  
  22671044.883    22671046.570      921201.55809    671728.00009      1782.672  
 97  6 24 14 57 13.0000000  0  7G01G14G07G15G02G29G31
  22438992.922    22438995.184     -173972.98609   -116371.77409      -172.172  
  21990291.094    21990293.555    -2264679.96901  -1658369.58109     -4112.563  
  24897664.008                           0.00009         0.00000     -4993.844  
  20123025.664    20123026.871    -1084669.10605   -756606.83109     -1896.563  
  24659989.352    24659993.125     -400779.56609   -278536.33209      -621.125  
  22310540.984    22310542.965    -2461993.30009  -1792001.92709     -4468.453  
  22671383.977    22671385.676      922984.19709    673117.07209      1782.719  
 97  6 24 14 57 14.0000000  0  7G01G14G07G15G02G29G31
  22438960.094    22438962.496     -174144.72609   -116505.59809      -171.516  
  21989508.750    21989511.305    -2268792.23301  -1661573.94309     -4112.172  
  24896713.086                       -4989.18509         0.00000     -4993.531  
  20122664.961    20122666.086    -1086565.30205   -758084.38809     -1896.031  
  24659871.445    24659875.043     -401400.26509   -279019.99209      -620.469  
  22309690.828    22309692.820    -2466461.41909  -1795483.57709     -4468.000  
  22671723.297    22671725.066      924767.17509    674506.40609      1783.047  
 97  6 24 14 57 15.0000000  0  7G01G14G07G15G02G29G31
  22438927.438    22438929.910     -174316.29209   -116639.28409      -171.359  
  21988726.078    21988728.598    -2272904.57201  -1664778.36009     -4112.266  
  24895764.172                       -9982.96809         0.00000     -4993.719  
  20122304.102    20122305.273    -1088461.44105   -759561.89809     -1896.000  
  24659752.352    24659759.160     -402020.83909   -279503.55109      -620.359  
  22308840.539    22308842.367    -2470929.57309  -1798965.25309     -4468.063  
  22672062.664    22672064.504      926550.02309    675895.63809      1782.906  
 97  6 24 14 57 16.0000000  0  7G01G14G07G15G02G29G31
  22438895.023    22438897.484     -174487.01709   -116772.31509      -170.141  
  21987943.398    21987945.895    -2277016.35501  -1667982.34509     -4111.313  
  24894813.742                      -14976.23509         0.00000     -4992.875  
  20121943.391    20121944.633    -1090356.86204   -761038.84909     -1894.891  
  24659634.953    24659640.977     -402640.58509   -279986.46409      -619.188  
  22307990.250    22307992.137    -2475397.10809  -1802446.44709     -4467.047  
  22672402.125    22672404.012      928333.40509    677285.28709      1783.828  
 97  6 24 14 57 17.0000000  0  7G01G14G07G15G02G29G31
  22438862.625    22438865.086     -174657.04409   -116904.80409      -170.141  
  21987161.031    21987163.574    -2281127.69401  -1671185.98609     -4111.594  
  24893862.219                      -19969.17509         0.00000     -4993.203  
  20121582.844    20121584.086    -1092251.70004   -762515.34709     -1895.016  
  24659516.633    24659522.176     -403259.68609   -280468.88109      -619.234  
  22307140.305    22307142.156    -2479864.13809  -1805927.25209     -4467.266  
  22672741.391    22672743.195      930117.19709    678675.25409      1783.516  
 97  6 24 14 57 18.0000000  0  7G01G14G07G15G02G29G31
  22438830.352    22438832.730     -174826.97309   -117037.21909      -169.750  
  21986378.891    21986381.434    -2285239.20601  -1674389.76109     -4111.469  
  24892913.367                      -24962.36909         0.00000     -4993.172  
  20121222.227    20121223.434    -1094146.56605   -763991.86909     -1894.750  
  24659399.078    24659404.891     -403878.75309   -280951.26809      -618.906  
  22306290.094    22306291.781    -2484331.28009  -1809408.14009     -4467.047  
  22673080.750    22673082.590      931900.77809    680065.05609      1783.625  
 97  6 24 14 57 19.0000000  0  7G01G14G07G15G02G29G31
  22438797.977    22438800.285     -174996.38609   -117169.22609      -168.922  
  21985596.609    21985599.199    -2289350.48101  -1677593.35209     -4110.906  
  24891962.508                      -29955.37209         0.00000     -4992.703  
  20120861.680    20120862.922    -1096041.02805   -765468.07309     -1894.047  
  24659281.305    24659287.410     -404497.33009   -281433.27109      -618.141  
  22305439.953    22305441.594    -2488798.10709  -1812888.78409     -4466.438  
  22673420.523    22673422.211      933684.58409    681455.03309      1784.125  
 97  6 24 14 57 20.0000000  0  7G01G14G07G15G02G29G31
  22438765.758    22438768.160     -175165.30009   -117300.84409      -168.828  
  21984814.273    21984816.734    -2293461.50601  -1680796.74309     -4111.094  
  24891013.664                      -34948.24209         0.00000     -4992.938  
  20120501.188    20120502.430    -1097935.10705   -766943.97509     -1894.063  
  24659164.305    24659167.551     -405115.47009   -281914.94409      -618.078  
  22304589.977    22304591.664    -2493264.62909  -1816369.18809     -4466.563  
  22673759.797    22673761.742      935468.57709    682845.16109      1783.938  
 97  6 24 14 57 21.0000000  0  7G01G14G07G15G02G29G31
  22438734.047    22438736.613     -175333.66709   -117432.03609      -167.875  
  21984032.281    21984034.766    -2297572.26001  -1683999.92409     -4110.391  
  24890063.242                      -39940.92209         0.00000     -4992.328  
  20120141.023    20120142.277    -1099828.76604   -768419.54909     -1893.219  
  24659046.539    24659049.223     -405733.11609   -282396.24109      -617.188  
  22303740.063    22303741.750    -2497730.84009  -1819849.34809     -4465.828  
  22674099.391    22674101.383      937252.83909    684235.49609      1784.609  
 97  6 24 14 57 22.0000000  0  7G01G14G07G15G02G29G31
  22438702.133    22438704.746     -175501.14309   -117562.53709      -167.063  
  21983250.109    21983252.676    -2301682.39601  -1687202.62509     -4109.859  
  24889113.039                      -44933.03209         0.00000     -4991.891  
  20119780.758    20119781.977    -1101721.65205   -769894.52409     -1892.531  
  24658928.813    24658931.883     -406349.92509   -282876.88009      -616.422  
  22302890.234    22302891.852    -2502196.37409  -1823328.98609     -4465.234  
  22674439.156    22674441.230      939037.69109    685626.29109      1785.125  
 97  6 24 14 57 23.0000000  0  7G01G14G07G15G02G29G31
  22438670.344    22438672.641     -175667.72309   -117692.33609      -166.484  
  21982467.820    21982470.352    -2305791.90501  -1690404.83609     -4109.547  
  24888162.414                      -49924.61409         0.00000     -4991.641  
  20119420.523    20119421.848    -1103613.76905   -771368.89809     -1892.063  
  24658812.297    24658815.227     -406965.90909   -283356.86809      -615.891  
  22302040.844    22302042.473    -2506661.23009  -1826808.09309     -4464.859  
  22674778.531    22674780.617      940823.13809    687017.54909      1785.391  
 97  6 24 14 57 24.0000000  0  7G01G14G07G15G02G29G31
  22438638.594    22438641.043     -175834.08909   -117821.96909      -165.938  
  21981685.930    21981688.508    -2309901.46801  -1693607.09109     -4109.281  
  24887212.484                      -54916.31609         0.00000     -4991.484  
  20119060.492    20119061.887    -1105505.79104   -772843.20209     -1891.656  
  24658695.031    24658698.172     -407581.73309   -283836.73809      -615.422  
  22301191.297    22301192.914    -2511126.07109  -1830287.19109     -4464.531  
  22675118.531    22675120.605      942608.49409    688408.73209      1785.641  
 97  6 24 14 57 25.0000000  0  7G01G14G07G15G02G29G31
  22438607.055    22438609.422     -175999.71101   -117951.02709      -165.703  
  21980904.086    21980906.723    -2314010.58601  -1696809.00209     -4109.313  
  24886263.023                      -59907.64309         0.00000     -4991.563  
  20118700.516    20118701.934    -1107397.19104   -774317.02109     -1891.547  
  24658577.445    24658580.434     -408196.88809   -284316.08009      -615.281  
  22300341.820    22300343.344    -2515590.39309  -1833765.88409     -4464.516  
  22675458.281    22675460.473      944394.31109    689800.27309      1785.594  
 97  6 24 14 57 26.0000000  0  7G01G14G07G15G02G29G31
  22438575.680    22438578.070     -176165.05909   -118079.87209      -164.938  
  21980122.039    21980124.676    -2318119.70301  -1700010.91409     -4108.875  
  24885313.844                      -64899.01909         0.00000     -4991.156  
  20118340.711    20118342.141    -1109288.45104   -775790.73209     -1890.906  
  24658460.141    24658463.645     -408811.84009   -284795.26409      -614.578  
  22299492.313    22299493.836    -2520054.66409  -1837244.53909     -4463.984  
  22675798.117    22675800.285      946180.09309    691191.78609      1786.031  
 97  6 24 14 57 27.0000000  0  7G01G14G07G15G02G29G31
  22438544.297    22438546.770     -176329.66601   -118208.14209      -164.328  
  21979340.219    21979342.879    -2322228.36501  -1703212.47209     -4108.531  
  24884363.555                      -69890.04709         0.00000     -4990.906  
  20117981.070    20117982.547    -1111179.09304   -777263.96109     -1890.422  
  24658343.477    24658346.793     -409426.12009   -285273.92709      -614.031  
  22298642.773    22298644.191    -2524518.42009  -1840722.79009     -4463.594  
  22676137.844    22676140.000      947966.31509    692583.64609      1786.344  
 97  6 24 14 57 28.0000000  0  7G01G14G07G15G02G29G31
  22438512.992    22438515.605     -176493.63209   -118335.91209      -163.125  
  21978558.383    21978560.984    -2326336.68601  -1706413.76309     -4107.625  
  24883413.914                      -74880.77109         0.00000     -4990.094  
  20117621.109    20117622.609    -1113069.21804   -778736.78809     -1889.359  
  24658227.250    24658230.695     -410039.81909   -285752.13609      -612.906  
  22297793.469    22297794.816    -2528981.76809  -1844200.72709     -4462.609  
  22676477.867    22676479.953      949752.88009    693975.77109      1787.250  
 97  6 24 14 57 29.0000000  0  7G01G14G07G15G02G29G31
  22438482.102    22438484.598     -176655.92509   -118462.37809      -161.516  
  21977776.984    21977779.586    -2330443.61501  -1709613.97009     -4106.328  
  24882464.867                      -79870.19109         0.00000     -4988.797  
  20117261.844    20117263.332    -1114957.80404   -780208.41601     -1887.875  
  24658111.070    24658114.797     -410651.92109   -286229.10209      -611.375  
  22296944.359    22296945.754    -2533443.67409  -1847677.53909     -4461.266  
  22676818.305    22676820.426      951540.80309    695368.95509      1788.547  
 97  6 24 14 57 30.0000000  0  7G01G14G07G15G02G29G31
  22438451.469    22438454.035     -176817.69609   -118588.43909      -162.313  
  21976995.352    21976997.988    -2334550.31501  -1712813.99809     -4107.391  
  24881515.750                      -84859.45509         0.00000     -4989.984  
  20116902.633    20116904.145    -1116845.99703   -781679.73801     -1888.797  
  24657994.219    24657997.945     -411263.57709   -286705.72009      -612.234  
  22296095.406    22296096.848    -2537905.29209  -1851154.12709     -4462.281  
  22677158.523    22677160.715      953328.94809    696762.31109      1787.438  
 97  6 24 14 57 31.0000000  0  7G01G14G07G15G02G29G31
  22438420.773    22438423.328     -176979.71809   -118714.69409      -161.953  
  21976213.891    21976216.410    -2338657.56801  -1716014.45609     -4107.313  
  24880565.305                      -89849.30709         0.00000     -4989.969  
  20116543.180    20116544.750    -1118734.56504   -783151.35201     -1888.563  
  24657877.516    24657880.973     -411875.55509   -287182.58709      -611.938  
  22295246.352    22295247.828    -2542367.40209  -1854631.09809     -4462.156  
  22677498.875    22677501.195      955116.53309    698155.23109      1787.500  
 97  6 24 14 57 32.0000000  0  7G01G14G07G15G02G29G31
  22438389.867    22438392.352     -177141.32309   -118840.62409      -161.031  
  21975432.352    21975434.777    -2342764.69301  -1719214.81509     -4106.719  
  24879616.047                      -94839.12309         0.00000     -4989.422  
  20116183.789    20116185.348    -1120622.85104   -784622.74501     -1887.766  
  24657761.406    24657764.617     -412487.17809   -287659.17909      -611.078  
  22294397.156    22294398.809    -2546829.33409  -1858107.93009     -4461.484  
  22677838.695    22677841.086      956904.21709    699548.23009      1788.109  
 97  6 24 14 57 33.0000000  0  7G01G14G07G15G02G29G31
  22438359.367    22438361.816     -177301.82609   -118965.69409      -160.109  
  21974650.977    21974653.355    -2346870.99702  -1722414.53209     -4106.063  
  24878666.141                      -99828.19109         0.00000     -4988.844  
  20115824.859    20115826.430    -1122510.14605   -786093.36601     -1886.969  
  24657644.672    24657647.590     -413097.77109   -288134.96509      -610.219  
  22293548.180    22293549.879    -2551290.36509  -1861584.05909     -4460.766  
  22678179.383    22678181.738      958692.72109    700941.86809      1788.734  
 97  6 24 14 57 34.0000000  0  7G01G14G07G15G02G29G31
  22438328.938    22438331.375     -177461.91109   -119090.43909      -160.359  
  21973869.406    21973871.844    -2350977.19402  -1725614.16709     -4106.609  
  24877716.852                     -104817.19409         0.00000     -4989.469  
  20115465.805    20115467.340    -1124397.16505   -787563.77201     -1887.359  
  24657528.430    24657531.465     -413708.02309   -288610.48209      -610.563  
  22292699.414    22292701.031    -2555751.26009  -1865060.08109     -4461.281  
  22678519.578    22678521.945      960481.31809    702335.57609      1788.156  
 97  6 24 14 57 35.0000000  0  7G01G14G07G15G02G29G31
  22438298.383    22438300.902     -177622.01309   -119215.19809      -159.516  
  21973088.078    21973090.434    -2355083.68503  -1728814.03109     -4106.078  
  24876767.656                     -109806.57909         0.00000     -4989.000  
  20115106.563    20115108.133    -1126284.32205   -789034.28501     -1886.641  
  24657413.227    24657415.957     -414318.34209   -289086.05209      -609.766  
  22291850.492    22291852.238    -2560212.38209  -1868536.28109     -4460.688  
  22678859.664    22678862.090      962269.60009    703729.03809      1788.703  
 97  6 24 14 57 36.0000000  0  7G01G14G07G15G02G29G31
  22438268.008    22438270.527     -177781.44109   -119339.42909      -159.250  
  21972306.602    21972308.934    -2359189.78604  -1732013.59009     -4106.078  
  24875818.969                     -114795.67109         0.00000     -4989.109  
  20114747.523    20114749.141    -1128170.94205   -790504.38101     -1886.500  
  24657296.266    24657298.832     -414928.06909   -289561.16409      -609.578  
  22291001.891    22291003.613    -2564673.09109  -1872012.15809     -4460.656  
  22679200.461    22679202.992      964058.25109    705122.78609      1788.672  
